OID_,id,region,zone,name,lat,long,quality,frequency,direction,type,experience,BUFF_DIST,ORIG_FID,Shape_Length,Shape_Area,sum_Area_SQUAREKILOMETERS,Polygon_Count
1,9,Sudeste,NA,Ilha Comprida,-24.783999999999999,-47.594999999999999,NA,NA,NA,NA,NA,10000.000000000000000,1,62831.853071795863798,314159265.358979284763336,0.195228226017865,1343
2,10,Sudeste,NA,Iguape,-24.753211000000000,-47.542059000000002,NA,NA,NA,NA,NA,10000.000000000000000,2,62831.853071795863798,314159265.358979284763336,0.347573279876270,2316
3,11,Sudeste,NA,Peruibe,-24.324427000000000,-46.978886000000003,NA,NA,NA,NA,NA,10000.000000000000000,3,62831.853071795863798,314159265.358979284763336,0.250787198808680,1722
4,12,Sudeste,NA,Praia dos Pescadores,-24.194862000000001,-46.798881999999999,NA,NA,NA,NA,NA,10000.000000000000000,4,62831.853071795863798,314159265.358979284763336,0.202524781702134,872
5,13,Sudeste,NA,Itanhaem,-24.151427000000002,-46.707858000000002,NA,NA,NA,NA,NA,10000.000000000000000,5,62831.853071795863798,314159265.358979284763336,0.151866075224450,719
6,14,Sudeste,NA,Praia Grande,-24.028497000000002,-46.438310000000001,NA,NA,NA,NA,NA,10000.000000000000000,6,62831.853071795863798,314159265.358979284763336,0.496561974192850,442
7,15,Sudeste,NA,Praia do Forte dos Andradas,-24.028369000000001,-46.288159000000000,NA,NA,NA,NA,NA,10000.000000000000000,7,62831.853071795863798,314159265.358979284763336,1.347258864239982,1716
8,16,Sudeste,NA,Praia do Forte dos Andradas,-24.025659999999998,-46.285460000000000,NA,NA,NA,NA,NA,10000.000000000000000,8,62831.853071795863798,314159265.358979284763336,1.405958697067669,1767
9,17,Sudeste,NA,Praia da Ponta Grossa,-24.024816000000001,-46.314497000000003,NA,NA,NA,NA,NA,10000.000000000000000,9,62831.853071795863798,314159265.358979284763336,1.612472092889589,1772
10,18,Sudeste,NA,Itaipu,-24.019545000000001,-46.386795999999997,NA,NA,NA,NA,NA,10000.000000000000000,10,62831.853071795863798,314159265.358979284763336,0.965857968886653,1334
11,19,Sudeste,NA,Guaiuba,-24.017081999999998,-46.295202000000003,NA,NA,NA,NA,NA,10000.000000000000000,11,62831.853071795863798,314159265.358979284763336,1.801429230137755,2172
12,20,Sudeste,NA,Santos,-24.015000000000001,-46.353999999999999,NA,NA,NA,NA,NA,10000.000000000000000,12,62831.853071795863798,314159265.358979284763336,2.008796328752183,2010
13,21,Sudeste,NA,Morro do Maluf,-23.997560000000000,-46.251593999999997,NA,NA,NA,NA,NA,10000.000000000000000,13,62831.853071795863798,314159265.358979284763336,1.656442772375229,2158
14,22,Sudeste,NA,Praia da Enseada,-23.990651000000000,-46.209406000000001,NA,NA,NA,NA,NA,10000.000000000000000,14,62831.853071795863798,314159265.358979284763336,0.751982445815170,895
15,23,Sudeste,NA,Embare,-23.980865999999999,-46.317684000000000,NA,NA,NA,NA,NA,10000.000000000000000,15,62831.853071795863798,314159265.358979284763336,2.411386518284735,2746
16,24,Sudeste,NA,Gonzaga,-23.974027000000000,-46.330098000000000,NA,NA,NA,NA,NA,10000.000000000000000,16,62831.853071795863798,314159265.358979284763336,2.509214040782061,2954
17,25,Sudeste,NA,Pereque,-23.927582999999998,-46.178826000000001,NA,NA,NA,NA,NA,10000.000000000000000,17,62831.853071795863798,314159265.358979284763336,0.174188044805341,520
18,26,Sudeste,NA,Praia Preta,-23.874700000000001,-46.138959000000000,NA,NA,NA,NA,NA,10000.000000000000000,18,62831.853071795863798,314159265.358979284763336,0.069525514120012,102
19,27,Sudeste,NA,Praia da Bertioga,-23.846986000000001,-46.126967999999998,NA,NA,NA,NA,NA,10000.000000000000000,19,62831.853071795863798,314159265.358979284763336,0.137737337455230,241
20,28,Sudeste,NA,Maresias,-23.793693260000001,-45.559764340000001,NA,NA,NA,NA,NA,10000.000000000000000,20,62831.853071795863798,314159265.358979284763336,0.042602736773198,85
21,29,Sudeste,NA,Canto de Moreira,-23.793056000000000,-45.587394000000003,NA,NA,NA,NA,NA,10000.000000000000000,21,62831.853071795863798,314159265.358979284763336,0.051790903500103,91
22,30,Sudeste,NA,Itaguere,-23.786995000000001,-45.971372000000002,NA,NA,NA,NA,NA,10000.000000000000000,22,62831.853071795863798,314159265.358979284763336,0.541022718564857,368
23,31,Sudeste,NA,Boicucanga,-23.784431000000001,-45.631354999999999,NA,NA,NA,NA,NA,10000.000000000000000,23,62831.853071795863798,314159265.358979284763336,0.060695764685781,156
24,32,Sudeste,NA,Praia de Baleia,-23.775839000000001,-45.683985999999997,NA,NA,NA,NA,NA,10000.000000000000000,24,62831.853071795863798,314159265.358979284763336,0.068936159266281,283
25,33,Sudeste,NA,Barra do Sahy,-23.774384999999999,-45.697569999999999,NA,NA,NA,NA,NA,10000.000000000000000,25,62831.853071795863798,314159265.358979284763336,0.068936159266281,283
26,34,Sudeste,NA,Praia Preta,-23.773009999999999,-45.715814999999999,NA,NA,NA,NA,NA,10000.000000000000000,26,62831.853071795863798,314159265.358979284763336,0.058311768737362,267
27,35,Sudeste,NA,Bananas Point,-23.771605000000001,-45.706209999999999,NA,NA,NA,NA,NA,10000.000000000000000,27,62831.853071795863798,314159265.358979284763336,0.068620232757239,281
28,36,Sudeste,NA,Praia do Juquei,-23.768115000000002,-45.745452999999998,NA,NA,NA,NA,NA,10000.000000000000000,28,62831.853071795863798,314159265.358979284763336,0.047557526951548,244
29,37,Sudeste,NA,Barra do Una,-23.763818000000001,-45.762779999999999,NA,NA,NA,NA,NA,10000.000000000000000,29,62831.853071795863798,314159265.358979284763336,0.050677388391902,248
30,38,Sudeste,NA,Praia da Boracéia,-23.758372999999999,-45.828777000000002,NA,NA,NA,NA,NA,10000.000000000000000,30,62831.853071795863798,314159265.358979284763336,0.019358184670280,52
31,39,Sudeste,NA,Praia Dura,-23.496058000000001,-45.171014000000000,NA,NA,NA,NA,NA,10000.000000000000000,31,62831.853071795863798,314159265.358979284763336,0.021976666758307,69
32,40,Sudeste,NA,Pereque-Acu,-23.424565000000001,-45.062697000000000,NA,NA,NA,NA,NA,10000.000000000000000,32,62831.853071795863798,314159265.358979284763336,0.071900209643824,127
33,41,Sudeste,NA,Itamambuca,-23.406683000000001,-45.008741000000001,NA,NA,NA,NA,NA,10000.000000000000000,33,62831.853071795863798,314159265.358979284763336,0.055264380081641,95
34,42,Sudeste,NA,Praia da Fazenda,-23.361352000000000,-44.859766000000000,NA,NA,NA,NA,NA,10000.000000000000000,34,62831.853071795863798,314159265.358979284763336,0.002307500668172,13
35,43,Sudeste,NA,Aventureiro,-23.184405999999999,-44.315804000000000,NA,NA,NA,NA,NA,10000.000000000000000,35,62831.853071795863798,314159265.358979284763336,0.058879281385762,565
36,44,Sudeste,NA,Praia do Leste,-23.179746000000002,-44.274093999999998,NA,NA,NA,NA,NA,10000.000000000000000,36,62831.853071795863798,314159265.358979284763336,0.097205477191793,861
37,45,Sudeste,NA,Praia do Sul,-23.178656000000000,-44.296756999999999,NA,NA,NA,NA,NA,10000.000000000000000,37,62831.853071795863798,314159265.358979284763336,0.077553924096777,740
38,46,Sudeste,NA,Praia do Meio,-23.066913000000000,-43.549809000000003,NA,NA,NA,NA,NA,10000.000000000000000,38,62831.853071795863798,314159265.358979284763336,0.563834179202433,1753
39,47,Sudeste,NA,Restinga a Marambaia,-23.061833000000000,-43.591673000000000,NA,NA,NA,NA,NA,10000.000000000000000,39,62831.853071795863798,314159265.358979284763336,0.162460805686849,199
40,48,Sudeste,NA,Grumari,-23.050469000000000,-43.533907999999997,NA,NA,NA,NA,NA,10000.000000000000000,40,62831.853071795863798,314159265.358979284763336,1.004937562473573,2586
41,49,Sudeste,NA,Reserva,-23.022717000000000,-43.440916000000001,NA,NA,NA,NA,NA,10000.000000000000000,41,62831.853071795863798,314159265.358979284763336,3.454440057911825,5810
42,50,Sudeste,NA,Barra da Tijuca,-23.020340120000000,-43.372478489999999,NA,NA,NA,NA,NA,10000.000000000000000,42,62831.853071795863798,314159265.358979284763336,4.296245362606604,5082
43,51,Sudeste,NA,Barra da Tijuca,-23.014886109999999,-43.372222219999998,NA,NA,NA,NA,NA,10000.000000000000000,43,62831.853071795863798,314159265.358979284763336,4.522638913351383,5234
44,52,Sudeste,NA,Sao Conrado,-23.000617999999999,-43.264187000000000,NA,NA,NA,NA,NA,10000.000000000000000,44,62831.853071795863798,314159265.358979284763336,5.874191620674829,28388
45,53,Sudeste,NA,Bambui,-22.975255000000001,-42.916570000000000,NA,NA,NA,NA,NA,10000.000000000000000,45,62831.853071795863798,314159265.358979284763336,0.087441421336357,261
46,54,Sudeste,NA,Itaipuacu,-22.971149000000000,-43.011260000000000,NA,NA,NA,NA,NA,10000.000000000000000,46,62831.853071795863798,314159265.358979284763336,0.339174657597268,678
47,55,Sudeste,NA,Barra de Marica,-22.962100000000000,-42.809486999999997,NA,NA,NA,NA,NA,10000.000000000000000,47,62831.853071795863798,314159265.358979284763336,0.144232530951988,121
48,56,Sudeste,NA,Camboinhas,-22.961998000000001,-43.059922999999998,NA,NA,NA,NA,NA,10000.000000000000000,48,62831.853071795863798,314159265.358979284763336,1.221555287029616,3911
49,57,Sudeste,NA,Pirantininga,-22.955044999999998,-43.088653999999998,NA,NA,NA,NA,NA,10000.000000000000000,49,62831.853071795863798,314159265.358979284763336,2.618274214390780,6396
50,58,Sudeste,NA,Jacone,-22.946556000000001,-42.679789000000000,NA,NA,NA,NA,NA,10000.000000000000000,50,62831.853071795863798,314159265.358979284763336,0.157244683641267,317
51,59,Sudeste,NA,Figueira,-22.944991999999999,-42.188828000000001,NA,NA,NA,NA,NA,10000.000000000000000,51,62831.853071795863798,314159265.358979284763336,0.001435973234271,8
52,60,Sudeste,NA,Praia do Fora,-22.944794000000002,-43.155304000000001,NA,NA,NA,NA,NA,10000.000000000000000,52,62831.853071795863798,314159265.358979284763336,13.793582290069420,58121
53,61,Sudeste,NA,Laje do Pao de Acucar,-22.938409000000000,-43.151797000000002,NA,NA,NA,NA,NA,10000.000000000000000,53,62831.853071795863798,314159265.358979284763336,13.678839046871051,55786
54,62,Sudeste,NA,Canal,-22.937418999999998,-42.487813000000003,NA,NA,NA,NA,NA,10000.000000000000000,54,62831.853071795863798,314159265.358979284763336,0.033624519590381,52
55,63,Sudeste,NA,Praia Seca,-22.936126000000002,-42.361598000000001,NA,NA,NA,NA,NA,10000.000000000000000,55,62831.853071795863798,314159265.358979284763336,0.134892522665683,334
56,64,Sudeste,NA,Caravelas,-22.814850000000000,-41.953901999999999,NA,NA,NA,NA,NA,10000.000000000000000,56,62831.853071795863798,314159265.358979284763336,0.254966059351482,630
57,65,Sudeste,NA,Tucuns,-22.799863999999999,-41.929282000000001,NA,NA,NA,NA,NA,10000.000000000000000,57,62831.853071795863798,314159265.358979284763336,0.239880906523677,621
58,66,Sudeste,NA,Praia Brava,-22.754252000000001,-41.872608999999997,NA,NA,NA,NA,NA,10000.000000000000000,58,62831.853071795863798,314159265.358979284763336,0.186244983480419,508
59,67,Sudeste,NA,Marataizes,-21.044882999999999,-40.827455999999998,NA,NA,NA,NA,NA,10000.000000000000000,59,62831.853071795863798,314159265.358979284763336,0.157075011752472,1177
60,68,Sudeste,NA,Ponta do Ubu,-20.793246000000000,-40.579551000000002,NA,NA,NA,NA,NA,10000.000000000000000,60,62831.853071795863798,314159265.358979284763336,0.616357034213569,3365
61,69,Sudeste,NA,Ponta dos Castelhanos,-20.755085000000001,-40.560755000000000,NA,NA,NA,NA,NA,10000.000000000000000,61,62831.853071795863798,314159265.358979284763336,0.750564442726341,4702
62,70,Sudeste,NA,Maimba,-20.707021999999998,-40.514367999999997,NA,NA,NA,NA,NA,10000.000000000000000,62,62831.853071795863798,314159265.358979284763336,2.810673357840219,17522
63,71,Sudeste,NA,Praia do Morro,-20.659787999999999,-40.493842999999998,NA,NA,NA,NA,NA,10000.000000000000000,63,62831.853071795863798,314159265.358979284763336,3.441325748254545,23160
64,72,Sudeste,NA,Ponta de Bororo,-20.614518000000000,-40.415382000000001,NA,NA,NA,NA,NA,10000.000000000000000,64,62831.853071795863798,314159265.358979284763336,1.715920233776019,12030
65,73,Sudeste,NA,Tropical,-20.559543999999999,-40.391810000000000,NA,NA,NA,NA,NA,10000.000000000000000,65,62831.853071795863798,314159265.358979284763336,0.380453779002650,3131
66,74,Sudeste,NA,Dunas de Ule,-20.542100000000001,-40.379860999999998,NA,NA,NA,NA,NA,10000.000000000000000,66,62831.853071795863798,314159265.358979284763336,0.110471237613324,657
67,75,Sudeste,NA,Guarapari - Ule,-20.541319000000001,-40.378385999999999,NA,NA,NA,NA,NA,10000.000000000000000,67,62831.853071795863798,314159265.358979284763336,0.112189997492403,660
68,76,Sudeste,NA,Ponta da Fruta,-20.516836999999999,-40.358133000000002,NA,NA,NA,NA,NA,10000.000000000000000,68,62831.853071795863798,314159265.358979284763336,0.270213088512823,1936
69,77,Sudeste,NA,Coral Dois,-20.448948000000001,-40.330300000000001,NA,NA,NA,NA,NA,10000.000000000000000,69,62831.853071795863798,314159265.358979284763336,1.822158541649248,10819
70,78,Sudeste,NA,Ponta da Belina,-20.445827000000001,-40.329245000000000,NA,NA,NA,NA,NA,10000.000000000000000,70,62831.853071795863798,314159265.358979284763336,1.943952251269293,10967
71,79,Sudeste,NA,Coral Um,-20.437659000000000,-40.326006999999997,NA,NA,NA,NA,NA,10000.000000000000000,71,62831.853071795863798,314159265.358979284763336,2.288868371840458,11707
72,80,Sudeste,NA,"Barrao, Brazil",-20.427381000000000,-40.320982000000001,NA,NA,NA,NA,NA,10000.000000000000000,72,62831.853071795863798,314159265.358979284763336,2.832867186553687,13606
73,81,Sudeste,NA,Barrinha,-20.422540999999999,-40.321933999999999,NA,NA,NA,NA,NA,10000.000000000000000,73,62831.853071795863798,314159265.358979284763336,3.083720530484080,14393
74,82,Sudeste,NA,Praia de Camburi,-20.279677000000000,-40.248994000000003,NA,NA,NA,NA,NA,10000.000000000000000,74,62831.853071795863798,314159265.358979284763336,10.001166327289582,65066
75,83,Sudeste,NA,Velzyland,-20.244838999999999,-40.216205000000002,NA,NA,NA,NA,NA,10000.000000000000000,75,62831.853071795863798,314159265.358979284763336,3.791985764174821,16898
76,84,Sudeste,NA,Ponta da Cacao,-20.219573000000000,-40.196268000000003,NA,NA,NA,NA,NA,10000.000000000000000,76,62831.853071795863798,314159265.358979284763336,2.257108411490799,6841
77,85,Sudeste,NA,"Manguinhos, Brazil",-20.199344000000000,-40.190266999999999,NA,NA,NA,NA,NA,10000.000000000000000,77,62831.853071795863798,314159265.358979284763336,1.026087460358267,1196
78,86,Sudeste,NA,Praia da Baleia,-20.171105000000001,-40.184866000000000,NA,NA,NA,NA,NA,10000.000000000000000,78,62831.853071795863798,314159265.358979284763336,0.757434125000600,547
79,87,Sudeste,NA,Jacaraipe - Solemar,-20.109774999999999,-40.171481000000000,NA,NA,NA,NA,NA,10000.000000000000000,79,62831.853071795863798,314159265.358979284763336,0.276723270301686,293
80,88,Sudeste,NA,Xa,-20.107229000000000,-40.171174999999998,NA,NA,NA,NA,NA,10000.000000000000000,80,62831.853071795863798,314159265.358979284763336,0.244126258020958,290
81,89,Sudeste,NA,Nova Almeida,-20.058461999999999,-40.183000999999997,NA,NA,NA,NA,NA,10000.000000000000000,81,62831.853071795863798,314159265.358979284763336,0.143747323334403,232
82,90,Sudeste,NA,Praia Grande,-20.047100000000000,-40.182743000000002,NA,NA,NA,NA,NA,10000.000000000000000,82,62831.853071795863798,314159265.358979284763336,0.093492654180495,128
83,91,Sudeste,NA,Regencia,-19.562811000000000,-39.764263999999997,NA,NA,NA,NA,NA,10000.000000000000000,83,62831.853071795863798,314159265.358979284763336,0.001925489530151,3
84,92,Sudeste,NA,Guriri,-18.910750000000000,-39.738563999999997,NA,NA,NA,NA,NA,10000.000000000000000,84,62831.853071795863798,314159265.358979284763336,0.000000000000000,0
85,329,Sudeste,Sao Paolo South,"Guarau, Peruibe SP",-24.369537000000001,-47.011699999999998,3,4,Right and left,Beach-break,All surfers,10000.000000000000000,85,62831.853071795863798,314159265.358979284763336,0.204871828767668,1398
86,330,Sudeste,Sao Paolo South,Pier de Mongaguá,-24.095718000000002,-46.618552000000001,3.5,4,Right and left,Beach-break,All surfers,10000.000000000000000,86,62831.853071795863798,314159265.358979284763336,0.044943148865638,125
87,332,Sudeste,Sao Paolo South,Tombo,-24.014990000000001,-46.272697000000001,3.5,4,Right and left,Beach-break,All surfers,10000.000000000000000,87,62831.853071795863798,314159265.358979284763336,1.599219151953487,1992
88,333,Sudeste,Sao Paulo North,Astúrias,-24.007738000000000,-46.266475000000000,3,2,Right and left,Beach-break,All surfers,10000.000000000000000,88,62831.853071795863798,314159265.358979284763336,1.715833006903995,2172
89,334,Sudeste,Sao Paolo South,Pitangueiras Beach,-24.000935999999999,-46.260767000000001,3.5,4,Right and left,Beach-break,Experienced surfers,10000.000000000000000,89,62831.853071795863798,314159265.358979284763336,1.760542609880132,2216
90,335,Sudeste,Sao Paulo North,porta do sol,-23.981331999999998,-46.373762999999997,3.5,2,Right and left,Point-break,Experienced surfers,10000.000000000000000,90,62831.853071795863798,314159265.358979284763336,2.422831629220253,2759
91,336,Sudeste,Sao Paolo South,Itarare,-23.972332999999999,-46.362003999999999,3,3,Right and left,Beach-break,All surfers,10000.000000000000000,91,62831.853071795863798,314159265.358979284763336,2.584986917890189,2882
92,337,Sudeste,Sao Paolo South,Santos,-23.971744000000001,-46.347208999999999,3,3,Right and left,Beach-break,All surfers,10000.000000000000000,92,62831.853071795863798,314159265.358979284763336,2.578975525646686,2871
93,338,Sudeste,Sao Paolo South,"Praia de Pernambuco (Pernambuco Beach, in Guaruja)",-23.963431000000000,-46.184033999999997,3.5,4,Right and left,Beach-break,All surfers,10000.000000000000000,93,62831.853071795863798,314159265.358979284763336,0.264879898128455,610
94,339,Sudeste,Sao Paulo North,Bonete,-23.917383000000001,-45.347785999999999,3.5,4,Right and left,Beach-break,Experienced surfers,10000.000000000000000,94,62831.853071795863798,314159265.358979284763336,0.000417580211079,3
95,340,Sudeste,Sao Paulo North,Sao Pedro,-23.908522000000001,-46.166581000000001,4,3,Right and left,Sand-bar,All surfers,10000.000000000000000,95,62831.853071795863798,314159265.358979284763336,0.051981460854937,39
96,341,Sudeste,Sao Paolo South,Praia de Iporanga,-23.902191999999999,-46.152724999999997,3.5,2,Left,Reef-rocky,Pros or kamikaze only...,10000.000000000000000,96,62831.853071795863798,314159265.358979284763336,0.063944409261148,37
97,342,Sudeste,Sao Paolo South,Taguaíba,-23.896726000000001,-46.151353999999998,3.5,4,Right and left,Beach-break,All surfers,10000.000000000000000,97,62831.853071795863798,314159265.358979284763336,0.087371124301380,97
98,343,Sudeste,Sao Paolo South,praia branca,-23.863427999999999,-46.130795999999997,3.5,3,Left,Beach-break,All surfers,10000.000000000000000,98,62831.853071795863798,314159265.358979284763336,0.071760643643570,111
99,344,Sudeste,Sao Paulo North,Castelhanos,-23.857582000000001,-45.288905999999997,3.5,3,Right and left,Beach-break,Experienced surfers,10000.000000000000000,99,62831.853071795863798,314159265.358979284763336,0.122956954711865,491
100,345,Sudeste,Sao Paulo North,Enseada - Bertioga,-23.839860000000002,-46.123674000000001,3,4,Right and left,Beach-break,All surfers,10000.000000000000000,100,62831.853071795863798,314159265.358979284763336,0.137997109408910,243
101,346,Sudeste,Sao Paulo North,Santiago,-23.819897999999998,-45.541420000000002,3.5,2,Right and left,Beach-break,Experienced surfers,10000.000000000000000,101,62831.853071795863798,314159265.358979284763336,0.029281710509448,52
102,347,Sudeste,Sao Paulo North,Guaecá,-23.819123000000001,-45.466200000000001,3.5,3,Right and left,Beach-break,All surfers,10000.000000000000000,102,62831.853071795863798,314159265.358979284763336,0.127735429923394,342
103,348,Sudeste,Sao Paulo North,Riviera de São Lourenço,-23.808668999999998,-46.022072000000001,3,3,Right and left,Beach-break,All surfers,10000.000000000000000,103,62831.853071795863798,314159265.358979284763336,0.555722277848276,403
104,349,Sudeste,Sao Paulo North,Paúba,-23.802819000000000,-45.553167999999999,4,2,Right and left,Beach-break,Pros or kamikaze only...,10000.000000000000000,104,62831.853071795863798,314159265.358979284763336,0.039780431057372,64
105,350,Sudeste,Sao Paulo North,Itaguaré,-23.796026000000001,-45.991173000000003,3,4,Right and left,Beach-break,All surfers,10000.000000000000000,105,62831.853071795863798,314159265.358979284763336,0.545165004014563,379
106,351,Sudeste,Sao Paulo North,Maresias,-23.791530000000002,-45.573456000000000,3.5,4,Right and left,Beach-break,All surfers,10000.000000000000000,106,62831.853071795863798,314159265.358979284763336,0.051790903500103,91
107,352,Sudeste,Sao Paulo North,Camburi,-23.778825999999999,-45.649137000000003,3.5,4,Right and left,Beach-break,All surfers,10000.000000000000000,107,62831.853071795863798,314159265.358979284763336,0.084786667295852,285
108,353,Sudeste,Sao Paulo North,Baleia,-23.777600000000000,-45.670217000000001,3.5,3,Right and left,Beach-break,All surfers,10000.000000000000000,108,62831.853071795863798,314159265.358979284763336,0.069027906326864,284
109,354,Sudeste,Sao Paulo North,Guaratuba,-23.772306000000000,-45.922251000000003,3,3,Right and left,Beach-break,Experienced surfers,10000.000000000000000,109,62831.853071795863798,314159265.358979284763336,0.104160932204395,56
110,355,Sudeste,Sao Paulo North,Juquehy,-23.768065000000000,-45.738143999999998,3,4,Right and left,Beach-break,All surfers,10000.000000000000000,110,62831.853071795863798,314159265.358979284763336,0.051566197335533,246
111,356,Sudeste,Sao Paulo North,Massaguaçu,-23.590772999999999,-45.334611000000002,3.5,2,Right and left,Beach-break,Experienced surfers,10000.000000000000000,111,62831.853071795863798,314159265.358979284763336,0.098860328653071,219
112,357,Sudeste,Sao Paulo North,Simão,-23.585149000000001,-45.238287000000000,3.5,3,Right,Beach-break,Experienced surfers,10000.000000000000000,112,62831.853071795863798,314159265.358979284763336,0.064751727360767,175
113,358,Sudeste,Sao Paulo North,Praia do sape,-23.531963000000001,-45.222301000000002,3.5,3,Right and left,Beach-break,All surfers,10000.000000000000000,113,62831.853071795863798,314159265.358979284763336,0.067190391194859,191
114,359,Sudeste,Sao Paulo North,Lagoinha,-23.521339000000001,-45.205221000000002,3.5,2,Right and left,Beach-break,Beginners wave,10000.000000000000000,114,62831.853071795863798,314159265.358979284763336,0.026688555703690,115
115,360,Sudeste,Sao Paulo North,Sununga,-23.511344000000001,-45.129432999999999,3.5,3,Right,Beach-break,Pros or kamikaze only...,10000.000000000000000,115,62831.853071795863798,314159265.358979284763336,0.027918099371326,75
116,361,Sudeste,Sao Paulo North,Toninhas,-23.484739000000001,-45.073771000000001,3,2,Right and left,Beach-break,All surfers,10000.000000000000000,116,62831.853071795863798,314159265.358979284763336,0.071977193896222,125
117,362,Sudeste,Sao Paulo North,Praia Grande (PG),-23.478835000000000,-45.067290999999997,3,3,Right and left,Beach-break,All surfers,10000.000000000000000,117,62831.853071795863798,314159265.358979284763336,0.072320277733154,127
118,363,Sudeste,Sao Paulo North,Praia Grande North,-23.467497999999999,-45.062055999999998,3,3,Left,Beach-break,All surfers,10000.000000000000000,118,62831.853071795863798,314159265.358979284763336,0.074157009709038,133
119,364,Sudeste,Sao Paulo North,Vermelha do Centro,-23.463128000000001,-45.049353000000004,3.5,4,Right and left,Beach-break,All surfers,10000.000000000000000,119,62831.853071795863798,314159265.358979284763336,0.071643625359287,124
120,365,Sudeste,Sao Paulo North,Patiero,-23.456318000000000,-45.021242999999998,3.5,2,NA,Reef-rocky,Experienced surfers,10000.000000000000000,120,62831.853071795863798,314159265.358979284763336,0.066026718152872,110
121,366,Sudeste,Sao Paulo North,Vermelha do Norte,-23.416982000000001,-45.035876999999999,3,3,Right and left,Beach-break,All surfers,10000.000000000000000,121,62831.853071795863798,314159265.358979284763336,0.063926835505617,124
122,367,Sudeste,Sao Paulo North,Itamambuca,-23.402332000000001,-45.001458999999997,3.5,4,Right and left,Beach-break,All surfers,10000.000000000000000,122,62831.853071795863798,314159265.358979284763336,0.045756375201790,87
123,368,Sudeste,Sao Paulo North,Praia do Felix,-23.389334000000002,-44.972405000000002,3.5,3,Right and left,Beach-break,All surfers,10000.000000000000000,123,62831.853071795863798,314159265.358979284763336,0.001267685878703,7
124,369,Sudeste,Sao Paulo North,Brava do Camburi,-23.370963000000000,-44.799858999999998,3,3,Right and left,Beach-break,Experienced surfers,10000.000000000000000,124,62831.853071795863798,314159265.358979284763336,0.001366327226284,3
125,370,Sudeste,Rio De Janeiro City,Ponta do Cepílio,-23.343990000000002,-44.711781000000002,3.5,3,Right and left,Beach-break,Experienced surfers,10000.000000000000000,125,62831.853071795863798,314159265.358979284763336,0.000740912083505,1
126,371,Sudeste,Rio De Janeiro City,Laranjeiras,-23.336050000000000,-44.674294000000003,3.5,3,Right,Beach-break,All surfers,10000.000000000000000,126,62831.853071795863798,314159265.358979284763336,0.007916492320180,82
127,372,Sudeste,Rio De Janeiro City,Martim de Sa,-23.304048999999999,-44.553486999999997,3.5,3,Right and left,Beach-break,All surfers,10000.000000000000000,127,62831.853071795863798,314159265.358979284763336,0.006483531177057,74
128,373,Sudeste,Rio De Janeiro Norte,Aventureiro,-23.180132000000000,-44.304428000000001,3.5,4,Left,Point-break,All surfers,10000.000000000000000,128,62831.853071795863798,314159265.358979284763336,0.073226704586074,708
129,374,Sudeste,Rio De Janeiro City,Lopes Mendes,-23.171453000000000,-44.128990000000002,3.5,4,Right and left,Beach-break,Experienced surfers,10000.000000000000000,129,62831.853071795863798,314159265.358979284763336,0.125893202357445,1164
130,375,Sudeste,Rio De Janeiro City,Barra de Guaratiba,-23.064018000000001,-43.569374000000003,4,2,Left,Rivermouth,Experienced surfers,10000.000000000000000,130,62831.853071795863798,314159265.358979284763336,0.213074859393861,330
131,376,Sudeste,Rio De Janeiro City,Laje do Dramin,-23.055999000000000,-44.366816000000000,3.5,2,Left,Reef-rocky,Pros or kamikaze only...,10000.000000000000000,131,62831.853071795863798,314159265.358979284763336,0.570264785150034,2720
132,377,Sudeste,Rio De Janeiro City,Grumari,-23.049130999999999,-43.526673000000002,3.5,3,Right and left,Beach-break,Experienced surfers,10000.000000000000000,132,62831.853071795863798,314159265.358979284763336,1.058103233515564,2718
133,378,Sudeste,Rio De Janeiro City,Prainha,-23.040759000000001,-43.505259000000002,3.5,4,Right and left,Beach-break,All surfers,10000.000000000000000,133,62831.853071795863798,314159265.358979284763336,1.410309889190160,3619
134,379,Sudeste,Rio De Janeiro City,CcB,-23.034576999999999,-43.488737999999998,3.5,4,Right and left,Sand-bar,All surfers,10000.000000000000000,134,62831.853071795863798,314159265.358979284763336,1.580426329226864,4026
135,380,Sudeste,Rio De Janeiro City,Macumba (Curvão),-23.034085000000001,-43.472729000000001,3,3,Right and left,Beach-break,All surfers,10000.000000000000000,135,62831.853071795863798,314159265.358979284763336,1.877087815419499,4303
136,381,Sudeste,Rio De Janeiro City,Farorinha,-23.033829000000001,-43.470989000000003,3,2,Left,Beach-break,All surfers,10000.000000000000000,136,62831.853071795863798,314159265.358979284763336,1.894885675143752,4317
137,382,Sudeste,Rio De Janeiro City,Canto do recreio,-23.033294999999999,-43.467430000000000,3.5,NA,Right and left,Beach-break,All surfers,10000.000000000000000,137,62831.853071795863798,314159265.358979284763336,1.956550451378453,4423
138,383,Sudeste,Rio De Janeiro City,Praia da Macumba,-23.032031000000000,-43.475603999999997,4,4,Right and left,Beach-break,All surfers,10000.000000000000000,138,62831.853071795863798,314159265.358979284763336,1.882343269305791,4318
139,384,Sudeste,Rio De Janeiro City,posto 11 (Atlântico sul),-23.030000000000001,-43.466442999999998,3.5,3,Right and left,Sand-bar,All surfers,10000.000000000000000,139,62831.853071795863798,314159265.358979284763336,2.028925068170610,4488
140,385,Sudeste,Rio De Janeiro City,Mambucaba,-23.029266000000000,-44.519992000000002,3.5,2,Right and left,Sand-bar,All surfers,10000.000000000000000,140,62831.853071795863798,314159265.358979284763336,0.546483079917625,2903
141,386,Sudeste,Rio De Janeiro City,Posto 10 - Recreio,-23.026218000000000,-43.458039999999997,3.5,2,Right and left,Beach-break,Experienced surfers,10000.000000000000000,141,62831.853071795863798,314159265.358979284763336,2.509011063479185,4936
142,387,Sudeste,Rio De Janeiro City,Recreio Posto 9,-23.023638999999999,-43.448228999999998,3,3,Right and left,Beach-break,Experienced surfers,10000.000000000000000,142,62831.853071795863798,314159265.358979284763336,3.023254614589043,5643
143,388,Sudeste,Rio De Janeiro City,Lage Postinho,-23.015481999999999,-43.306539000000001,3.5,2,Right and left,Reef-rocky,Experienced surfers,10000.000000000000000,143,62831.853071795863798,314159265.358979284763336,3.396661960685586,11026
144,389,Sudeste,Rio De Janeiro City,Joatinga,-23.015205000000002,-43.291089999999997,3.5,4,Right and left,Beach-break,All surfers,10000.000000000000000,144,62831.853071795863798,314159265.358979284763336,3.864428528997278,16507
145,390,Sudeste,Rio De Janeiro City,Tropical (posto 1),-23.014824999999998,-43.301845000000000,3.5,4,Right and left,Beach-break,Experienced surfers,10000.000000000000000,145,62831.853071795863798,314159265.358979284763336,3.661546109426913,13514
146,391,Sudeste,Rio De Janeiro City,Barra da Tijuca - Posto 8,-23.010857000000001,-43.361874000000000,3.5,4,Right and left,Sand-bar,All surfers,10000.000000000000000,146,62831.853071795863798,314159265.358979284763336,4.399731265210896,4757
147,392,Sudeste,Rio De Janeiro City,Sao Conrado,-22.999800000000000,-43.254353999999999,3.5,NA,Right and left,Beach-break,Experienced surfers,10000.000000000000000,147,62831.853071795863798,314159265.358979284763336,6.912231937818050,33752
148,393,Sudeste,Rio De Janeiro City,Laje do sheraton,-22.995671000000002,-43.231243999999997,4,1,Right and left,Reef-rocky,Pros or kamikaze only...,10000.000000000000000,148,62831.853071795863798,314159265.358979284763336,8.673347550870027,38909
149,394,Sudeste,Rio De Janeiro City,Pontão do leblon,-22.989962999999999,-43.226480000000002,3.5,3,Right,Point-break,Experienced surfers,10000.000000000000000,149,62831.853071795863798,314159265.358979284763336,9.380680733084413,42284
150,395,Sudeste,Rio De Janeiro City,Arpoador,-22.989913000000001,-43.191654999999997,3.5,NA,Right and left,Beach-break,All surfers,10000.000000000000000,150,62831.853071795863798,314159265.358979284763336,9.762874350554020,45415
151,396,Sudeste,Rio De Janeiro City,Praia do Diabo,-22.988817000000001,-43.189143999999999,3.5,4,Right and left,Beach-break,All surfers,10000.000000000000000,151,62831.853071795863798,314159265.358979284763336,9.950979840498681,46017
152,397,Sudeste,Rio De Janeiro City,Leblon,-22.987947999999999,-43.219527999999997,3,4,Right and left,Beach-break,All surfers,10000.000000000000000,152,62831.853071795863798,314159265.358979284763336,10.059823935997848,45602
153,398,Sudeste,Rio De Janeiro City,Ipanema,-22.987552999999998,-43.205409000000003,3,3,Right and left,Beach-break,All surfers,10000.000000000000000,153,62831.853071795863798,314159265.358979284763336,10.362981318373350,47301
154,399,Sudeste,Rio De Janeiro City,Shore break expresso escorpiao,-22.986037000000000,-43.182017000000002,3.5,2,Right,Reef-rocky,Pros or kamikaze only...,10000.000000000000000,154,62831.853071795863798,314159265.358979284763336,10.400637388053868,48264
155,400,Sudeste,Rio De Janeiro City,Forte de Copacabana,-22.985102999999999,-43.185538999999999,3,2,Right,Point-break,All surfers,10000.000000000000000,155,62831.853071795863798,314159265.358979284763336,10.750833631750670,50365
156,401,Sudeste,Rio De Janeiro City,Posto 5 - Copacabana,-22.983917999999999,-43.188457000000000,3.5,3,Right and left,Beach-break,Experienced surfers,10000.000000000000000,156,62831.853071795863798,314159265.358979284763336,11.149003317569163,52088
157,402,Sudeste,Rio De Janeiro Norte,Praia Brava - Pontal do Atalaia,-22.982970000000002,-42.021675000000002,3.5,2,Left,Point-break,Experienced surfers,10000.000000000000000,157,62831.853071795863798,314159265.358979284763336,0.093156063781188,134
158,403,Sudeste,Rio De Janeiro City,Shock,-22.975815999999998,-43.040492999999998,5,2,Right,Reef-rocky,Pros or kamikaze only...,10000.000000000000000,158,62831.853071795863798,314159265.358979284763336,0.604450039130124,2717
159,404,Sudeste,Rio De Janeiro Norte,Praia Grande - Arraial do Cabo,-22.975325000000002,-42.033842000000000,3.5,3,Right and left,Beach-break,All surfers,10000.000000000000000,159,62831.853071795863798,314159265.358979284763336,0.110049018400183,150
160,405,Sudeste,Rio De Janeiro City,Itacoatiara,-22.972618000000001,-43.033447000000002,3.5,3,Right and left,Beach-break,Experienced surfers,10000.000000000000000,160,62831.853071795863798,314159265.358979284763336,0.608578594091463,2774
161,406,Sudeste,Rio De Janeiro City,Canal de Camboinhas,-22.968074000000001,-43.048166999999999,2,3,Right and left,breakwater/jetty,Beginners wave,10000.000000000000000,161,62831.853071795863798,314159265.358979284763336,0.863192483063573,3397
162,407,Sudeste,Rio De Janeiro City,Camboinhas,-22.966612000000001,-43.052588000000000,3.5,2,Right and left,Sand-bar,Experienced surfers,10000.000000000000000,162,62831.853071795863798,314159265.358979284763336,0.986973642443229,3583
163,408,Sudeste,Rio De Janeiro City,Leme,-22.963639000000001,-43.166666999999997,3,3,Left,Sand-bar,All surfers,10000.000000000000000,163,62831.853071795863798,314159265.358979284763336,13.289706835054780,60969
164,409,Sudeste,Rio De Janeiro Norte,Ponta Negra - Maricá - RJ,-22.957750999999998,-42.696787000000000,3,3,Right and left,Beach-break,All surfers,10000.000000000000000,164,62831.853071795863798,314159265.358979284763336,0.161120110575931,351
165,410,Sudeste,Rio De Janeiro City,Piratininga,-22.954699000000002,-43.095675000000000,3,3,Right and left,Beach-break,All surfers,10000.000000000000000,165,62831.853071795863798,314159265.358979284763336,3.929939956948481,10869
166,411,Sudeste,Rio De Janeiro Norte,Massambaba,-22.947170000000000,-42.166815000000000,3.5,4,Right and left,Sand-bar,Experienced surfers,10000.000000000000000,166,62831.853071795863798,314159265.358979284763336,0.019896413674640,18
167,412,Sudeste,Rio De Janeiro Norte,Lage de fora,-22.944344999999998,-42.468187999999998,4,2,Left,Reef-rocky,Don't know,10000.000000000000000,167,62831.853071795863798,314159265.358979284763336,0.022003771384633,40
168,413,Sudeste,Rio De Janeiro Norte,Arraial do Cabo,-22.942665000000002,-42.030054000000000,3.5,2,Left,Reef-coral,Experienced surfers,10000.000000000000000,168,62831.853071795863798,314159265.358979284763336,0.455437664253991,597
169,414,Sudeste,Rio De Janeiro Norte,Itauna,-22.938835999999998,-42.476208000000000,4,4,Right and left,Point-break,All surfers,10000.000000000000000,169,62831.853071795863798,314159265.358979284763336,0.033624519590381,52
170,415,Sudeste,Rio De Janeiro Norte,Backdoor,-22.938421000000002,-42.472313000000000,3,3,Right,Reef-rocky,Experienced surfers,10000.000000000000000,170,62831.853071795863798,314159265.358979284763336,0.023172379485998,41
171,416,Sudeste,Rio De Janeiro Norte,Saquarema - Itauna Beach,-22.938317999999999,-42.479990000000001,3.5,4,Right and left,Beach-break,All surfers,10000.000000000000000,171,62831.853071795863798,314159265.358979284763336,0.033624519590381,52
172,417,Sudeste,Rio De Janeiro Norte,Saquarema - Praia da Vila,-22.936169000000000,-42.495224000000000,3.5,3,Right and left,Beach-break,All surfers,10000.000000000000000,172,62831.853071795863798,314159265.358979284763336,0.033624519590381,52
173,418,Sudeste,Rio De Janeiro Norte,Praia do Foguete - Cabo Frio,-22.929735999999998,-42.037751999999998,3,3,Right and left,Sand-bar,NA,10000.000000000000000,173,62831.853071795863798,314159265.358979284763336,0.510306925375727,704
174,419,Sudeste,Rio De Janeiro City,Flamengo,-22.928832000000000,-43.170261000000004,3.5,1,Left,Point-break,Experienced surfers,10000.000000000000000,174,62831.853071795863798,314159265.358979284763336,15.122887410066934,59937
175,420,Sudeste,Rio De Janeiro City,prainha de adão e eva,-22.927765000000001,-43.123311999999999,3.5,1,Right and left,Beach-break,All surfers,10000.000000000000000,175,62831.853071795863798,314159265.358979284763336,10.661775589605469,41036
176,421,Sudeste,Rio De Janeiro City,Itapuca,-22.906618000000002,-43.119706999999998,3.5,2,Right and left,Reef-rocky,All surfers,10000.000000000000000,176,62831.853071795863798,314159265.358979284763336,9.538555719934640,35977
177,422,Sudeste,Rio De Janeiro Norte,Praia Brava - Cabo Frio,-22.884557000000001,-41.998072000000001,3.5,2,Right and left,Beach-break,All surfers,10000.000000000000000,177,62831.853071795863798,314159265.358979284763336,0.482190666161157,634
178,423,Sudeste,Rio De Janeiro Norte,Praia do Forte - Cabo Frio,-22.884167000000001,-42.013055999999999,3.5,4,Right and left,Beach-break,All surfers,10000.000000000000000,178,62831.853071795863798,314159265.358979284763336,0.505910288157462,649
179,424,Sudeste,Rio De Janeiro Norte,Dunas do Peró - Cabo Frio -RJ,-22.842631000000001,-41.981335000000001,NA,NA,NA,NA,NA,10000.000000000000000,179,62831.853071795863798,314159265.358979284763336,0.478624392801886,656
180,425,Sudeste,Rio De Janeiro Norte,Geriba,-22.779070000000001,-41.910524000000002,3.5,3,Right and left,Beach-break,All surfers,10000.000000000000000,180,62831.853071795863798,314159265.358979284763336,0.218225705643154,570
181,426,Sudeste,Rio De Janeiro Norte,Laje da Rasa,-22.726395000000000,-41.971463999999997,3,1,NA,Reef-rocky,Experienced surfers,10000.000000000000000,181,62831.853071795863798,314159265.358979284763336,0.174707140985163,481
182,427,Sudeste,Rio De Janeiro Norte,praia de unamar,-22.609524000000000,-41.997760999999997,2,2,Right and left,Beach-break,Beginners wave,10000.000000000000000,182,62831.853071795863798,314159265.358979284763336,0.048086645572063,62
183,428,Sudeste,Rio De Janeiro Norte,Costazul,-22.525117999999999,-41.920347999999997,3.5,4,Right and left,Beach-break,Experienced surfers,10000.000000000000000,183,62831.853071795863798,314159265.358979284763336,0.241901939080645,363
184,429,Sudeste,Rio De Janeiro Norte,Pecado,-22.410544999999999,-41.808256999999998,3.5,4,Right and left,Beach-break,All surfers,10000.000000000000000,184,62831.853071795863798,314159265.358979284763336,0.801500009613836,642
185,430,Sudeste,Rio De Janeiro Norte,Cavaleiros,-22.405111000000002,-41.798358999999998,3.5,4,Right and left,Beach-break,All surfers,10000.000000000000000,185,62831.853071795863798,314159265.358979284763336,0.815781477517900,656
186,431,Sudeste,Rio De Janeiro Norte,Grussaí,-21.690031000000001,-41.022263000000002,3,3,Right and left,Beach-break,All surfers,10000.000000000000000,186,62831.853071795863798,314159265.358979284763336,0.059391794750666,56
187,432,Sudeste,Esperito Santo,Setiba Pina,-20.635263999999999,-40.425728999999997,3.5,3,Right and left,Beach-break,Experienced surfers,10000.000000000000000,187,62831.853071795863798,314159265.358979284763336,2.516494255490713,15969
188,433,Sudeste,Esperito Santo,Barra Sol,-20.384262000000000,-40.310088000000000,3.5,2,Right and left,Sand-bar,Experienced surfers,10000.000000000000000,188,62831.853071795863798,314159265.358979284763336,7.919124208689452,47227
189,434,Sudeste,Esperito Santo,Secret,-20.379057000000000,-40.307132000000003,3,2,Right and left,Sand-bar,All surfers,10000.000000000000000,189,62831.853071795863798,314159265.358979284763336,8.890685687282241,53542
190,435,Sudeste,Esperito Santo,Coral do Céu,-20.378699999999998,-40.286881000000001,3.5,2,Left,Reef-rocky,Pros or kamikaze only...,10000.000000000000000,190,62831.853071795863798,314159265.358979284763336,7.796022577289003,44604
191,436,Sudeste,Esperito Santo,Pompeia,-20.356919000000001,-40.289633000000002,3.5,3,Right and left,Beach-break,All surfers,10000.000000000000000,191,62831.853071795863798,314159265.358979284763336,10.955934483290926,67029
192,437,Sudeste,Esperito Santo,D2,-20.348965000000000,-40.270665000000001,3.5,3,Right,Reef-rocky,Experienced surfers,10000.000000000000000,192,62831.853071795863798,314159265.358979284763336,9.988044592942456,58022
193,438,Sudeste,Esperito Santo,Canal de Vitória,-20.317523999999999,-40.288539000000000,3,1,Left,Sand-bar,All surfers,10000.000000000000000,193,62831.853071795863798,314159265.358979284763336,13.209956941972615,85795
194,439,Sudeste,Esperito Santo,Praia de Camburi,-20.275804000000001,-40.270986999999998,3,1,Right and left,Beach-break,All surfers,10000.000000000000000,194,62831.853071795863798,314159265.358979284763336,11.546516855079686,76371
195,440,Sudeste,Esperito Santo,Prainha de Carapebus,-20.236550000000001,-40.215024999999997,3.5,2,Right,Point-break,Experienced surfers,10000.000000000000000,195,62831.853071795863798,314159265.358979284763336,3.286000372406001,14248
196,441,Sudeste,Esperito Santo,Barrote-Jacaraipe,-20.151101000000001,-40.183461000000001,3,3,Right and left,Beach-break,All surfers,10000.000000000000000,196,62831.853071795863798,314159265.358979284763336,0.551458593559398,424
197,442,Sudeste,Esperito Santo,Jacaraípe- Solemar,-20.135649999999998,-40.180627999999999,3,3,Right and left,Sand-bar,All surfers,10000.000000000000000,197,62831.853071795863798,314159265.358979284763336,0.426549174753989,352
198,443,Sudeste,Esperito Santo,Regencia,-19.659238999999999,-39.841576000000003,3.5,4,Right and left,Beach-break,Experienced surfers,10000.000000000000000,198,62831.853071795863798,314159265.358979284763336,0.001744761510600,1
199,444,Sudeste,Esperito Santo,Guriri,-18.739377999999999,-39.746389000000001,3,2,Right and left,Beach-break,All surfers,10000.000000000000000,199,62831.853071795863798,314159265.358979284763336,0.007772460596659,21
200,519,Sudeste,Sao Paolo South,Desertinha,-24.430820000000001,-47.048065000000001,3.5,3,Right and left,Beach-break,All surfers,10000.000000000000000,200,62831.853071795863798,314159265.358979284763336,0.008234840033736,12
201,520,Sudeste,Sao Paolo South,Cibratel,-24.208026000000000,-46.827103999999999,3.5,NA,Right and left,Beach-break,All surfers,10000.000000000000000,201,62831.853071795863798,314159265.358979284763336,0.240384395380466,1216
202,521,Sudeste,Sao Paulo North,Montão do trigo,-23.868587000000002,-45.776426999999998,4,2,Right,Point-break,Experienced surfers,10000.000000000000000,202,62831.853071795863798,314159265.358979284763336,0.000000000000000,0
203,522,Sudeste,Sao Paulo North,Indaiá - Bertioga,-23.814194000000001,-46.059997000000003,3,1,Right and left,Beach-break,All surfers,10000.000000000000000,203,62831.853071795863798,314159265.358979284763336,0.605503540629345,491
204,523,Sudeste,Sao Paulo North,Praia Brava,-23.799344999999999,-45.612667999999999,3.5,4,Right and left,Beach-break,Experienced surfers,10000.000000000000000,204,62831.853071795863798,314159265.358979284763336,0.060489915287091,154
205,524,Sudeste,Sao Paulo North,Jureia,-23.766200000000001,-45.790182000000001,3.5,4,Right and left,Beach-break,All surfers,10000.000000000000000,205,62831.853071795863798,314159265.358979284763336,0.045635669188091,190
206,525,Sudeste,Sao Paulo North,Barra do Una - Meio,-23.762623000000001,-45.768425000000001,3,4,Right and left,Beach-break,All surfers,10000.000000000000000,206,62831.853071795863798,314159265.358979284763336,0.053827935977015,252
207,526,Sudeste,Sao Paulo North,Enseada - Ubatuba,-23.494012000000001,-45.090814999999999,3,2,Right,Beach-break,All surfers,10000.000000000000000,207,62831.853071795863798,314159265.358979284763336,0.071181533849973,125
208,527,Sudeste,Rio De Janeiro City,Presídio,-23.185310000000001,-44.188924000000000,3.5,3,Right and left,Beach-break,All surfers,10000.000000000000000,208,62831.853071795863798,314159265.358979284763336,0.144674127543439,1330
209,528,Sudeste,Rio De Janeiro City,Inferno,-23.059581999999999,-43.545650999999999,3.5,3,Left,Beach-break,Experienced surfers,10000.000000000000000,209,62831.853071795863798,314159265.358979284763336,0.658815537020703,1989
210,529,Sudeste,Rio De Janeiro City,Macumba-secreto,-23.037946000000002,-43.495792999999999,3,NA,Right and left,NA,All surfers,10000.000000000000000,210,62831.853071795863798,314159265.358979284763336,1.571849086140318,3954
211,530,Sudeste,Rio De Janeiro City,Posto 4,-23.012322999999999,-43.327706999999997,3.5,4,Right and left,Beach-break,All surfers,10000.000000000000000,211,62831.853071795863798,314159265.358979284763336,3.512508542736416,5808
212,531,Sudeste,Rio De Janeiro City,Vala do Mauri,-23.010866100000001,-43.350476999999998,3.5,3,Right,Beach-break,All surfers,10000.000000000000000,212,62831.853071795863798,314159265.358979284763336,4.237226554029403,4326
213,532,Sudeste,Rio De Janeiro City,Praia Brava de Angra dos Reis,-23.007446000000002,-44.480341000000003,3,3,Right and left,Beach-break,All surfers,10000.000000000000000,213,62831.853071795863798,314159265.358979284763336,0.666947281474516,3269
214,533,Sudeste,Rio De Janeiro City,Castelinho,-22.991389000000002,-43.195435000000003,3.5,2,Right and left,Point-break,Experienced surfers,10000.000000000000000,214,62831.853071795863798,314159265.358979284763336,9.516352388779312,44787
215,534,Sudeste,Rio De Janeiro City,Sossego,-22.958317000000001,-43.070284999999998,NA,2,Right,Beach-break,NA,10000.000000000000000,215,62831.853071795863798,314159265.358979284763336,1.700143655024582,4517
216,535,Sudeste,Rio De Janeiro Norte,atafona - sao joao da barra,-21.630725999999999,-41.014155000000002,3,3,Right and left,Sand-bar,All surfers,10000.000000000000000,216,62831.853071795863798,314159265.358979284763336,0.076345079279378,64
217,536,Sudeste,Esperito Santo,Cemitério,-20.430439000000000,-40.322749000000002,3.5,2,Right,Sand-bar,Experienced surfers,10000.000000000000000,217,62831.853071795863798,314159265.358979284763336,2.708170276279193,13220
