OID_,id,region,zone,name,lat,long,quality,frequency,direction,type,experience,BUFF_DIST,ORIG_FID,Shape_Length,Shape_Area,sum_Length_KILOMETERS,Polyline_Count
1,9,Sudeste,NA,Ilha Comprida,-24.783999999999999,-47.594999999999999,NA,NA,NA,NA,NA,10000.000000000000000,1,62831.853071795863798,314159265.358979284763336,357.817025466952202,953
2,10,Sudeste,NA,Iguape,-24.753211000000000,-47.542059000000002,NA,NA,NA,NA,NA,10000.000000000000000,2,62831.853071795863798,314159265.358979284763336,471.468375417843106,1333
3,11,Sudeste,NA,Peruibe,-24.324427000000000,-46.978886000000003,NA,NA,NA,NA,NA,10000.000000000000000,3,62831.853071795863798,314159265.358979284763336,828.549696209550007,2387
4,12,Sudeste,NA,Praia dos Pescadores,-24.194862000000001,-46.798881999999999,NA,NA,NA,NA,NA,10000.000000000000000,4,62831.853071795863798,314159265.358979284763336,969.146656130536599,2968
5,13,Sudeste,NA,Itanhaem,-24.151427000000002,-46.707858000000002,NA,NA,NA,NA,NA,10000.000000000000000,5,62831.853071795863798,314159265.358979284763336,759.917465033490089,2259
6,14,Sudeste,NA,Praia Grande,-24.028497000000002,-46.438310000000001,NA,NA,NA,NA,NA,10000.000000000000000,6,62831.853071795863798,314159265.358979284763336,1228.356113620997121,5028
7,15,Sudeste,NA,Praia do Forte dos Andradas,-24.028369000000001,-46.288159000000000,NA,NA,NA,NA,NA,10000.000000000000000,7,62831.853071795863798,314159265.358979284763336,935.685284952115921,5136
8,16,Sudeste,NA,Praia do Forte dos Andradas,-24.025659999999998,-46.285460000000000,NA,NA,NA,NA,NA,10000.000000000000000,8,62831.853071795863798,314159265.358979284763336,993.056271551930195,5436
9,17,Sudeste,NA,Praia da Ponta Grossa,-24.024816000000001,-46.314497000000003,NA,NA,NA,NA,NA,10000.000000000000000,9,62831.853071795863798,314159265.358979284763336,1033.449830455693473,5764
10,18,Sudeste,NA,Itaipu,-24.019545000000001,-46.386795999999997,NA,NA,NA,NA,NA,10000.000000000000000,10,62831.853071795863798,314159265.358979284763336,1230.635712969588440,6298
11,19,Sudeste,NA,Guaiuba,-24.017081999999998,-46.295202000000003,NA,NA,NA,NA,NA,10000.000000000000000,11,62831.853071795863798,314159265.358979284763336,1178.894366462997141,6476
12,20,Sudeste,NA,Santos,-24.015000000000001,-46.353999999999999,NA,NA,NA,NA,NA,10000.000000000000000,12,62831.853071795863798,314159265.358979284763336,1460.768375548328095,8218
13,21,Sudeste,NA,Morro do Maluf,-23.997560000000000,-46.251593999999997,NA,NA,NA,NA,NA,10000.000000000000000,13,62831.853071795863798,314159265.358979284763336,1213.576759996596593,6130
14,22,Sudeste,NA,Praia da Enseada,-23.990651000000000,-46.209406000000001,NA,NA,NA,NA,NA,10000.000000000000000,14,62831.853071795863798,314159265.358979284763336,841.946603398713705,4095
15,23,Sudeste,NA,Embare,-23.980865999999999,-46.317684000000000,NA,NA,NA,NA,NA,10000.000000000000000,15,62831.853071795863798,314159265.358979284763336,1779.875073449224601,9634
16,24,Sudeste,NA,Gonzaga,-23.974027000000000,-46.330098000000000,NA,NA,NA,NA,NA,10000.000000000000000,16,62831.853071795863798,314159265.358979284763336,1951.465417399825810,10438
17,25,Sudeste,NA,Pereque,-23.927582999999998,-46.178826000000001,NA,NA,NA,NA,NA,10000.000000000000000,17,62831.853071795863798,314159265.358979284763336,526.673526283961905,2288
18,26,Sudeste,NA,Praia Preta,-23.874700000000001,-46.138959000000000,NA,NA,NA,NA,NA,10000.000000000000000,18,62831.853071795863798,314159265.358979284763336,333.321810484189484,1234
19,27,Sudeste,NA,Praia da Bertioga,-23.846986000000001,-46.126967999999998,NA,NA,NA,NA,NA,10000.000000000000000,19,62831.853071795863798,314159265.358979284763336,409.071981574947017,1476
20,28,Sudeste,NA,Maresias,-23.793693260000001,-45.559764340000001,NA,NA,NA,NA,NA,10000.000000000000000,20,62831.853071795863798,314159265.358979284763336,192.637730825208536,716
21,29,Sudeste,NA,Canto de Moreira,-23.793056000000000,-45.587394000000003,NA,NA,NA,NA,NA,10000.000000000000000,21,62831.853071795863798,314159265.358979284763336,214.281312593659351,862
22,30,Sudeste,NA,Itaguere,-23.786995000000001,-45.971372000000002,NA,NA,NA,NA,NA,10000.000000000000000,22,62831.853071795863798,314159265.358979284763336,297.004727358819196,1719
23,31,Sudeste,NA,Boicucanga,-23.784431000000001,-45.631354999999999,NA,NA,NA,NA,NA,10000.000000000000000,23,62831.853071795863798,314159265.358979284763336,207.348317947085434,887
24,32,Sudeste,NA,Praia de Baleia,-23.775839000000001,-45.683985999999997,NA,NA,NA,NA,NA,10000.000000000000000,24,62831.853071795863798,314159265.358979284763336,226.676049969288727,917
25,33,Sudeste,NA,Barra do Sahy,-23.774384999999999,-45.697569999999999,NA,NA,NA,NA,NA,10000.000000000000000,25,62831.853071795863798,314159265.358979284763336,225.375220756337313,905
26,34,Sudeste,NA,Praia Preta,-23.773009999999999,-45.715814999999999,NA,NA,NA,NA,NA,10000.000000000000000,26,62831.853071795863798,314159265.358979284763336,214.946183637524456,793
27,35,Sudeste,NA,Bananas Point,-23.771605000000001,-45.706209999999999,NA,NA,NA,NA,NA,10000.000000000000000,27,62831.853071795863798,314159265.358979284763336,231.028926794375764,907
28,36,Sudeste,NA,Praia do Juquei,-23.768115000000002,-45.745452999999998,NA,NA,NA,NA,NA,10000.000000000000000,28,62831.853071795863798,314159265.358979284763336,194.224152820520231,627
29,37,Sudeste,NA,Barra do Una,-23.763818000000001,-45.762779999999999,NA,NA,NA,NA,NA,10000.000000000000000,29,62831.853071795863798,314159265.358979284763336,199.869711741993399,605
30,38,Sudeste,NA,Praia da Boracéia,-23.758372999999999,-45.828777000000002,NA,NA,NA,NA,NA,10000.000000000000000,30,62831.853071795863798,314159265.358979284763336,208.564373828863609,727
31,39,Sudeste,NA,Praia Dura,-23.496058000000001,-45.171014000000000,NA,NA,NA,NA,NA,10000.000000000000000,31,62831.853071795863798,314159265.358979284763336,307.569447137595432,1136
32,40,Sudeste,NA,Pereque-Acu,-23.424565000000001,-45.062697000000000,NA,NA,NA,NA,NA,10000.000000000000000,32,62831.853071795863798,314159265.358979284763336,479.786965197869563,1961
33,41,Sudeste,NA,Itamambuca,-23.406683000000001,-45.008741000000001,NA,NA,NA,NA,NA,10000.000000000000000,33,62831.853071795863798,314159265.358979284763336,343.238379537463516,1388
34,42,Sudeste,NA,Praia da Fazenda,-23.361352000000000,-44.859766000000000,NA,NA,NA,NA,NA,10000.000000000000000,34,62831.853071795863798,314159265.358979284763336,103.467191626923253,189
35,43,Sudeste,NA,Aventureiro,-23.184405999999999,-44.315804000000000,NA,NA,NA,NA,NA,10000.000000000000000,35,62831.853071795863798,314159265.358979284763336,57.824962827892811,91
36,44,Sudeste,NA,Praia do Leste,-23.179746000000002,-44.274093999999998,NA,NA,NA,NA,NA,10000.000000000000000,36,62831.853071795863798,314159265.358979284763336,75.496999586959092,133
37,45,Sudeste,NA,Praia do Sul,-23.178656000000000,-44.296756999999999,NA,NA,NA,NA,NA,10000.000000000000000,37,62831.853071795863798,314159265.358979284763336,65.156812416893942,107
38,46,Sudeste,NA,Praia do Meio,-23.066913000000000,-43.549809000000003,NA,NA,NA,NA,NA,10000.000000000000000,38,62831.853071795863798,314159265.358979284763336,439.065370538322497,2335
39,47,Sudeste,NA,Restinga a Marambaia,-23.061833000000000,-43.591673000000000,NA,NA,NA,NA,NA,10000.000000000000000,39,62831.853071795863798,314159265.358979284763336,394.642550458937478,1644
40,48,Sudeste,NA,Grumari,-23.050469000000000,-43.533907999999997,NA,NA,NA,NA,NA,10000.000000000000000,40,62831.853071795863798,314159265.358979284763336,702.452568858502673,3949
41,49,Sudeste,NA,Reserva,-23.022717000000000,-43.440916000000001,NA,NA,NA,NA,NA,10000.000000000000000,41,62831.853071795863798,314159265.358979284763336,1434.154018322302136,10305
42,50,Sudeste,NA,Barra da Tijuca,-23.020340120000000,-43.372478489999999,NA,NA,NA,NA,NA,10000.000000000000000,42,62831.853071795863798,314159265.358979284763336,1761.015797773772420,13466
43,51,Sudeste,NA,Barra da Tijuca,-23.014886109999999,-43.372222219999998,NA,NA,NA,NA,NA,10000.000000000000000,43,62831.853071795863798,314159265.358979284763336,1872.405158565522015,14259
44,52,Sudeste,NA,Sao Conrado,-23.000617999999999,-43.264187000000000,NA,NA,NA,NA,NA,10000.000000000000000,44,62831.853071795863798,314159265.358979284763336,1242.863266534943477,8619
45,53,Sudeste,NA,Bambui,-22.975255000000001,-42.916570000000000,NA,NA,NA,NA,NA,10000.000000000000000,45,62831.853071795863798,314159265.358979284763336,873.712423757303782,2926
46,54,Sudeste,NA,Itaipuacu,-22.971149000000000,-43.011260000000000,NA,NA,NA,NA,NA,10000.000000000000000,46,62831.853071795863798,314159265.358979284763336,1105.780269427769099,4754
47,55,Sudeste,NA,Barra de Marica,-22.962100000000000,-42.809486999999997,NA,NA,NA,NA,NA,10000.000000000000000,47,62831.853071795863798,314159265.358979284763336,823.984562749070051,3534
48,56,Sudeste,NA,Camboinhas,-22.961998000000001,-43.059922999999998,NA,NA,NA,NA,NA,10000.000000000000000,48,62831.853071795863798,314159265.358979284763336,1097.914124217052631,6186
49,57,Sudeste,NA,Pirantininga,-22.955044999999998,-43.088653999999998,NA,NA,NA,NA,NA,10000.000000000000000,49,62831.853071795863798,314159265.358979284763336,1256.549361894973799,8816
50,58,Sudeste,NA,Jacone,-22.946556000000001,-42.679789000000000,NA,NA,NA,NA,NA,10000.000000000000000,50,62831.853071795863798,314159265.358979284763336,462.128209692008454,1407
51,59,Sudeste,NA,Figueira,-22.944991999999999,-42.188828000000001,NA,NA,NA,NA,NA,10000.000000000000000,51,62831.853071795863798,314159265.358979284763336,175.457681819396043,646
52,60,Sudeste,NA,Praia do Fora,-22.944794000000002,-43.155304000000001,NA,NA,NA,NA,NA,10000.000000000000000,52,62831.853071795863798,314159265.358979284763336,1813.423008697616979,15444
53,61,Sudeste,NA,Laje do Pao de Acucar,-22.938409000000000,-43.151797000000002,NA,NA,NA,NA,NA,10000.000000000000000,53,62831.853071795863798,314159265.358979284763336,1893.845627936567553,15916
54,62,Sudeste,NA,Canal,-22.937418999999998,-42.487813000000003,NA,NA,NA,NA,NA,10000.000000000000000,54,62831.853071795863798,314159265.358979284763336,721.617895439431550,2489
55,63,Sudeste,NA,Praia Seca,-22.936126000000002,-42.361598000000001,NA,NA,NA,NA,NA,10000.000000000000000,55,62831.853071795863798,314159265.358979284763336,849.275678243712377,3081
56,64,Sudeste,NA,Caravelas,-22.814850000000000,-41.953901999999999,NA,NA,NA,NA,NA,10000.000000000000000,56,62831.853071795863798,314159265.358979284763336,917.186475995984210,3720
57,65,Sudeste,NA,Tucuns,-22.799863999999999,-41.929282000000001,NA,NA,NA,NA,NA,10000.000000000000000,57,62831.853071795863798,314159265.358979284763336,673.966722048288602,2707
58,66,Sudeste,NA,Praia Brava,-22.754252000000001,-41.872608999999997,NA,NA,NA,NA,NA,10000.000000000000000,58,62831.853071795863798,314159265.358979284763336,328.061356033913000,1609
59,67,Sudeste,NA,Marataizes,-21.044882999999999,-40.827455999999998,NA,NA,NA,NA,NA,10000.000000000000000,59,62831.853071795863798,314159265.358979284763336,662.594998984971653,2237
60,68,Sudeste,NA,Ponta do Ubu,-20.793246000000000,-40.579551000000002,NA,NA,NA,NA,NA,10000.000000000000000,60,62831.853071795863798,314159265.358979284763336,418.745171663310146,1583
61,69,Sudeste,NA,Ponta dos Castelhanos,-20.755085000000001,-40.560755000000000,NA,NA,NA,NA,NA,10000.000000000000000,61,62831.853071795863798,314159265.358979284763336,426.174464076909260,1457
62,70,Sudeste,NA,Maimba,-20.707021999999998,-40.514367999999997,NA,NA,NA,NA,NA,10000.000000000000000,62,62831.853071795863798,314159265.358979284763336,646.623003705091037,3173
63,71,Sudeste,NA,Praia do Morro,-20.659787999999999,-40.493842999999998,NA,NA,NA,NA,NA,10000.000000000000000,63,62831.853071795863798,314159265.358979284763336,792.705940648201022,3757
64,72,Sudeste,NA,Ponta de Bororo,-20.614518000000000,-40.415382000000001,NA,NA,NA,NA,NA,10000.000000000000000,64,62831.853071795863798,314159265.358979284763336,526.288863467310875,2038
65,73,Sudeste,NA,Tropical,-20.559543999999999,-40.391810000000000,NA,NA,NA,NA,NA,10000.000000000000000,65,62831.853071795863798,314159265.358979284763336,521.703739945419215,1763
66,74,Sudeste,NA,Dunas de Ule,-20.542100000000001,-40.379860999999998,NA,NA,NA,NA,NA,10000.000000000000000,66,62831.853071795863798,314159265.358979284763336,489.671257780856251,1602
67,75,Sudeste,NA,Guarapari - Ule,-20.541319000000001,-40.378385999999999,NA,NA,NA,NA,NA,10000.000000000000000,67,62831.853071795863798,314159265.358979284763336,487.573864342832167,1598
68,76,Sudeste,NA,Ponta da Fruta,-20.516836999999999,-40.358133000000002,NA,NA,NA,NA,NA,10000.000000000000000,68,62831.853071795863798,314159265.358979284763336,650.295960408265159,2554
69,77,Sudeste,NA,Coral Dois,-20.448948000000001,-40.330300000000001,NA,NA,NA,NA,NA,10000.000000000000000,69,62831.853071795863798,314159265.358979284763336,977.737528394477636,5199
70,78,Sudeste,NA,Ponta da Belina,-20.445827000000001,-40.329245000000000,NA,NA,NA,NA,NA,10000.000000000000000,70,62831.853071795863798,314159265.358979284763336,1019.868739996701265,5572
71,79,Sudeste,NA,Coral Um,-20.437659000000000,-40.326006999999997,NA,NA,NA,NA,NA,10000.000000000000000,71,62831.853071795863798,314159265.358979284763336,1139.690357336873376,6629
72,80,Sudeste,NA,"Barrao, Brazil",-20.427381000000000,-40.320982000000001,NA,NA,NA,NA,NA,10000.000000000000000,72,62831.853071795863798,314159265.358979284763336,1378.073169042053905,8881
73,81,Sudeste,NA,Barrinha,-20.422540999999999,-40.321933999999999,NA,NA,NA,NA,NA,10000.000000000000000,73,62831.853071795863798,314159265.358979284763336,1526.095094697346667,10052
74,82,Sudeste,NA,Praia de Camburi,-20.279677000000000,-40.248994000000003,NA,NA,NA,NA,NA,10000.000000000000000,74,62831.853071795863798,314159265.358979284763336,1756.919548831396014,15727
75,83,Sudeste,NA,Velzyland,-20.244838999999999,-40.216205000000002,NA,NA,NA,NA,NA,10000.000000000000000,75,62831.853071795863798,314159265.358979284763336,1442.344701356057158,10103
76,84,Sudeste,NA,Ponta da Cacao,-20.219573000000000,-40.196268000000003,NA,NA,NA,NA,NA,10000.000000000000000,76,62831.853071795863798,314159265.358979284763336,1429.019152148040121,9656
77,85,Sudeste,NA,"Manguinhos, Brazil",-20.199344000000000,-40.190266999999999,NA,NA,NA,NA,NA,10000.000000000000000,77,62831.853071795863798,314159265.358979284763336,1424.447590857126443,9277
78,86,Sudeste,NA,Praia da Baleia,-20.171105000000001,-40.184866000000000,NA,NA,NA,NA,NA,10000.000000000000000,78,62831.853071795863798,314159265.358979284763336,1287.177400098822091,8387
79,87,Sudeste,NA,Jacaraipe - Solemar,-20.109774999999999,-40.171481000000000,NA,NA,NA,NA,NA,10000.000000000000000,79,62831.853071795863798,314159265.358979284763336,794.921224087194332,4234
80,88,Sudeste,NA,Xa,-20.107229000000000,-40.171174999999998,NA,NA,NA,NA,NA,10000.000000000000000,80,62831.853071795863798,314159265.358979284763336,788.582982184631760,4165
81,89,Sudeste,NA,Nova Almeida,-20.058461999999999,-40.183000999999997,NA,NA,NA,NA,NA,10000.000000000000000,81,62831.853071795863798,314159265.358979284763336,545.248431332382779,2066
82,90,Sudeste,NA,Praia Grande,-20.047100000000000,-40.182743000000002,NA,NA,NA,NA,NA,10000.000000000000000,82,62831.853071795863798,314159265.358979284763336,473.563131586764030,1708
83,91,Sudeste,NA,Regencia,-19.562811000000000,-39.764263999999997,NA,NA,NA,NA,NA,10000.000000000000000,83,62831.853071795863798,314159265.358979284763336,76.522321199035190,119
84,92,Sudeste,NA,Guriri,-18.910750000000000,-39.738563999999997,NA,NA,NA,NA,NA,10000.000000000000000,84,62831.853071795863798,314159265.358979284763336,80.370250949087918,77
85,329,Sudeste,Sao Paolo South,"Guarau, Peruibe SP",-24.369537000000001,-47.011699999999998,3,4,Right and left,Beach-break,All surfers,10000.000000000000000,85,62831.853071795863798,314159265.358979284763336,493.599309177445434,1507
86,330,Sudeste,Sao Paolo South,Pier de Mongaguá,-24.095718000000002,-46.618552000000001,3.5,4,Right and left,Beach-break,All surfers,10000.000000000000000,86,62831.853071795863798,314159265.358979284763336,494.150937500972304,1511
87,332,Sudeste,Sao Paolo South,Tombo,-24.014990000000001,-46.272697000000001,3.5,4,Right and left,Beach-break,All surfers,10000.000000000000000,87,62831.853071795863798,314159265.358979284763336,1135.291610172227593,6060
88,333,Sudeste,Sao Paulo North,Astúrias,-24.007738000000000,-46.266475000000000,3,2,Right and left,Beach-break,All surfers,10000.000000000000000,88,62831.853071795863798,314159265.358979284763336,1200.549413511600960,6306
89,334,Sudeste,Sao Paolo South,Pitangueiras Beach,-24.000935999999999,-46.260767000000001,3.5,4,Right and left,Beach-break,Experienced surfers,10000.000000000000000,89,62831.853071795863798,314159265.358979284763336,1239.549660918297377,6415
90,335,Sudeste,Sao Paulo North,porta do sol,-23.981331999999998,-46.373762999999997,3.5,2,Right and left,Point-break,Experienced surfers,10000.000000000000000,90,62831.853071795863798,314159265.358979284763336,1890.645094715868936,10047
91,336,Sudeste,Sao Paolo South,Itarare,-23.972332999999999,-46.362003999999999,3,3,Right and left,Beach-break,All surfers,10000.000000000000000,91,62831.853071795863798,314159265.358979284763336,1976.204904602267106,10572
92,337,Sudeste,Sao Paolo South,Santos,-23.971744000000001,-46.347208999999999,3,3,Right and left,Beach-break,All surfers,10000.000000000000000,92,62831.853071795863798,314159265.358979284763336,1991.549588588638699,10679
93,338,Sudeste,Sao Paolo South,"Praia de Pernambuco (Pernambuco Beach, in Guaruja)",-23.963431000000000,-46.184033999999997,3.5,4,Right and left,Beach-break,All surfers,10000.000000000000000,93,62831.853071795863798,314159265.358979284763336,589.954087803718835,2705
94,339,Sudeste,Sao Paulo North,Bonete,-23.917383000000001,-45.347785999999999,3.5,4,Right and left,Beach-break,Experienced surfers,10000.000000000000000,94,62831.853071795863798,314159265.358979284763336,50.933409810573721,72
95,340,Sudeste,Sao Paulo North,Sao Pedro,-23.908522000000001,-46.166581000000001,4,3,Right and left,Sand-bar,All surfers,10000.000000000000000,95,62831.853071795863798,314159265.358979284763336,414.342383581528907,1606
96,341,Sudeste,Sao Paolo South,Praia de Iporanga,-23.902191999999999,-46.152724999999997,3.5,2,Left,Reef-rocky,Pros or kamikaze only...,10000.000000000000000,96,62831.853071795863798,314159265.358979284763336,374.997879071848104,1364
97,342,Sudeste,Sao Paolo South,Taguaíba,-23.896726000000001,-46.151353999999998,3.5,4,Right and left,Beach-break,All surfers,10000.000000000000000,97,62831.853071795863798,314159265.358979284763336,380.755768387071612,1363
98,343,Sudeste,Sao Paolo South,praia branca,-23.863427999999999,-46.130795999999997,3.5,3,Left,Beach-break,All surfers,10000.000000000000000,98,62831.853071795863798,314159265.358979284763336,355.487441735380514,1310
99,344,Sudeste,Sao Paulo North,Castelhanos,-23.857582000000001,-45.288905999999997,3.5,3,Right and left,Beach-break,Experienced surfers,10000.000000000000000,99,62831.853071795863798,314159265.358979284763336,123.902931828568910,402
100,345,Sudeste,Sao Paulo North,Enseada - Bertioga,-23.839860000000002,-46.123674000000001,3,4,Right and left,Beach-break,All surfers,10000.000000000000000,100,62831.853071795863798,314159265.358979284763336,419.002306741175403,1509
101,346,Sudeste,Sao Paulo North,Santiago,-23.819897999999998,-45.541420000000002,3.5,2,Right and left,Beach-break,Experienced surfers,10000.000000000000000,101,62831.853071795863798,314159265.358979284763336,148.983492611876983,527
102,347,Sudeste,Sao Paulo North,Guaecá,-23.819123000000001,-45.466200000000001,3.5,3,Right and left,Beach-break,All surfers,10000.000000000000000,102,62831.853071795863798,314159265.358979284763336,321.983179998943854,1181
103,348,Sudeste,Sao Paulo North,Riviera de São Lourenço,-23.808668999999998,-46.022072000000001,3,3,Right and left,Beach-break,All surfers,10000.000000000000000,103,62831.853071795863798,314159265.358979284763336,362.875885425022204,1608
104,349,Sudeste,Sao Paulo North,Paúba,-23.802819000000000,-45.553167999999999,4,2,Right and left,Beach-break,Pros or kamikaze only...,10000.000000000000000,104,62831.853071795863798,314159265.358979284763336,171.537835373158799,614
105,350,Sudeste,Sao Paulo North,Itaguaré,-23.796026000000001,-45.991173000000003,3,4,Right and left,Beach-break,All surfers,10000.000000000000000,105,62831.853071795863798,314159265.358979284763336,336.084821824550488,1808
106,351,Sudeste,Sao Paulo North,Maresias,-23.791530000000002,-45.573456000000000,3.5,4,Right and left,Beach-break,All surfers,10000.000000000000000,106,62831.853071795863798,314159265.358979284763336,208.999420245859227,818
107,352,Sudeste,Sao Paulo North,Camburi,-23.778825999999999,-45.649137000000003,3.5,4,Right and left,Beach-break,All surfers,10000.000000000000000,107,62831.853071795863798,314159265.358979284763336,211.025420387423225,919
108,353,Sudeste,Sao Paulo North,Baleia,-23.777600000000000,-45.670217000000001,3.5,3,Right and left,Beach-break,All surfers,10000.000000000000000,108,62831.853071795863798,314159265.358979284763336,211.096014422187039,865
109,354,Sudeste,Sao Paulo North,Guaratuba,-23.772306000000000,-45.922251000000003,3,3,Right and left,Beach-break,Experienced surfers,10000.000000000000000,109,62831.853071795863798,314159265.358979284763336,207.540500514580316,1227
110,355,Sudeste,Sao Paulo North,Juquehy,-23.768065000000000,-45.738143999999998,3,4,Right and left,Beach-break,All surfers,10000.000000000000000,110,62831.853071795863798,314159265.358979284763336,203.499481513402174,668
111,356,Sudeste,Sao Paulo North,Massaguaçu,-23.590772999999999,-45.334611000000002,3.5,2,Right and left,Beach-break,Experienced surfers,10000.000000000000000,111,62831.853071795863798,314159265.358979284763336,401.694545675618201,1901
112,357,Sudeste,Sao Paulo North,Simão,-23.585149000000001,-45.238287000000000,3.5,3,Right,Beach-break,Experienced surfers,10000.000000000000000,112,62831.853071795863798,314159265.358979284763336,237.569027991163694,967
113,358,Sudeste,Sao Paulo North,Praia do sape,-23.531963000000001,-45.222301000000002,3.5,3,Right and left,Beach-break,All surfers,10000.000000000000000,113,62831.853071795863798,314159265.358979284763336,288.238953553122940,1104
114,359,Sudeste,Sao Paulo North,Lagoinha,-23.521339000000001,-45.205221000000002,3.5,2,Right and left,Beach-break,Beginners wave,10000.000000000000000,114,62831.853071795863798,314159265.358979284763336,281.572760292156431,1028
115,360,Sudeste,Sao Paulo North,Sununga,-23.511344000000001,-45.129432999999999,3.5,3,Right,Beach-break,Pros or kamikaze only...,10000.000000000000000,115,62831.853071795863798,314159265.358979284763336,364.290340899473733,1470
116,361,Sudeste,Sao Paulo North,Toninhas,-23.484739000000001,-45.073771000000001,3,2,Right and left,Beach-break,All surfers,10000.000000000000000,116,62831.853071795863798,314159265.358979284763336,457.562001241535711,1986
117,362,Sudeste,Sao Paulo North,Praia Grande (PG),-23.478835000000000,-45.067290999999997,3,3,Right and left,Beach-break,All surfers,10000.000000000000000,117,62831.853071795863798,314159265.358979284763336,466.746987442964098,2007
118,363,Sudeste,Sao Paulo North,Praia Grande North,-23.467497999999999,-45.062055999999998,3,3,Left,Beach-break,All surfers,10000.000000000000000,118,62831.853071795863798,314159265.358979284763336,482.481705491225341,2034
119,364,Sudeste,Sao Paulo North,Vermelha do Centro,-23.463128000000001,-45.049353000000004,3.5,4,Right and left,Beach-break,All surfers,10000.000000000000000,119,62831.853071795863798,314159265.358979284763336,470.830940408934680,1984
120,365,Sudeste,Sao Paulo North,Patiero,-23.456318000000000,-45.021242999999998,3.5,2,NA,Reef-rocky,Experienced surfers,10000.000000000000000,120,62831.853071795863798,314159265.358979284763336,414.126465350689273,1731
121,366,Sudeste,Sao Paulo North,Vermelha do Norte,-23.416982000000001,-45.035876999999999,3,3,Right and left,Beach-break,All surfers,10000.000000000000000,121,62831.853071795863798,314159265.358979284763336,437.251575829686942,1823
122,367,Sudeste,Sao Paulo North,Itamambuca,-23.402332000000001,-45.001458999999997,3.5,4,Right and left,Beach-break,All surfers,10000.000000000000000,122,62831.853071795863798,314159265.358979284763336,277.563507587398476,1120
123,368,Sudeste,Sao Paulo North,Praia do Felix,-23.389334000000002,-44.972405000000002,3.5,3,Right and left,Beach-break,All surfers,10000.000000000000000,123,62831.853071795863798,314159265.358979284763336,122.999318429759967,334
124,369,Sudeste,Sao Paulo North,Brava do Camburi,-23.370963000000000,-44.799858999999998,3,3,Right and left,Beach-break,Experienced surfers,10000.000000000000000,124,62831.853071795863798,314159265.358979284763336,85.699203493832613,172
125,370,Sudeste,Rio De Janeiro City,Ponta do Cepílio,-23.343990000000002,-44.711781000000002,3.5,3,Right and left,Beach-break,Experienced surfers,10000.000000000000000,125,62831.853071795863798,314159265.358979284763336,131.824701670835339,249
126,371,Sudeste,Rio De Janeiro City,Laranjeiras,-23.336050000000000,-44.674294000000003,3.5,3,Right,Beach-break,All surfers,10000.000000000000000,126,62831.853071795863798,314159265.358979284763336,138.597965728333548,274
127,372,Sudeste,Rio De Janeiro City,Martim de Sa,-23.304048999999999,-44.553486999999997,3.5,3,Right and left,Beach-break,All surfers,10000.000000000000000,127,62831.853071795863798,314159265.358979284763336,61.244107165855610,77
128,373,Sudeste,Rio De Janeiro Norte,Aventureiro,-23.180132000000000,-44.304428000000001,3.5,4,Left,Point-break,All surfers,10000.000000000000000,128,62831.853071795863798,314159265.358979284763336,62.410184223166958,105
129,374,Sudeste,Rio De Janeiro City,Lopes Mendes,-23.171453000000000,-44.128990000000002,3.5,4,Right and left,Beach-break,Experienced surfers,10000.000000000000000,129,62831.853071795863798,314159265.358979284763336,63.398790600185812,163
130,375,Sudeste,Rio De Janeiro City,Barra de Guaratiba,-23.064018000000001,-43.569374000000003,4,2,Left,Rivermouth,Experienced surfers,10000.000000000000000,130,62831.853071795863798,314159265.358979284763336,390.929570147058485,1712
131,376,Sudeste,Rio De Janeiro City,Laje do Dramin,-23.055999000000000,-44.366816000000000,3.5,2,Left,Reef-rocky,Pros or kamikaze only...,10000.000000000000000,131,62831.853071795863798,314159265.358979284763336,105.278119928346513,614
132,377,Sudeste,Rio De Janeiro City,Grumari,-23.049130999999999,-43.526673000000002,3.5,3,Right and left,Beach-break,Experienced surfers,10000.000000000000000,132,62831.853071795863798,314159265.358979284763336,747.626008131899994,4241
133,378,Sudeste,Rio De Janeiro City,Prainha,-23.040759000000001,-43.505259000000002,3.5,4,Right and left,Beach-break,All surfers,10000.000000000000000,133,62831.853071795863798,314159265.358979284763336,944.531003063950379,5574
134,379,Sudeste,Rio De Janeiro City,CcB,-23.034576999999999,-43.488737999999998,3.5,4,Right and left,Sand-bar,All surfers,10000.000000000000000,134,62831.853071795863798,314159265.358979284763336,1029.779812747434562,6134
135,380,Sudeste,Rio De Janeiro City,Macumba (Curvão),-23.034085000000001,-43.472729000000001,3,3,Right and left,Beach-break,All surfers,10000.000000000000000,135,62831.853071795863798,314159265.358979284763336,1059.694109623185341,6571
136,381,Sudeste,Rio De Janeiro City,Farorinha,-23.033829000000001,-43.470989000000003,3,2,Left,Beach-break,All surfers,10000.000000000000000,136,62831.853071795863798,314159265.358979284763336,1068.276403364220641,6656
137,382,Sudeste,Rio De Janeiro City,Canto do recreio,-23.033294999999999,-43.467430000000000,3.5,NA,Right and left,Beach-break,All surfers,10000.000000000000000,137,62831.853071795863798,314159265.358979284763336,1084.764212019687648,6847
138,383,Sudeste,Rio De Janeiro City,Praia da Macumba,-23.032031000000000,-43.475603999999997,4,4,Right and left,Beach-break,All surfers,10000.000000000000000,138,62831.853071795863798,314159265.358979284763336,1077.049539877159077,6622
139,384,Sudeste,Rio De Janeiro City,posto 11 (Atlântico sul),-23.030000000000001,-43.466442999999998,3.5,3,Right and left,Sand-bar,All surfers,10000.000000000000000,139,62831.853071795863798,314159265.358979284763336,1114.836408657524316,7020
140,385,Sudeste,Rio De Janeiro City,Mambucaba,-23.029266000000000,-44.519992000000002,3.5,2,Right and left,Sand-bar,All surfers,10000.000000000000000,140,62831.853071795863798,314159265.358979284763336,249.372331174972572,1168
141,386,Sudeste,Rio De Janeiro City,Posto 10 - Recreio,-23.026218000000000,-43.458039999999997,3.5,2,Right and left,Beach-break,Experienced surfers,10000.000000000000000,141,62831.853071795863798,314159265.358979284763336,1216.977245400941911,7952
142,387,Sudeste,Rio De Janeiro City,Recreio Posto 9,-23.023638999999999,-43.448228999999998,3,3,Right and left,Beach-break,Experienced surfers,10000.000000000000000,142,62831.853071795863798,314159265.358979284763336,1329.087668678755563,9180
143,388,Sudeste,Rio De Janeiro City,Lage Postinho,-23.015481999999999,-43.306539000000001,3.5,2,Right and left,Reef-rocky,Experienced surfers,10000.000000000000000,143,62831.853071795863798,314159265.358979284763336,1266.209930396270693,9298
144,389,Sudeste,Rio De Janeiro City,Joatinga,-23.015205000000002,-43.291089999999997,3.5,4,Right and left,Beach-break,All surfers,10000.000000000000000,144,62831.853071795863798,314159265.358979284763336,1179.282926257206327,8564
145,390,Sudeste,Rio De Janeiro City,Tropical (posto 1),-23.014824999999998,-43.301845000000000,3.5,4,Right and left,Beach-break,Experienced surfers,10000.000000000000000,145,62831.853071795863798,314159265.358979284763336,1247.468074682583165,9130
146,391,Sudeste,Rio De Janeiro City,Barra da Tijuca - Posto 8,-23.010857000000001,-43.361874000000000,3.5,4,Right and left,Sand-bar,All surfers,10000.000000000000000,146,62831.853071795863798,314159265.358979284763336,1895.520143363473153,14428
147,392,Sudeste,Rio De Janeiro City,Sao Conrado,-22.999800000000000,-43.254353999999999,3.5,NA,Right and left,Beach-break,Experienced surfers,10000.000000000000000,147,62831.853071795863798,314159265.358979284763336,1243.726314877717869,8661
148,393,Sudeste,Rio De Janeiro City,Laje do sheraton,-22.995671000000002,-43.231243999999997,4,1,Right and left,Reef-rocky,Pros or kamikaze only...,10000.000000000000000,148,62831.853071795863798,314159265.358979284763336,1284.892602311129394,9026
149,394,Sudeste,Rio De Janeiro City,Pontão do leblon,-22.989962999999999,-43.226480000000002,3.5,3,Right,Point-break,Experienced surfers,10000.000000000000000,149,62831.853071795863798,314159265.358979284763336,1408.343482664847897,10179
150,395,Sudeste,Rio De Janeiro City,Arpoador,-22.989913000000001,-43.191654999999997,3.5,NA,Right and left,Beach-break,All surfers,10000.000000000000000,150,62831.853071795863798,314159265.358979284763336,1169.011174488133975,9257
151,396,Sudeste,Rio De Janeiro City,Praia do Diabo,-22.988817000000001,-43.189143999999999,3.5,4,Right and left,Beach-break,All surfers,10000.000000000000000,151,62831.853071795863798,314159265.358979284763336,1176.786004111279908,9442
152,397,Sudeste,Rio De Janeiro City,Leblon,-22.987947999999999,-43.219527999999997,3,4,Right and left,Beach-break,All surfers,10000.000000000000000,152,62831.853071795863798,314159265.358979284763336,1435.881640063047826,10567
153,398,Sudeste,Rio De Janeiro City,Ipanema,-22.987552999999998,-43.205409000000003,3,3,Right and left,Beach-break,All surfers,10000.000000000000000,153,62831.853071795863798,314159265.358979284763336,1354.361743527355884,10568
154,399,Sudeste,Rio De Janeiro City,Shore break expresso escorpiao,-22.986037000000000,-43.182017000000002,3.5,2,Right,Reef-rocky,Pros or kamikaze only...,10000.000000000000000,154,62831.853071795863798,314159265.358979284763336,1193.049243443206706,9799
155,400,Sudeste,Rio De Janeiro City,Forte de Copacabana,-22.985102999999999,-43.185538999999999,3,2,Right,Point-break,All surfers,10000.000000000000000,155,62831.853071795863798,314159265.358979284763336,1255.634145556375188,10333
156,401,Sudeste,Rio De Janeiro City,Posto 5 - Copacabana,-22.983917999999999,-43.188457000000000,3.5,3,Right and left,Beach-break,Experienced surfers,10000.000000000000000,156,62831.853071795863798,314159265.358979284763336,1318.827986261378555,10978
157,402,Sudeste,Rio De Janeiro Norte,Praia Brava - Pontal do Atalaia,-22.982970000000002,-42.021675000000002,3.5,2,Left,Point-break,Experienced surfers,10000.000000000000000,157,62831.853071795863798,314159265.358979284763336,201.181861115443525,767
158,403,Sudeste,Rio De Janeiro City,Shock,-22.975815999999998,-43.040492999999998,5,2,Right,Reef-rocky,Pros or kamikaze only...,10000.000000000000000,158,62831.853071795863798,314159265.358979284763336,962.569998325318807,4836
159,404,Sudeste,Rio De Janeiro Norte,Praia Grande - Arraial do Cabo,-22.975325000000002,-42.033842000000000,3.5,3,Right and left,Beach-break,All surfers,10000.000000000000000,159,62831.853071795863798,314159265.358979284763336,262.686316303200783,1009
160,405,Sudeste,Rio De Janeiro City,Itacoatiara,-22.972618000000001,-43.033447000000002,3.5,3,Right and left,Beach-break,Experienced surfers,10000.000000000000000,160,62831.853071795863798,314159265.358979284763336,1037.581070620061155,5005
161,406,Sudeste,Rio De Janeiro City,Canal de Camboinhas,-22.968074000000001,-43.048166999999999,2,3,Right and left,breakwater/jetty,Beginners wave,10000.000000000000000,161,62831.853071795863798,314159265.358979284763336,1047.609308770148118,5488
162,407,Sudeste,Rio De Janeiro City,Camboinhas,-22.966612000000001,-43.052588000000000,3.5,2,Right and left,Sand-bar,Experienced surfers,10000.000000000000000,162,62831.853071795863798,314159265.358979284763336,1051.025846883427675,5623
163,408,Sudeste,Rio De Janeiro City,Leme,-22.963639000000001,-43.166666999999997,3,3,Left,Sand-bar,All surfers,10000.000000000000000,163,62831.853071795863798,314159265.358979284763336,1549.832633054790449,13465
164,409,Sudeste,Rio De Janeiro Norte,Ponta Negra - Maricá - RJ,-22.957750999999998,-42.696787000000000,3,3,Right and left,Beach-break,All surfers,10000.000000000000000,164,62831.853071795863798,314159265.358979284763336,411.903815577772832,1394
165,410,Sudeste,Rio De Janeiro City,Piratininga,-22.954699000000002,-43.095675000000000,3,3,Right and left,Beach-break,All surfers,10000.000000000000000,165,62831.853071795863798,314159265.358979284763336,1339.682001866600331,10010
166,411,Sudeste,Rio De Janeiro Norte,Massambaba,-22.947170000000000,-42.166815000000000,3.5,4,Right and left,Sand-bar,Experienced surfers,10000.000000000000000,166,62831.853071795863798,314159265.358979284763336,171.901077971944602,609
167,412,Sudeste,Rio De Janeiro Norte,Lage de fora,-22.944344999999998,-42.468187999999998,4,2,Left,Reef-rocky,Don't know,10000.000000000000000,167,62831.853071795863798,314159265.358979284763336,719.722053437955651,2458
168,413,Sudeste,Rio De Janeiro Norte,Arraial do Cabo,-22.942665000000002,-42.030054000000000,3.5,2,Left,Reef-coral,Experienced surfers,10000.000000000000000,168,62831.853071795863798,314159265.358979284763336,524.451830294992646,2313
169,414,Sudeste,Rio De Janeiro Norte,Itauna,-22.938835999999998,-42.476208000000000,4,4,Right and left,Point-break,All surfers,10000.000000000000000,169,62831.853071795863798,314159265.358979284763336,751.968026579689308,2548
170,415,Sudeste,Rio De Janeiro Norte,Backdoor,-22.938421000000002,-42.472313000000000,3,3,Right,Reef-rocky,Experienced surfers,10000.000000000000000,170,62831.853071795863798,314159265.358979284763336,755.126131971802010,2548
171,416,Sudeste,Rio De Janeiro Norte,Saquarema - Itauna Beach,-22.938317999999999,-42.479990000000001,3.5,4,Right and left,Beach-break,All surfers,10000.000000000000000,171,62831.853071795863798,314159265.358979284763336,746.888250067197419,2538
172,417,Sudeste,Rio De Janeiro Norte,Saquarema - Praia da Vila,-22.936169000000000,-42.495224000000000,3.5,3,Right and left,Beach-break,All surfers,10000.000000000000000,172,62831.853071795863798,314159265.358979284763336,685.302276168364415,2395
173,418,Sudeste,Rio De Janeiro Norte,Praia do Foguete - Cabo Frio,-22.929735999999998,-42.037751999999998,3,3,Right and left,Sand-bar,NA,10000.000000000000000,173,62831.853071795863798,314159265.358979284763336,687.840544031196259,3168
174,419,Sudeste,Rio De Janeiro City,Flamengo,-22.928832000000000,-43.170261000000004,3.5,1,Left,Point-break,Experienced surfers,10000.000000000000000,174,62831.853071795863798,314159265.358979284763336,2110.312584400524884,17686
175,420,Sudeste,Rio De Janeiro City,prainha de adão e eva,-22.927765000000001,-43.123311999999999,3.5,1,Right and left,Beach-break,All surfers,10000.000000000000000,175,62831.853071795863798,314159265.358979284763336,1890.567701745594377,15654
176,421,Sudeste,Rio De Janeiro City,Itapuca,-22.906618000000002,-43.119706999999998,3.5,2,Right and left,Reef-rocky,All surfers,10000.000000000000000,176,62831.853071795863798,314159265.358979284763336,1947.158258837048379,15812
177,422,Sudeste,Rio De Janeiro Norte,Praia Brava - Cabo Frio,-22.884557000000001,-41.998072000000001,3.5,2,Right and left,Beach-break,All surfers,10000.000000000000000,177,62831.853071795863798,314159265.358979284763336,929.372029787545102,4054
178,423,Sudeste,Rio De Janeiro Norte,Praia do Forte - Cabo Frio,-22.884167000000001,-42.013055999999999,3.5,4,Right and left,Beach-break,All surfers,10000.000000000000000,178,62831.853071795863798,314159265.358979284763336,980.286738133697213,4193
179,424,Sudeste,Rio De Janeiro Norte,Dunas do Peró - Cabo Frio -RJ,-22.842631000000001,-41.981335000000001,NA,NA,NA,NA,NA,10000.000000000000000,179,62831.853071795863798,314159265.358979284763336,1012.379663197677360,4330
180,425,Sudeste,Rio De Janeiro Norte,Geriba,-22.779070000000001,-41.910524000000002,3.5,3,Right and left,Beach-break,All surfers,10000.000000000000000,180,62831.853071795863798,314159265.358979284763336,542.622828616366974,2309
181,426,Sudeste,Rio De Janeiro Norte,Laje da Rasa,-22.726395000000000,-41.971463999999997,3,1,NA,Reef-rocky,Experienced surfers,10000.000000000000000,181,62831.853071795863798,314159265.358979284763336,852.139845122347310,3878
182,427,Sudeste,Rio De Janeiro Norte,praia de unamar,-22.609524000000000,-41.997760999999997,2,2,Right and left,Beach-break,Beginners wave,10000.000000000000000,182,62831.853071795863798,314159265.358979284763336,814.998312042761199,3280
183,428,Sudeste,Rio De Janeiro Norte,Costazul,-22.525117999999999,-41.920347999999997,3.5,4,Right and left,Beach-break,Experienced surfers,10000.000000000000000,183,62831.853071795863798,314159265.358979284763336,830.713669553430691,3217
184,429,Sudeste,Rio De Janeiro Norte,Pecado,-22.410544999999999,-41.808256999999998,3.5,4,Right and left,Beach-break,All surfers,10000.000000000000000,184,62831.853071795863798,314159265.358979284763336,858.521381795178286,3816
185,430,Sudeste,Rio De Janeiro Norte,Cavaleiros,-22.405111000000002,-41.798358999999998,3.5,4,Right and left,Beach-break,All surfers,10000.000000000000000,185,62831.853071795863798,314159265.358979284763336,869.292458747643764,3989
186,431,Sudeste,Rio De Janeiro Norte,Grussaí,-21.690031000000001,-41.022263000000002,3,3,Right and left,Beach-break,All surfers,10000.000000000000000,186,62831.853071795863798,314159265.358979284763336,372.917150129939387,1122
187,432,Sudeste,Esperito Santo,Setiba Pina,-20.635263999999999,-40.425728999999997,3.5,3,Right and left,Beach-break,Experienced surfers,10000.000000000000000,187,62831.853071795863798,314159265.358979284763336,572.406856287937217,2733
188,433,Sudeste,Esperito Santo,Barra Sol,-20.384262000000000,-40.310088000000000,3.5,2,Right and left,Sand-bar,Experienced surfers,10000.000000000000000,188,62831.853071795863798,314159265.358979284763336,2281.806327491233333,18709
189,434,Sudeste,Esperito Santo,Secret,-20.379057000000000,-40.307132000000003,3,2,Right and left,Sand-bar,All surfers,10000.000000000000000,189,62831.853071795863798,314159265.358979284763336,2329.842518060903785,19625
190,435,Sudeste,Esperito Santo,Coral do Céu,-20.378699999999998,-40.286881000000001,3.5,2,Left,Reef-rocky,Pros or kamikaze only...,10000.000000000000000,190,62831.853071795863798,314159265.358979284763336,1788.672479315907822,15818
191,436,Sudeste,Esperito Santo,Pompeia,-20.356919000000001,-40.289633000000002,3.5,3,Right and left,Beach-break,All surfers,10000.000000000000000,191,62831.853071795863798,314159265.358979284763336,2119.814545241006272,19911
192,437,Sudeste,Esperito Santo,D2,-20.348965000000000,-40.270665000000001,3.5,3,Right,Reef-rocky,Experienced surfers,10000.000000000000000,192,62831.853071795863798,314159265.358979284763336,1729.637102807496149,17104
193,438,Sudeste,Esperito Santo,Canal de Vitória,-20.317523999999999,-40.288539000000000,3,1,Left,Sand-bar,All surfers,10000.000000000000000,193,62831.853071795863798,314159265.358979284763336,2310.688963775425691,22030
194,439,Sudeste,Esperito Santo,Praia de Camburi,-20.275804000000001,-40.270986999999998,3,1,Right and left,Beach-break,All surfers,10000.000000000000000,194,62831.853071795863798,314159265.358979284763336,2099.153930515021329,19207
195,440,Sudeste,Esperito Santo,Prainha de Carapebus,-20.236550000000001,-40.215024999999997,3.5,2,Right,Point-break,Experienced surfers,10000.000000000000000,195,62831.853071795863798,314159265.358979284763336,1459.605114878921313,10109
196,441,Sudeste,Esperito Santo,Barrote-Jacaraipe,-20.151101000000001,-40.183461000000001,3,3,Right and left,Beach-break,All surfers,10000.000000000000000,196,62831.853071795863798,314159265.358979284763336,1154.385159396302015,7269
197,442,Sudeste,Esperito Santo,Jacaraípe- Solemar,-20.135649999999998,-40.180627999999999,3,3,Right and left,Sand-bar,All surfers,10000.000000000000000,197,62831.853071795863798,314159265.358979284763336,959.088461671401888,5754
198,443,Sudeste,Esperito Santo,Regencia,-19.659238999999999,-39.841576000000003,3.5,4,Right and left,Beach-break,Experienced surfers,10000.000000000000000,198,62831.853071795863798,314159265.358979284763336,85.382373271106644,119
199,444,Sudeste,Esperito Santo,Guriri,-18.739377999999999,-39.746389000000001,3,2,Right and left,Beach-break,All surfers,10000.000000000000000,199,62831.853071795863798,314159265.358979284763336,424.416333073428405,953
200,519,Sudeste,Sao Paolo South,Desertinha,-24.430820000000001,-47.048065000000001,3.5,3,Right and left,Beach-break,All surfers,10000.000000000000000,200,62831.853071795863798,314159265.358979284763336,96.089969112053893,156
201,520,Sudeste,Sao Paolo South,Cibratel,-24.208026000000000,-46.827103999999999,3.5,NA,Right and left,Beach-break,All surfers,10000.000000000000000,201,62831.853071795863798,314159265.358979284763336,1026.151879379967568,3129
202,521,Sudeste,Sao Paulo North,Montão do trigo,-23.868587000000002,-45.776426999999998,4,2,Right,Point-break,Experienced surfers,10000.000000000000000,202,62831.853071795863798,314159265.358979284763336,0.000000000000000,0
203,522,Sudeste,Sao Paulo North,Indaiá - Bertioga,-23.814194000000001,-46.059997000000003,3,1,Right and left,Beach-break,All surfers,10000.000000000000000,203,62831.853071795863798,314159265.358979284763336,469.948341474912525,1969
204,523,Sudeste,Sao Paulo North,Praia Brava,-23.799344999999999,-45.612667999999999,3.5,4,Right and left,Beach-break,Experienced surfers,10000.000000000000000,204,62831.853071795863798,314159265.358979284763336,218.407789157469693,947
205,524,Sudeste,Sao Paulo North,Jureia,-23.766200000000001,-45.790182000000001,3.5,4,Right and left,Beach-break,All surfers,10000.000000000000000,205,62831.853071795863798,314159265.358979284763336,221.063132207859439,664
206,525,Sudeste,Sao Paulo North,Barra do Una - Meio,-23.762623000000001,-45.768425000000001,3,4,Right and left,Beach-break,All surfers,10000.000000000000000,206,62831.853071795863798,314159265.358979284763336,211.710502576117335,616
207,526,Sudeste,Sao Paulo North,Enseada - Ubatuba,-23.494012000000001,-45.090814999999999,3,2,Right,Beach-break,All surfers,10000.000000000000000,207,62831.853071795863798,314159265.358979284763336,455.836645510026642,1945
208,527,Sudeste,Rio De Janeiro City,Presídio,-23.185310000000001,-44.188924000000000,3.5,3,Right and left,Beach-break,All surfers,10000.000000000000000,208,62831.853071795863798,314159265.358979284763336,78.582102429074851,195
209,528,Sudeste,Rio De Janeiro City,Inferno,-23.059581999999999,-43.545650999999999,3.5,3,Left,Beach-break,Experienced surfers,10000.000000000000000,209,62831.853071795863798,314159265.358979284763336,538.028709402216236,2918
210,529,Sudeste,Rio De Janeiro City,Macumba-secreto,-23.037946000000002,-43.495792999999999,3,NA,Right and left,NA,All surfers,10000.000000000000000,210,62831.853071795863798,314159265.358979284763336,992.937721898092150,5909
211,530,Sudeste,Rio De Janeiro City,Posto 4,-23.012322999999999,-43.327706999999997,3.5,4,Right and left,Beach-break,All surfers,10000.000000000000000,211,62831.853071795863798,314159265.358979284763336,1573.829553226747976,11719
212,531,Sudeste,Rio De Janeiro City,Vala do Mauri,-23.010866100000001,-43.350476999999998,3.5,3,Right,Beach-break,All surfers,10000.000000000000000,212,62831.853071795863798,314159265.358979284763336,1844.340375817967242,14013
213,532,Sudeste,Rio De Janeiro City,Praia Brava de Angra dos Reis,-23.007446000000002,-44.480341000000003,3,3,Right and left,Beach-break,All surfers,10000.000000000000000,213,62831.853071795863798,314159265.358979284763336,277.708365835148641,1318
214,533,Sudeste,Rio De Janeiro City,Castelinho,-22.991389000000002,-43.195435000000003,3.5,2,Right and left,Point-break,Experienced surfers,10000.000000000000000,214,62831.853071795863798,314159265.358979284763336,1155.237113164487027,8839
215,534,Sudeste,Rio De Janeiro City,Sossego,-22.958317000000001,-43.070284999999998,NA,2,Right,Beach-break,NA,10000.000000000000000,215,62831.853071795863798,314159265.358979284763336,1166.469090408599186,7256
216,535,Sudeste,Rio De Janeiro Norte,atafona - sao joao da barra,-21.630725999999999,-41.014155000000002,3,3,Right and left,Sand-bar,All surfers,10000.000000000000000,216,62831.853071795863798,314159265.358979284763336,331.110660619678015,1075
217,536,Sudeste,Esperito Santo,Cemitério,-20.430439000000000,-40.322749000000002,3.5,2,Right,Sand-bar,Experienced surfers,10000.000000000000000,217,62831.853071795863798,314159265.358979284763336,1305.791364906622221,8257
