OID_,id,region,zone,name,lat,long,quality,frequency,direction,type,experience,numerical_direction,numerical_frequency,numerical_experience,numerical_quality,BUFF_DIST,ORIG_FID,Shape_Length,Shape_Area,sum_Length_KILOMETERS,Polyline_Count
1,0,Sul,NA,Cardoso,-28.585450000000002,-48.798270000000002,NA,NA,NA,NA,NA,1.000000000000000,1.000000000000000,1.000000000000000,1.000000000000000,1000.000000000000000,1,6283.185307179585834,3141592.653589793015271,0.000000000000000,0
2,1,Sul,NA,Ravena,-28.454780000000000,-48.751339999999999,NA,NA,NA,NA,NA,1.000000000000000,1.000000000000000,1.000000000000000,1.000000000000000,1000.000000000000000,2,6283.185307179585834,3141592.653589793015271,0.000000000000000,0
3,2,Sul,NA,Praia da Vila Imbituba,-28.252472220000001,-48.661850000000001,NA,NA,NA,NA,NA,1.000000000000000,1.000000000000000,1.000000000000000,1.000000000000000,1000.000000000000000,3,6283.185307179585834,3141592.653589793015271,1.182277936017745,14
4,3,Sul,NA,Praia do Porto Imbituba,-28.220199000000001,-48.663214000000004,NA,NA,NA,NA,NA,1.000000000000000,1.000000000000000,1.000000000000000,1.000000000000000,1000.000000000000000,4,6283.185307179585834,3141592.653589793015271,12.883085518517738,79
5,4,Sul,NA,Ponta da Pinheira,-27.878140999999999,-48.576442000000000,NA,NA,NA,NA,NA,1.000000000000000,1.000000000000000,1.000000000000000,1.000000000000000,1000.000000000000000,5,6283.185307179585834,3141592.653589793015271,4.385178704641803,28
6,5,Sul,NA,Mocambique,-27.518350000000002,-48.392183330000002,NA,NA,NA,NA,NA,1.000000000000000,1.000000000000000,1.000000000000000,1.000000000000000,1000.000000000000000,6,6283.185307179585834,3141592.653589793015271,0.000000000000000,0
7,6,Sul,NA,Ponta das Canas,-27.394818999999998,-48.435709000000003,NA,NA,NA,NA,NA,1.000000000000000,1.000000000000000,1.000000000000000,1.000000000000000,1000.000000000000000,7,6283.185307179585834,3141592.653589793015271,8.476589482999229,47
8,7,Sul,NA,Itagua&ccedil;u,-26.184728000000000,-48.526327999999999,NA,NA,NA,NA,NA,1.000000000000000,1.000000000000000,1.000000000000000,1.000000000000000,1000.000000000000000,8,6283.185307179585834,3141592.653589793015271,18.532504570383850,57
9,8,Sul,NA,Caioba,-25.838000000000001,-48.534999999999997,NA,NA,NA,NA,NA,1.000000000000000,1.000000000000000,1.000000000000000,1.000000000000000,1000.000000000000000,9,6283.185307179585834,3141592.653589793015271,14.292726570706742,70
10,9,Sudeste,NA,Ilha Comprida,-24.783999999999999,-47.594999999999999,NA,NA,NA,NA,NA,1.000000000000000,1.000000000000000,1.000000000000000,1.000000000000000,1000.000000000000000,10,6283.185307179585834,3141592.653589793015271,3.728163931063556,9
11,10,Sudeste,NA,Iguape,-24.753211000000000,-47.542059000000002,NA,NA,NA,NA,NA,1.000000000000000,1.000000000000000,1.000000000000000,1.000000000000000,1000.000000000000000,11,6283.185307179585834,3141592.653589793015271,2.337687891757881,12
12,11,Sudeste,NA,Peruibe,-24.324427000000000,-46.978886000000003,NA,NA,NA,NA,NA,1.000000000000000,1.000000000000000,1.000000000000000,1.000000000000000,1000.000000000000000,12,6283.185307179585834,3141592.653589793015271,0.000000000000000,0
13,12,Sudeste,NA,Praia dos Pescadores,-24.194862000000001,-46.798881999999999,NA,NA,NA,NA,NA,1.000000000000000,1.000000000000000,1.000000000000000,1.000000000000000,1000.000000000000000,13,6283.185307179585834,3141592.653589793015271,16.764854758674350,103
14,13,Sudeste,NA,Itanhaem,-24.151427000000002,-46.707858000000002,NA,NA,NA,NA,NA,1.000000000000000,1.000000000000000,1.000000000000000,1.000000000000000,1000.000000000000000,14,6283.185307179585834,3141592.653589793015271,0.292120310142264,5
15,14,Sudeste,NA,Praia Grande,-24.028497000000002,-46.438310000000001,NA,NA,NA,NA,NA,1.000000000000000,1.000000000000000,1.000000000000000,1.000000000000000,1000.000000000000000,15,6283.185307179585834,3141592.653589793015271,0.000000000000000,0
16,15,Sudeste,NA,Praia do Forte dos Andradas,-24.028369000000001,-46.288159000000000,NA,NA,NA,NA,NA,1.000000000000000,1.000000000000000,1.000000000000000,1.000000000000000,1000.000000000000000,16,6283.185307179585834,3141592.653589793015271,4.087899937471677,13
17,16,Sudeste,NA,Praia do Forte dos Andradas,-24.025659999999998,-46.285460000000000,NA,NA,NA,NA,NA,1.000000000000000,1.000000000000000,1.000000000000000,1.000000000000000,1000.000000000000000,17,6283.185307179585834,3141592.653589793015271,4.978602096542496,20
18,17,Sudeste,NA,Praia da Ponta Grossa,-24.024816000000001,-46.314497000000003,NA,NA,NA,NA,NA,1.000000000000000,1.000000000000000,1.000000000000000,1.000000000000000,1000.000000000000000,18,6283.185307179585834,3141592.653589793015271,1.628426062076109,3
19,18,Sudeste,NA,Itaipu,-24.019545000000001,-46.386795999999997,NA,NA,NA,NA,NA,1.000000000000000,1.000000000000000,1.000000000000000,1.000000000000000,1000.000000000000000,19,6283.185307179585834,3141592.653589793015271,2.912827189887112,4
20,19,Sudeste,NA,Guaiuba,-24.017081999999998,-46.295202000000003,NA,NA,NA,NA,NA,1.000000000000000,1.000000000000000,1.000000000000000,1.000000000000000,1000.000000000000000,20,6283.185307179585834,3141592.653589793015271,11.646157516383422,50
21,20,Sudeste,NA,Santos,-24.015000000000001,-46.353999999999999,NA,NA,NA,NA,NA,1.000000000000000,1.000000000000000,1.000000000000000,1.000000000000000,1000.000000000000000,21,6283.185307179585834,3141592.653589793015271,0.000000000000000,0
22,21,Sudeste,NA,Morro do Maluf,-23.997560000000000,-46.251593999999997,NA,NA,NA,NA,NA,1.000000000000000,1.000000000000000,1.000000000000000,1.000000000000000,1000.000000000000000,22,6283.185307179585834,3141592.653589793015271,15.369009325057409,105
23,22,Sudeste,NA,Praia da Enseada,-23.990651000000000,-46.209406000000001,NA,NA,NA,NA,NA,1.000000000000000,1.000000000000000,1.000000000000000,1.000000000000000,1000.000000000000000,23,6283.185307179585834,3141592.653589793015271,17.490076857513436,99
24,23,Sudeste,NA,Embare,-23.980865999999999,-46.317684000000000,NA,NA,NA,NA,NA,1.000000000000000,1.000000000000000,1.000000000000000,1.000000000000000,1000.000000000000000,24,6283.185307179585834,3141592.653589793015271,24.105918294306427,208
25,24,Sudeste,NA,Gonzaga,-23.974027000000000,-46.330098000000000,NA,NA,NA,NA,NA,1.000000000000000,1.000000000000000,1.000000000000000,1.000000000000000,1000.000000000000000,25,6283.185307179585834,3141592.653589793015271,23.774094175940327,178
26,25,Sudeste,NA,Pereque,-23.927582999999998,-46.178826000000001,NA,NA,NA,NA,NA,1.000000000000000,1.000000000000000,1.000000000000000,1.000000000000000,1000.000000000000000,26,6283.185307179585834,3141592.653589793015271,10.490200782724939,75
27,26,Sudeste,NA,Praia Preta,-23.874700000000001,-46.138959000000000,NA,NA,NA,NA,NA,1.000000000000000,1.000000000000000,1.000000000000000,1.000000000000000,1000.000000000000000,27,6283.185307179585834,3141592.653589793015271,0.291657343200904,4
28,27,Sudeste,NA,Praia da Bertioga,-23.846986000000001,-46.126967999999998,NA,NA,NA,NA,NA,1.000000000000000,1.000000000000000,1.000000000000000,1.000000000000000,1000.000000000000000,28,6283.185307179585834,3141592.653589793015271,11.598675002220007,47
29,28,Sudeste,NA,Maresias,-23.793693260000001,-45.559764340000001,NA,NA,NA,NA,NA,1.000000000000000,1.000000000000000,1.000000000000000,1.000000000000000,1000.000000000000000,29,6283.185307179585834,3141592.653589793015271,14.745695630409591,94
30,29,Sudeste,NA,Canto de Moreira,-23.793056000000000,-45.587394000000003,NA,NA,NA,NA,NA,1.000000000000000,1.000000000000000,1.000000000000000,1.000000000000000,1000.000000000000000,30,6283.185307179585834,3141592.653589793015271,5.668137252537390,36
31,30,Sudeste,NA,Itaguere,-23.786995000000001,-45.971372000000002,NA,NA,NA,NA,NA,1.000000000000000,1.000000000000000,1.000000000000000,1.000000000000000,1000.000000000000000,31,6283.185307179585834,3141592.653589793015271,0.733982628523559,3
32,31,Sudeste,NA,Boicucanga,-23.784431000000001,-45.631354999999999,NA,NA,NA,NA,NA,1.000000000000000,1.000000000000000,1.000000000000000,1.000000000000000,1000.000000000000000,32,6283.185307179585834,3141592.653589793015271,10.189167419183775,61
33,32,Sudeste,NA,Praia de Baleia,-23.775839000000001,-45.683985999999997,NA,NA,NA,NA,NA,1.000000000000000,1.000000000000000,1.000000000000000,1.000000000000000,1000.000000000000000,33,6283.185307179585834,3141592.653589793015271,9.923598493782308,66
34,33,Sudeste,NA,Barra do Sahy,-23.774384999999999,-45.697569999999999,NA,NA,NA,NA,NA,1.000000000000000,1.000000000000000,1.000000000000000,1.000000000000000,1000.000000000000000,34,6283.185307179585834,3141592.653589793015271,8.842910105919582,39
35,34,Sudeste,NA,Praia Preta,-23.773009999999999,-45.715814999999999,NA,NA,NA,NA,NA,1.000000000000000,1.000000000000000,1.000000000000000,1.000000000000000,1000.000000000000000,35,6283.185307179585834,3141592.653589793015271,4.289430301808713,16
36,35,Sudeste,NA,Bananas Point,-23.771605000000001,-45.706209999999999,NA,NA,NA,NA,NA,1.000000000000000,1.000000000000000,1.000000000000000,1.000000000000000,1000.000000000000000,36,6283.185307179585834,3141592.653589793015271,3.885124824134408,9
37,36,Sudeste,NA,Praia do Juquei,-23.768115000000002,-45.745452999999998,NA,NA,NA,NA,NA,1.000000000000000,1.000000000000000,1.000000000000000,1.000000000000000,1000.000000000000000,37,6283.185307179585834,3141592.653589793015271,6.356470731609681,26
38,37,Sudeste,NA,Barra do Una,-23.763818000000001,-45.762779999999999,NA,NA,NA,NA,NA,1.000000000000000,1.000000000000000,1.000000000000000,1.000000000000000,1000.000000000000000,38,6283.185307179585834,3141592.653589793015271,13.950947235672317,56
39,38,Sudeste,NA,Praia da Boracéia,-23.758372999999999,-45.828777000000002,NA,NA,NA,NA,NA,1.000000000000000,1.000000000000000,1.000000000000000,1.000000000000000,1000.000000000000000,39,6283.185307179585834,3141592.653589793015271,9.352845224816260,37
40,39,Sudeste,NA,Praia Dura,-23.496058000000001,-45.171014000000000,NA,NA,NA,NA,NA,1.000000000000000,1.000000000000000,1.000000000000000,1.000000000000000,1000.000000000000000,40,6283.185307179585834,3141592.653589793015271,11.770565048548582,63
41,40,Sudeste,NA,Pereque-Acu,-23.424565000000001,-45.062697000000000,NA,NA,NA,NA,NA,1.000000000000000,1.000000000000000,1.000000000000000,1.000000000000000,1000.000000000000000,41,6283.185307179585834,3141592.653589793015271,27.138220964982946,139
42,41,Sudeste,NA,Itamambuca,-23.406683000000001,-45.008741000000001,NA,NA,NA,NA,NA,1.000000000000000,1.000000000000000,1.000000000000000,1.000000000000000,1000.000000000000000,42,6283.185307179585834,3141592.653589793015271,12.785682728416720,59
43,42,Sudeste,NA,Praia da Fazenda,-23.361352000000000,-44.859766000000000,NA,NA,NA,NA,NA,1.000000000000000,1.000000000000000,1.000000000000000,1.000000000000000,1000.000000000000000,43,6283.185307179585834,3141592.653589793015271,0.808774789613309,3
44,43,Sudeste,NA,Aventureiro,-23.184405999999999,-44.315804000000000,NA,NA,NA,NA,NA,1.000000000000000,1.000000000000000,1.000000000000000,1.000000000000000,1000.000000000000000,44,6283.185307179585834,3141592.653589793015271,3.295786941677207,7
45,44,Sudeste,NA,Praia do Leste,-23.179746000000002,-44.274093999999998,NA,NA,NA,NA,NA,1.000000000000000,1.000000000000000,1.000000000000000,1.000000000000000,1000.000000000000000,45,6283.185307179585834,3141592.653589793015271,2.153356208449822,3
46,45,Sudeste,NA,Praia do Sul,-23.178656000000000,-44.296756999999999,NA,NA,NA,NA,NA,1.000000000000000,1.000000000000000,1.000000000000000,1.000000000000000,1000.000000000000000,46,6283.185307179585834,3141592.653589793015271,1.844112189452530,1
47,46,Sudeste,NA,Praia do Meio,-23.066913000000000,-43.549809000000003,NA,NA,NA,NA,NA,1.000000000000000,1.000000000000000,1.000000000000000,1.000000000000000,1000.000000000000000,47,6283.185307179585834,3141592.653589793015271,6.260844956365720,22
48,47,Sudeste,NA,Restinga a Marambaia,-23.061833000000000,-43.591673000000000,NA,NA,NA,NA,NA,1.000000000000000,1.000000000000000,1.000000000000000,1.000000000000000,1000.000000000000000,48,6283.185307179585834,3141592.653589793015271,0.000000000000000,0
49,48,Sudeste,NA,Grumari,-23.050469000000000,-43.533907999999997,NA,NA,NA,NA,NA,1.000000000000000,1.000000000000000,1.000000000000000,1.000000000000000,1000.000000000000000,49,6283.185307179585834,3141592.653589793015271,8.057384346342355,18
50,49,Sudeste,NA,Reserva,-23.022717000000000,-43.440916000000001,NA,NA,NA,NA,NA,1.000000000000000,1.000000000000000,1.000000000000000,1.000000000000000,1000.000000000000000,50,6283.185307179585834,3141592.653589793015271,7.911189428863628,68
51,50,Sudeste,NA,Barra da Tijuca,-23.020340120000000,-43.372478489999999,NA,NA,NA,NA,NA,1.000000000000000,1.000000000000000,1.000000000000000,1.000000000000000,1000.000000000000000,51,6283.185307179585834,3141592.653589793015271,0.000000000000000,0
52,51,Sudeste,NA,Barra da Tijuca,-23.014886109999999,-43.372222219999998,NA,NA,NA,NA,NA,1.000000000000000,1.000000000000000,1.000000000000000,1.000000000000000,1000.000000000000000,52,6283.185307179585834,3141592.653589793015271,10.979662023365936,119
53,52,Sudeste,NA,Sao Conrado,-23.000617999999999,-43.264187000000000,NA,NA,NA,NA,NA,1.000000000000000,1.000000000000000,1.000000000000000,1.000000000000000,1000.000000000000000,53,6283.185307179585834,3141592.653589793015271,20.390979410322824,185
54,53,Sudeste,NA,Bambui,-22.975255000000001,-42.916570000000000,NA,NA,NA,NA,NA,1.000000000000000,1.000000000000000,1.000000000000000,1.000000000000000,1000.000000000000000,54,6283.185307179585834,3141592.653589793015271,16.649232013414295,62
55,54,Sudeste,NA,Itaipuacu,-22.971149000000000,-43.011260000000000,NA,NA,NA,NA,NA,1.000000000000000,1.000000000000000,1.000000000000000,1.000000000000000,1000.000000000000000,55,6283.185307179585834,3141592.653589793015271,13.093755961053272,68
56,55,Sudeste,NA,Barra de Marica,-22.962100000000000,-42.809486999999997,NA,NA,NA,NA,NA,1.000000000000000,1.000000000000000,1.000000000000000,1.000000000000000,1000.000000000000000,56,6283.185307179585834,3141592.653589793015271,8.505779391133011,54
57,56,Sudeste,NA,Camboinhas,-22.961998000000001,-43.059922999999998,NA,NA,NA,NA,NA,1.000000000000000,1.000000000000000,1.000000000000000,1.000000000000000,1000.000000000000000,57,6283.185307179585834,3141592.653589793015271,26.531123566516765,260
58,57,Sudeste,NA,Pirantininga,-22.955044999999998,-43.088653999999998,NA,NA,NA,NA,NA,1.000000000000000,1.000000000000000,1.000000000000000,1.000000000000000,1000.000000000000000,58,6283.185307179585834,3141592.653589793015271,17.295482604661267,89
59,58,Sudeste,NA,Jacone,-22.946556000000001,-42.679789000000000,NA,NA,NA,NA,NA,1.000000000000000,1.000000000000000,1.000000000000000,1.000000000000000,1000.000000000000000,59,6283.185307179585834,3141592.653589793015271,6.835233189735012,19
60,59,Sudeste,NA,Figueira,-22.944991999999999,-42.188828000000001,NA,NA,NA,NA,NA,1.000000000000000,1.000000000000000,1.000000000000000,1.000000000000000,1000.000000000000000,60,6283.185307179585834,3141592.653589793015271,6.104711340144328,35
61,60,Sudeste,NA,Praia do Fora,-22.944794000000002,-43.155304000000001,NA,NA,NA,NA,NA,1.000000000000000,1.000000000000000,1.000000000000000,1.000000000000000,1000.000000000000000,61,6283.185307179585834,3141592.653589793015271,9.914818693083070,75
62,61,Sudeste,NA,Laje do Pao de Acucar,-22.938409000000000,-43.151797000000002,NA,NA,NA,NA,NA,1.000000000000000,1.000000000000000,1.000000000000000,1.000000000000000,1000.000000000000000,62,6283.185307179585834,3141592.653589793015271,2.621672006613578,18
63,62,Sudeste,NA,Canal,-22.937418999999998,-42.487813000000003,NA,NA,NA,NA,NA,1.000000000000000,1.000000000000000,1.000000000000000,1.000000000000000,1000.000000000000000,63,6283.185307179585834,3141592.653589793015271,13.870747273830364,95
64,63,Sudeste,NA,Praia Seca,-22.936126000000002,-42.361598000000001,NA,NA,NA,NA,NA,1.000000000000000,1.000000000000000,1.000000000000000,1.000000000000000,1000.000000000000000,64,6283.185307179585834,3141592.653589793015271,7.956545252963112,37
65,64,Sudeste,NA,Caravelas,-22.814850000000000,-41.953901999999999,NA,NA,NA,NA,NA,1.000000000000000,1.000000000000000,1.000000000000000,1.000000000000000,1000.000000000000000,65,6283.185307179585834,3141592.653589793015271,7.107792929382249,33
66,65,Sudeste,NA,Tucuns,-22.799863999999999,-41.929282000000001,NA,NA,NA,NA,NA,1.000000000000000,1.000000000000000,1.000000000000000,1.000000000000000,1000.000000000000000,66,6283.185307179585834,3141592.653589793015271,8.276603877340586,33
67,66,Sudeste,NA,Praia Brava,-22.754252000000001,-41.872608999999997,NA,NA,NA,NA,NA,1.000000000000000,1.000000000000000,1.000000000000000,1.000000000000000,1000.000000000000000,67,6283.185307179585834,3141592.653589793015271,13.334955046460797,50
68,67,Sudeste,NA,Marataizes,-21.044882999999999,-40.827455999999998,NA,NA,NA,NA,NA,1.000000000000000,1.000000000000000,1.000000000000000,1.000000000000000,1000.000000000000000,68,6283.185307179585834,3141592.653589793015271,35.720528216469852,199
69,68,Sudeste,NA,Ponta do Ubu,-20.793246000000000,-40.579551000000002,NA,NA,NA,NA,NA,1.000000000000000,1.000000000000000,1.000000000000000,1.000000000000000,1000.000000000000000,69,6283.185307179585834,3141592.653589793015271,13.692315974549617,65
70,69,Sudeste,NA,Ponta dos Castelhanos,-20.755085000000001,-40.560755000000000,NA,NA,NA,NA,NA,1.000000000000000,1.000000000000000,1.000000000000000,1.000000000000000,1000.000000000000000,70,6283.185307179585834,3141592.653589793015271,3.207943562531113,15
71,70,Sudeste,NA,Maimba,-20.707021999999998,-40.514367999999997,NA,NA,NA,NA,NA,1.000000000000000,1.000000000000000,1.000000000000000,1.000000000000000,1000.000000000000000,71,6283.185307179585834,3141592.653589793015271,4.001487731083018,5
72,71,Sudeste,NA,Praia do Morro,-20.659787999999999,-40.493842999999998,NA,NA,NA,NA,NA,1.000000000000000,1.000000000000000,1.000000000000000,1.000000000000000,1000.000000000000000,72,6283.185307179585834,3141592.653589793015271,37.783899686341321,360
73,72,Sudeste,NA,Ponta de Bororo,-20.614518000000000,-40.415382000000001,NA,NA,NA,NA,NA,1.000000000000000,1.000000000000000,1.000000000000000,1.000000000000000,1000.000000000000000,73,6283.185307179585834,3141592.653589793015271,3.074996945276437,9
74,73,Sudeste,NA,Tropical,-20.559543999999999,-40.391810000000000,NA,NA,NA,NA,NA,1.000000000000000,1.000000000000000,1.000000000000000,1.000000000000000,1000.000000000000000,74,6283.185307179585834,3141592.653589793015271,3.569479145604579,3
75,74,Sudeste,NA,Dunas de Ule,-20.542100000000001,-40.379860999999998,NA,NA,NA,NA,NA,1.000000000000000,1.000000000000000,1.000000000000000,1.000000000000000,1000.000000000000000,75,6283.185307179585834,3141592.653589793015271,7.531536746335219,53
76,75,Sudeste,NA,Guarapari - Ule,-20.541319000000001,-40.378385999999999,NA,NA,NA,NA,NA,1.000000000000000,1.000000000000000,1.000000000000000,1.000000000000000,1000.000000000000000,76,6283.185307179585834,3141592.653589793015271,8.192840302676581,52
77,76,Sudeste,NA,Ponta da Fruta,-20.516836999999999,-40.358133000000002,NA,NA,NA,NA,NA,1.000000000000000,1.000000000000000,1.000000000000000,1.000000000000000,1000.000000000000000,77,6283.185307179585834,3141592.653589793015271,14.072645259785686,92
78,77,Sudeste,NA,Coral Dois,-20.448948000000001,-40.330300000000001,NA,NA,NA,NA,NA,1.000000000000000,1.000000000000000,1.000000000000000,1.000000000000000,1000.000000000000000,78,6283.185307179585834,3141592.653589793015271,28.730820005264185,172
79,78,Sudeste,NA,Ponta da Belina,-20.445827000000001,-40.329245000000000,NA,NA,NA,NA,NA,1.000000000000000,1.000000000000000,1.000000000000000,1.000000000000000,1000.000000000000000,79,6283.185307179585834,3141592.653589793015271,29.793009243136677,176
80,79,Sudeste,NA,Coral Um,-20.437659000000000,-40.326006999999997,NA,NA,NA,NA,NA,1.000000000000000,1.000000000000000,1.000000000000000,1.000000000000000,1000.000000000000000,80,6283.185307179585834,3141592.653589793015271,25.374718218309507,171
81,80,Sudeste,NA,"Barrao, Brazil",-20.427381000000000,-40.320982000000001,NA,NA,NA,NA,NA,1.000000000000000,1.000000000000000,1.000000000000000,1.000000000000000,1000.000000000000000,81,6283.185307179585834,3141592.653589793015271,17.161835764027046,166
82,81,Sudeste,NA,Barrinha,-20.422540999999999,-40.321933999999999,NA,NA,NA,NA,NA,1.000000000000000,1.000000000000000,1.000000000000000,1.000000000000000,1000.000000000000000,82,6283.185307179585834,3141592.653589793015271,23.108458786072042,207
83,82,Sudeste,NA,Praia de Camburi,-20.279677000000000,-40.248994000000003,NA,NA,NA,NA,NA,1.000000000000000,1.000000000000000,1.000000000000000,1.000000000000000,1000.000000000000000,83,6283.185307179585834,3141592.653589793015271,8.753421660782735,45
84,83,Sudeste,NA,Velzyland,-20.244838999999999,-40.216205000000002,NA,NA,NA,NA,NA,1.000000000000000,1.000000000000000,1.000000000000000,1.000000000000000,1000.000000000000000,84,6283.185307179585834,3141592.653589793015271,5.979315820105324,32
85,84,Sudeste,NA,Ponta da Cacao,-20.219573000000000,-40.196268000000003,NA,NA,NA,NA,NA,1.000000000000000,1.000000000000000,1.000000000000000,1.000000000000000,1000.000000000000000,85,6283.185307179585834,3141592.653589793015271,9.093249610316720,57
86,85,Sudeste,NA,"Manguinhos, Brazil",-20.199344000000000,-40.190266999999999,NA,NA,NA,NA,NA,1.000000000000000,1.000000000000000,1.000000000000000,1.000000000000000,1000.000000000000000,86,6283.185307179585834,3141592.653589793015271,11.418664156045246,61
87,86,Sudeste,NA,Praia da Baleia,-20.171105000000001,-40.184866000000000,NA,NA,NA,NA,NA,1.000000000000000,1.000000000000000,1.000000000000000,1.000000000000000,1000.000000000000000,87,6283.185307179585834,3141592.653589793015271,19.448774819360704,122
88,87,Sudeste,NA,Jacaraipe - Solemar,-20.109774999999999,-40.171481000000000,NA,NA,NA,NA,NA,1.000000000000000,1.000000000000000,1.000000000000000,1.000000000000000,1000.000000000000000,88,6283.185307179585834,3141592.653589793015271,15.136473034616261,98
89,88,Sudeste,NA,Xa,-20.107229000000000,-40.171174999999998,NA,NA,NA,NA,NA,1.000000000000000,1.000000000000000,1.000000000000000,1.000000000000000,1000.000000000000000,89,6283.185307179585834,3141592.653589793015271,13.302048557257372,99
90,89,Sudeste,NA,Nova Almeida,-20.058461999999999,-40.183000999999997,NA,NA,NA,NA,NA,1.000000000000000,1.000000000000000,1.000000000000000,1.000000000000000,1000.000000000000000,90,6283.185307179585834,3141592.653589793015271,10.550141765654914,85
91,90,Sudeste,NA,Praia Grande,-20.047100000000000,-40.182743000000002,NA,NA,NA,NA,NA,1.000000000000000,1.000000000000000,1.000000000000000,1.000000000000000,1000.000000000000000,91,6283.185307179585834,3141592.653589793015271,8.159395318290002,47
92,91,Sudeste,NA,Regencia,-19.562811000000000,-39.764263999999997,NA,NA,NA,NA,NA,1.000000000000000,1.000000000000000,1.000000000000000,1.000000000000000,1000.000000000000000,92,6283.185307179585834,3141592.653589793015271,0.000000000000000,0
93,92,Sudeste,NA,Guriri,-18.910750000000000,-39.738563999999997,NA,NA,NA,NA,NA,1.000000000000000,1.000000000000000,1.000000000000000,1.000000000000000,1000.000000000000000,93,6283.185307179585834,3141592.653589793015271,0.000000000000000,0
94,93,Nordeste,NA,Milionarios,-14.847631000000000,-39.022942000000000,NA,NA,NA,NA,NA,1.000000000000000,1.000000000000000,1.000000000000000,1.000000000000000,1000.000000000000000,94,6283.185307179585834,3141592.653589793015271,12.748184115042498,114
95,94,Nordeste,NA,Sul,-14.831120000000000,-39.022562999999998,NA,NA,NA,NA,NA,1.000000000000000,1.000000000000000,1.000000000000000,1.000000000000000,1000.000000000000000,95,6283.185307179585834,3141592.653589793015271,16.476572642623751,107
96,95,Nordeste,NA,Pedra da Cachorra,-14.821026000000000,-39.023632999999997,NA,NA,NA,NA,NA,1.000000000000000,1.000000000000000,1.000000000000000,1.000000000000000,1000.000000000000000,96,6283.185307179585834,3141592.653589793015271,20.206094477180411,113
97,96,Nordeste,NA,Jardim Atlantico,-14.815026000000000,-39.023400000000002,NA,NA,NA,NA,NA,1.000000000000000,1.000000000000000,1.000000000000000,1.000000000000000,1000.000000000000000,97,6283.185307179585834,3141592.653589793015271,18.124755427920402,99
98,97,Nordeste,NA,Baduska,-14.809442000000001,-39.023423000000001,NA,NA,NA,NA,NA,1.000000000000000,1.000000000000000,1.000000000000000,1.000000000000000,1000.000000000000000,98,6283.185307179585834,3141592.653589793015271,13.204873249612843,72
99,98,Nordeste,NA,Norte,-14.660090000000000,-39.063006999999999,NA,NA,NA,NA,NA,1.000000000000000,1.000000000000000,1.000000000000000,1.000000000000000,1000.000000000000000,99,6283.185307179585834,3141592.653589793015271,4.271826852376662,15
100,99,Nordeste,NA,Havaizinho,-14.468062000000000,-39.023161000000002,NA,NA,NA,NA,NA,1.000000000000000,1.000000000000000,1.000000000000000,1.000000000000000,1000.000000000000000,100,6283.185307179585834,3141592.653589793015271,0.430457718070386,1
101,100,Nordeste,NA,Sao Jose,-14.316062000000001,-38.990701000000001,NA,NA,NA,NA,NA,1.000000000000000,1.000000000000000,1.000000000000000,1.000000000000000,1000.000000000000000,101,6283.185307179585834,3141592.653589793015271,5.550619954167823,13
102,101,Nordeste,NA,Corals,-14.275408000000001,-38.982568999999998,NA,NA,NA,NA,NA,1.000000000000000,1.000000000000000,1.000000000000000,1.000000000000000,1000.000000000000000,102,6283.185307179585834,3141592.653589793015271,6.755613043040388,44
103,102,Nordeste,NA,Tony,-13.016731999999999,-38.488781000000003,NA,NA,NA,NA,NA,1.000000000000000,1.000000000000000,1.000000000000000,1.000000000000000,1000.000000000000000,103,6283.185307179585834,3141592.653589793015271,26.396519618667487,251
104,103,Nordeste,NA,Meridien,-13.016598000000000,-38.484878999999999,NA,NA,NA,NA,NA,1.000000000000000,1.000000000000000,1.000000000000000,1.000000000000000,1000.000000000000000,104,6283.185307179585834,3141592.653589793015271,31.740386328930644,318
105,104,Nordeste,NA,Amaralina,-13.015369000000000,-38.471834000000001,NA,NA,NA,NA,NA,1.000000000000000,1.000000000000000,1.000000000000000,1.000000000000000,1000.000000000000000,105,6283.185307179585834,3141592.653589793015271,32.680604863282269,346
106,105,Nordeste,NA,Tubao,-13.010683999999999,-38.461410999999998,NA,NA,NA,NA,NA,1.000000000000000,1.000000000000000,1.000000000000000,1.000000000000000,1000.000000000000000,106,6283.185307179585834,3141592.653589793015271,27.653636026500372,286
107,106,Nordeste,NA,Psiu,-12.995919000000001,-38.439390000000003,NA,NA,NA,NA,NA,1.000000000000000,1.000000000000000,1.000000000000000,1.000000000000000,1000.000000000000000,107,6283.185307179585834,3141592.653589793015271,25.894957273119470,188
108,107,Nordeste,NA,Alex,-12.973279000000000,-38.406477000000002,NA,NA,NA,NA,NA,1.000000000000000,1.000000000000000,1.000000000000000,1.000000000000000,1000.000000000000000,108,6283.185307179585834,3141592.653589793015271,21.313989643832624,197
109,108,Nordeste,NA,Terceira Ponte,-12.963839999999999,-38.396822000000000,NA,NA,NA,NA,NA,1.000000000000000,1.000000000000000,1.000000000000000,1.000000000000000,1000.000000000000000,109,6283.185307179585834,3141592.653589793015271,28.399737698843921,268
110,109,Nordeste,NA,SESC,-12.960485000000000,-38.390998000000003,NA,NA,NA,NA,NA,1.000000000000000,1.000000000000000,1.000000000000000,1.000000000000000,1000.000000000000000,110,6283.185307179585834,3141592.653589793015271,23.704869038314953,175
111,110,Nordeste,NA,Farol,-12.958147000000000,-38.352812999999998,NA,NA,NA,NA,NA,1.000000000000000,1.000000000000000,1.000000000000000,1.000000000000000,1000.000000000000000,111,6283.185307179585834,3141592.653589793015271,14.820106710400209,119
112,111,Nordeste,NA,Pedro do Sal,-12.954224000000000,-38.347234000000000,NA,NA,NA,NA,NA,1.000000000000000,1.000000000000000,1.000000000000000,1.000000000000000,1000.000000000000000,112,6283.185307179585834,3141592.653589793015271,16.827672303477133,136
113,112,Nordeste,NA,Itapoa,-12.952339000000000,-38.369608999999997,NA,NA,NA,NA,NA,1.000000000000000,1.000000000000000,1.000000000000000,1.000000000000000,1000.000000000000000,113,6283.185307179585834,3141592.653589793015271,33.274759205088017,311
114,113,Nordeste,NA,Seper,-12.952040999999999,-38.343243999999999,NA,NA,NA,NA,NA,1.000000000000000,1.000000000000000,1.000000000000000,1.000000000000000,1000.000000000000000,114,6283.185307179585834,3141592.653589793015271,12.669312238761986,129
115,114,Nordeste,NA,Corrente,-12.948985000000000,-38.339199999999998,NA,NA,NA,NA,NA,1.000000000000000,1.000000000000000,1.000000000000000,1.000000000000000,1000.000000000000000,115,6283.185307179585834,3141592.653589793015271,16.131916875926635,184
116,115,Nordeste,NA,Stela Maris,-12.947385000000001,-38.337372000000002,NA,NA,NA,NA,NA,1.000000000000000,1.000000000000000,1.000000000000000,1.000000000000000,1000.000000000000000,116,6283.185307179585834,3141592.653589793015271,19.732874735755999,211
117,116,Nordeste,NA,Plator,-12.946393000000000,-38.333083999999999,NA,NA,NA,NA,NA,1.000000000000000,1.000000000000000,1.000000000000000,1.000000000000000,1000.000000000000000,117,6283.185307179585834,3141592.653589793015271,16.346281410900101,159
118,117,Nordeste,NA,Aleluia,-12.926800999999999,-38.312618999999998,NA,NA,NA,NA,NA,1.000000000000000,1.000000000000000,1.000000000000000,1.000000000000000,1000.000000000000000,118,6283.185307179585834,3141592.653589793015271,7.543759763909814,66
119,118,Nordeste,NA,Ipitanga,-12.920477000000000,-38.309717999999997,NA,NA,NA,NA,NA,1.000000000000000,1.000000000000000,1.000000000000000,1.000000000000000,1000.000000000000000,119,6283.185307179585834,3141592.653589793015271,18.324592699371866,132
120,119,Nordeste,NA,Vilas,-12.894546000000000,-38.290790999999999,NA,NA,NA,NA,NA,1.000000000000000,1.000000000000000,1.000000000000000,1.000000000000000,1000.000000000000000,120,6283.185307179585834,3141592.653589793015271,21.888184799569995,245
121,120,Nordeste,NA,Busca Vida,-12.863464000000000,-38.255961999999997,NA,NA,NA,NA,NA,1.000000000000000,1.000000000000000,1.000000000000000,1.000000000000000,1000.000000000000000,121,6283.185307179585834,3141592.653589793015271,4.526843013429629,20
122,121,Nordeste,NA,Itacimirim,-12.639232000000000,-38.048194000000002,NA,NA,NA,NA,NA,1.000000000000000,1.000000000000000,1.000000000000000,1.000000000000000,1000.000000000000000,122,6283.185307179585834,3141592.653589793015271,4.898770443026120,20
123,122,Nordeste,NA,Praia do Forte,-12.583304999999999,-38.005077999999997,NA,NA,NA,NA,NA,1.000000000000000,1.000000000000000,1.000000000000000,1.000000000000000,1000.000000000000000,123,6283.185307179585834,3141592.653589793015271,15.073472893557922,116
124,123,Nordeste,NA,Imbassai,-12.342055000000000,-37.846200000000003,NA,NA,NA,NA,NA,1.000000000000000,1.000000000000000,1.000000000000000,1.000000000000000,1000.000000000000000,124,6283.185307179585834,3141592.653589793015271,0.000000000000000,0
125,124,Nordeste,NA,Costa do Sauipe,-12.022171000000000,-37.645508000000000,NA,NA,NA,NA,NA,1.000000000000000,1.000000000000000,1.000000000000000,1.000000000000000,1000.000000000000000,125,6283.185307179585834,3141592.653589793015271,0.000000000000000,0
126,125,Nordeste,NA,Marlin,-11.939802999999999,-37.602476000000003,NA,NA,NA,NA,NA,1.000000000000000,1.000000000000000,1.000000000000000,1.000000000000000,1000.000000000000000,126,6283.185307179585834,3141592.653589793015271,1.292849326611720,3
127,126,Nordeste,NA,Conde,-11.848141000000000,-37.558169999999997,NA,NA,NA,NA,NA,1.000000000000000,1.000000000000000,1.000000000000000,1.000000000000000,1000.000000000000000,127,6283.185307179585834,3141592.653589793015271,5.206619994985649,28
128,127,Nordeste,NA,Mangue Seco,-11.483613999999999,-37.364454000000002,NA,NA,NA,NA,NA,1.000000000000000,1.000000000000000,1.000000000000000,1.000000000000000,1000.000000000000000,128,6283.185307179585834,3141592.653589793015271,0.353561815514553,1
129,128,Nordeste,NA,Mosqueiro,-11.138116000000000,-37.145493000000002,NA,NA,NA,NA,NA,1.000000000000000,1.000000000000000,1.000000000000000,1.000000000000000,1000.000000000000000,129,6283.185307179585834,3141592.653589793015271,2.115994788122981,5
130,129,Nordeste,NA,Aruana,-11.067069000000000,-37.101289000000001,NA,NA,NA,NA,NA,1.000000000000000,1.000000000000000,1.000000000000000,1.000000000000000,1000.000000000000000,130,6283.185307179585834,3141592.653589793015271,13.544019176696120,91
131,130,Nordeste,NA,Hawaiizinho,-11.043927999999999,-37.082977999999997,NA,NA,NA,NA,NA,1.000000000000000,1.000000000000000,1.000000000000000,1.000000000000000,1000.000000000000000,131,6283.185307179585834,3141592.653589793015271,4.994840377082862,22
132,131,Nordeste,NA,Praia do Meio,-10.999541000000001,-37.050151000000000,NA,NA,NA,NA,NA,1.000000000000000,1.000000000000000,1.000000000000000,1.000000000000000,1000.000000000000000,132,6283.185307179585834,3141592.653589793015271,14.589428966432923,66
133,132,Nordeste,NA,Pirambu,-10.746346000000001,-36.855099000000003,NA,NA,NA,NA,NA,1.000000000000000,1.000000000000000,1.000000000000000,1.000000000000000,1000.000000000000000,133,6283.185307179585834,3141592.653589793015271,11.605189803228534,95
134,133,Nordeste,NA,Ponta do Mangue,-10.639483000000000,-36.678539000000001,NA,NA,NA,NA,NA,1.000000000000000,1.000000000000000,1.000000000000000,1.000000000000000,1000.000000000000000,134,6283.185307179585834,3141592.653589793015271,0.000000000000000,0
135,134,Nordeste,NA,Pontal de Peba,-10.367584000000001,-36.303941000000002,NA,NA,NA,NA,NA,1.000000000000000,1.000000000000000,1.000000000000000,1.000000000000000,1000.000000000000000,135,6283.185307179585834,3141592.653589793015271,0.106760144578837,1
136,135,Nordeste,NA,Mihai,-10.196728000000000,-36.181641999999997,NA,NA,NA,NA,NA,1.000000000000000,1.000000000000000,1.000000000000000,1.000000000000000,1000.000000000000000,136,6283.185307179585834,3141592.653589793015271,2.121137692043677,7
137,136,Nordeste,NA,Pontal do Coruripe,-10.160774999999999,-36.150663999999999,NA,NA,NA,NA,NA,1.000000000000000,1.000000000000000,1.000000000000000,1.000000000000000,1000.000000000000000,137,6283.185307179585834,3141592.653589793015271,2.901598374324782,19
138,137,Nordeste,NA,Forjos,-10.107661999999999,-36.097672000000003,NA,NA,NA,NA,NA,1.000000000000000,1.000000000000000,1.000000000000000,1.000000000000000,1000.000000000000000,138,6283.185307179585834,3141592.653589793015271,3.476496489789691,6
139,138,Nordeste,NA,Poxim,-10.063563000000000,-36.040908999999999,NA,NA,NA,NA,NA,1.000000000000000,1.000000000000000,1.000000000000000,1.000000000000000,1000.000000000000000,139,6283.185307179585834,3141592.653589793015271,1.510637220755600,1
140,139,Nordeste,NA,Jacarecica,-9.916383000000000,-35.945963999999996,NA,NA,NA,NA,NA,1.000000000000000,1.000000000000000,1.000000000000000,1.000000000000000,1000.000000000000000,140,6283.185307179585834,3141592.653589793015271,5.177126850011460,5
141,140,Nordeste,NA,Praia do Meio,-9.824446999999999,-35.877803000000000,NA,NA,NA,NA,NA,1.000000000000000,1.000000000000000,1.000000000000000,1.000000000000000,1000.000000000000000,141,6283.185307179585834,3141592.653589793015271,21.592888127092603,137
142,141,Nordeste,NA,Praia do Pontal,-9.682589999999999,-35.758536999999997,NA,NA,NA,NA,NA,1.000000000000000,1.000000000000000,1.000000000000000,1.000000000000000,1000.000000000000000,142,6283.185307179585834,3141592.653589793015271,23.708035351224961,116
143,142,Nordeste,NA,Salgema,-9.679629000000000,-35.718974000000003,NA,NA,NA,NA,NA,1.000000000000000,1.000000000000000,1.000000000000000,1.000000000000000,1000.000000000000000,143,6283.185307179585834,3141592.653589793015271,16.736171621204289,88
144,143,Nordeste,NA,Pier do Emissario,-9.673301000000000,-35.715234000000002,NA,NA,NA,NA,NA,1.000000000000000,1.000000000000000,1.000000000000000,1.000000000000000,1000.000000000000000,144,6283.185307179585834,3141592.653589793015271,28.460421103406357,170
145,144,Nordeste,NA,Praia do Sobral,-9.666869000000000,-35.710735000000000,NA,NA,NA,NA,NA,1.000000000000000,1.000000000000000,1.000000000000000,1.000000000000000,1000.000000000000000,145,6283.185307179585834,3141592.653589793015271,36.510806306557903,185
146,145,Nordeste,NA,"Pico da Barra, Brazil",-9.665630000000000,-35.697186000000002,NA,NA,NA,NA,NA,1.000000000000000,1.000000000000000,1.000000000000000,1.000000000000000,1000.000000000000000,146,6283.185307179585834,3141592.653589793015271,19.894293928414406,110
147,146,Nordeste,NA,Pedra Virada,-9.585521999999999,-35.660038000000000,NA,NA,NA,NA,NA,1.000000000000000,1.000000000000000,1.000000000000000,1.000000000000000,1000.000000000000000,147,6283.185307179585834,3141592.653589793015271,13.873490192188815,92
148,147,Nordeste,NA,Praia de Jatiuca,-9.531449000000000,-35.590927999999998,NA,NA,NA,NA,NA,1.000000000000000,1.000000000000000,1.000000000000000,1.000000000000000,1000.000000000000000,148,6283.185307179585834,3141592.653589793015271,0.741465073594989,1
149,148,Nordeste,NA,Garca Torta,-9.487114000000000,-35.557476999999999,NA,NA,NA,NA,NA,1.000000000000000,1.000000000000000,1.000000000000000,1.000000000000000,1000.000000000000000,149,6283.185307179585834,3141592.653589793015271,4.121880701554462,20
150,149,Nordeste,NA,Mirante da Sirena,-9.430906000000000,-35.503683000000002,NA,NA,NA,NA,NA,1.000000000000000,1.000000000000000,1.000000000000000,1.000000000000000,1000.000000000000000,150,6283.185307179585834,3141592.653589793015271,3.305352818842198,13
151,150,Nordeste,NA,Japaratinga,-9.261582000000001,-35.353366000000001,NA,NA,NA,NA,NA,1.000000000000000,1.000000000000000,1.000000000000000,1.000000000000000,1000.000000000000000,151,6283.185307179585834,3141592.653589793015271,0.944423316862457,6
152,151,Nordeste,NA,Impossivel,-8.615505000000001,-35.020375000000001,NA,NA,NA,NA,NA,1.000000000000000,1.000000000000000,1.000000000000000,1.000000000000000,1000.000000000000000,152,6283.185307179585834,3141592.653589793015271,0.055750718070259,1
153,152,Nordeste,NA,Serrambi,-8.576358000000001,-35.028714999999998,NA,NA,NA,NA,NA,1.000000000000000,1.000000000000000,1.000000000000000,1.000000000000000,1000.000000000000000,153,6283.185307179585834,3141592.653589793015271,0.459898350090628,5
154,153,Nordeste,NA,Porto de Galinhas,-8.488678000000000,-34.999501000000002,NA,NA,NA,NA,NA,1.000000000000000,1.000000000000000,1.000000000000000,1.000000000000000,1000.000000000000000,154,6283.185307179585834,3141592.653589793015271,11.142149198296725,57
155,154,Nordeste,NA,Cupe,-8.479708000000000,-34.996577000000002,NA,NA,NA,NA,NA,1.000000000000000,1.000000000000000,1.000000000000000,1.000000000000000,1000.000000000000000,155,6283.185307179585834,3141592.653589793015271,13.141900976612106,64
156,155,Nordeste,NA,Gaibu,-8.341567000000000,-34.948825999999997,NA,NA,NA,NA,NA,1.000000000000000,1.000000000000000,1.000000000000000,1.000000000000000,1000.000000000000000,156,6283.185307179585834,3141592.653589793015271,23.840380776946347,184
157,156,Nordeste,NA,Bessa,-7.091138000000000,-34.832765000000002,NA,NA,NA,NA,NA,1.000000000000000,1.000000000000000,1.000000000000000,1.000000000000000,1000.000000000000000,157,6283.185307179585834,3141592.653589793015271,29.683281563883476,201
158,157,Nordeste,NA,Saji,-6.466880000000000,-34.970449000000002,NA,NA,NA,NA,NA,1.000000000000000,1.000000000000000,1.000000000000000,1.000000000000000,1000.000000000000000,158,6283.185307179585834,3141592.653589793015271,5.331257112662316,25
159,158,Nordeste,NA,Farol,-6.408908000000000,-34.979016999999999,NA,NA,NA,NA,NA,1.000000000000000,1.000000000000000,1.000000000000000,1.000000000000000,1000.000000000000000,159,6283.185307179585834,3141592.653589793015271,0.982798281506586,1
160,159,Nordeste,NA,Xilauzinho,-6.395101000000000,-34.983204999999998,NA,NA,NA,NA,NA,1.000000000000000,1.000000000000000,1.000000000000000,1.000000000000000,1000.000000000000000,160,6283.185307179585834,3141592.653589793015271,2.969807180758465,4
161,160,Nordeste,NA,Mar Aberto,-6.379758000000000,-34.989437000000002,NA,NA,NA,NA,NA,1.000000000000000,1.000000000000000,1.000000000000000,1.000000000000000,1000.000000000000000,161,6283.185307179585834,3141592.653589793015271,3.241029898322113,13
162,161,Nordeste,NA,Pontal,-6.368680000000000,-34.993423999999997,NA,NA,NA,NA,NA,1.000000000000000,1.000000000000000,1.000000000000000,1.000000000000000,1000.000000000000000,162,6283.185307179585834,3141592.653589793015271,3.463888059442074,15
163,162,Nordeste,NA,Mar da Frente,-6.365217000000000,-35.006211999999998,NA,NA,NA,NA,NA,1.000000000000000,1.000000000000000,1.000000000000000,1.000000000000000,1000.000000000000000,163,6283.185307179585834,3141592.653589793015271,17.977828910904080,114
164,163,Nordeste,NA,Lajinha,-6.278960000000000,-35.033028000000002,NA,NA,NA,NA,NA,1.000000000000000,1.000000000000000,1.000000000000000,1.000000000000000,1000.000000000000000,164,6283.185307179585834,3141592.653589793015271,8.983106672687549,53
165,164,Nordeste,NA,Afogados,-6.244350000000000,-35.036464000000002,NA,NA,NA,NA,NA,1.000000000000000,1.000000000000000,1.000000000000000,1.000000000000000,1000.000000000000000,165,6283.185307179585834,3141592.653589793015271,8.388780360609761,35
166,165,Nordeste,NA,Sororoca,-6.238074000000000,-35.035608000000003,NA,NA,NA,NA,NA,1.000000000000000,1.000000000000000,1.000000000000000,1.000000000000000,1000.000000000000000,166,6283.185307179585834,3141592.653589793015271,8.036816044246507,34
167,166,Nordeste,NA,Abacateiro,-6.233891000000000,-35.036746999999998,NA,NA,NA,NA,NA,1.000000000000000,1.000000000000000,1.000000000000000,1.000000000000000,1000.000000000000000,167,6283.185307179585834,3141592.653589793015271,9.760119093449301,60
168,167,Nordeste,NA,Tibau do Sul,-6.180279000000000,-35.089708999999999,NA,NA,NA,NA,NA,1.000000000000000,1.000000000000000,1.000000000000000,1.000000000000000,1000.000000000000000,168,6283.185307179585834,3141592.653589793015271,8.249413126569840,63
169,168,Nordeste,NA,Tabatinga,-6.049479000000000,-35.108238000000000,NA,NA,NA,NA,NA,1.000000000000000,1.000000000000000,1.000000000000000,1.000000000000000,1000.000000000000000,169,6283.185307179585834,3141592.653589793015271,7.808855610783438,31
170,169,Nordeste,NA,Xoxoline,-6.005800000000000,-35.105258999999997,NA,NA,NA,NA,NA,1.000000000000000,1.000000000000000,1.000000000000000,1.000000000000000,1000.000000000000000,170,6283.185307179585834,3141592.653589793015271,10.416494258029296,89
171,170,Nordeste,NA,Pirangi Reef,-5.980259000000000,-35.107796000000000,NA,NA,NA,NA,NA,1.000000000000000,1.000000000000000,1.000000000000000,1.000000000000000,1000.000000000000000,171,6283.185307179585834,3141592.653589793015271,0.000000000000000,0
172,171,Nordeste,NA,Cotovelo,-5.949906000000000,-35.151975000000000,NA,NA,NA,NA,NA,1.000000000000000,1.000000000000000,1.000000000000000,1.000000000000000,1000.000000000000000,172,6283.185307179585834,3141592.653589793015271,20.151894211066498,106
173,172,Nordeste,NA,Miami,-5.794834000000000,-35.181663999999998,NA,NA,NA,NA,NA,1.000000000000000,1.000000000000000,1.000000000000000,1.000000000000000,1000.000000000000000,173,6283.185307179585834,3141592.653589793015271,18.361571628847479,152
174,173,Nordeste,NA,Areia Preta,-5.792249000000000,-35.184387000000001,NA,NA,NA,NA,NA,1.000000000000000,1.000000000000000,1.000000000000000,1.000000000000000,1000.000000000000000,174,6283.185307179585834,3141592.653589793015271,24.888398626480239,190
175,174,Nordeste,NA,Praia dos Artistas,-5.781239000000000,-35.192050000000002,NA,NA,NA,NA,NA,1.000000000000000,1.000000000000000,1.000000000000000,1.000000000000000,1000.000000000000000,175,6283.185307179585834,3141592.653589793015271,46.782739614337224,494
176,175,Nordeste,NA,Genipabu,-5.694407000000000,-35.201922000000003,NA,NA,NA,NA,NA,1.000000000000000,1.000000000000000,1.000000000000000,1.000000000000000,1000.000000000000000,176,6283.185307179585834,3141592.653589793015271,9.235691634105830,63
177,176,Nordeste,NA,Touros Area,-5.197434000000000,-35.457929999999998,NA,NA,NA,NA,NA,1.000000000000000,1.000000000000000,1.000000000000000,1.000000000000000,1000.000000000000000,177,6283.185307179585834,3141592.653589793015271,20.815076985261719,163
178,177,Nordeste,NA,Urca da Concei&ccedil;&atilde;o,-5.069617000000000,-35.800230999999997,NA,NA,NA,NA,NA,1.000000000000000,1.000000000000000,1.000000000000000,1.000000000000000,1000.000000000000000,178,6283.185307179585834,3141592.653589793015271,0.528078285484789,3
179,178,Nordeste,NA,Cocoa das Lavadeiras,-5.066515000000000,-35.862005000000003,NA,NA,NA,NA,NA,1.000000000000000,1.000000000000000,1.000000000000000,1.000000000000000,1000.000000000000000,179,6283.185307179585834,3141592.653589793015271,0.028950365809309,1
180,179,Nordeste,NA,Baia das Ratas,-3.813000000000000,-32.393000000000001,NA,NA,NA,NA,NA,1.000000000000000,1.000000000000000,1.000000000000000,1.000000000000000,1000.000000000000000,180,6283.185307179585834,3141592.653589793015271,0.000000000000000,0
181,180,Nordeste,NA,Volta da Jurema,-3.724294000000000,-38.496071999999998,NA,NA,NA,NA,NA,1.000000000000000,1.000000000000000,1.000000000000000,1.000000000000000,1000.000000000000000,181,6283.185307179585834,3141592.653589793015271,49.701028473375011,503
182,181,Nordeste,NA,Portao,-3.719326000000000,-38.510655000000000,NA,NA,NA,NA,NA,1.000000000000000,1.000000000000000,1.000000000000000,1.000000000000000,1000.000000000000000,182,6283.185307179585834,3141592.653589793015271,35.697998526196265,363
183,182,Nordeste,NA,Barra do Ceara,-3.692659000000000,-38.584716000000000,NA,NA,NA,NA,NA,1.000000000000000,1.000000000000000,1.000000000000000,1.000000000000000,1000.000000000000000,183,6283.185307179585834,3141592.653589793015271,27.548397667720259,203
184,183,Nordeste,NA,Praia do Pecem,-3.546170000000000,-38.806919000000001,NA,NA,NA,NA,NA,1.000000000000000,1.000000000000000,1.000000000000000,1.000000000000000,1000.000000000000000,184,6283.185307179585834,3141592.653589793015271,16.828769785564667,87
185,184,Nordeste,NA,Tabinha,-3.500935000000000,-38.911282000000000,NA,NA,NA,NA,NA,1.000000000000000,1.000000000000000,1.000000000000000,1.000000000000000,1000.000000000000000,185,6283.185307179585834,3141592.653589793015271,16.904733648000061,72
186,185,Nordeste,NA,Pedra do Meio,-3.410858000000000,-39.040807000000001,NA,NA,NA,NA,NA,1.000000000000000,1.000000000000000,1.000000000000000,1.000000000000000,1000.000000000000000,186,6283.185307179585834,3141592.653589793015271,19.478920051055105,98
187,186,Nordeste,NA,Havaizinho,-3.403507000000000,-39.022171000000000,NA,NA,NA,NA,NA,1.000000000000000,1.000000000000000,1.000000000000000,1.000000000000000,1000.000000000000000,187,6283.185307179585834,3141592.653589793015271,11.298347690393134,69
188,187,Nordeste,NA,Curral,-3.403353000000000,-39.025868000000003,NA,NA,NA,NA,NA,1.000000000000000,1.000000000000000,1.000000000000000,1.000000000000000,1000.000000000000000,188,6283.185307179585834,3141592.653589793015271,14.538223980387615,101
189,188,Nordeste,NA,Outside,-3.398539000000000,-39.013306000000000,NA,NA,NA,NA,NA,1.000000000000000,1.000000000000000,1.000000000000000,1.000000000000000,1000.000000000000000,189,6283.185307179585834,3141592.653589793015271,7.501024798695563,21
190,189,Nordeste,NA,Atins,-2.555789000000000,-42.727836000000003,NA,NA,NA,NA,NA,1.000000000000000,1.000000000000000,1.000000000000000,1.000000000000000,1000.000000000000000,190,6283.185307179585834,3141592.653589793015271,0.000000000000000,0
191,190,Nordeste,NA,Ponta d'Areia,-2.497384000000000,-44.311779000000001,NA,NA,NA,NA,NA,1.000000000000000,1.000000000000000,1.000000000000000,1.000000000000000,1000.000000000000000,191,6283.185307179585834,3141592.653589793015271,24.300409662877755,168
192,191,Nordeste,NA,S&atilde;o Marcos,-2.485445000000000,-44.297899999999998,NA,NA,NA,NA,NA,1.000000000000000,1.000000000000000,1.000000000000000,1.000000000000000,1000.000000000000000,192,6283.185307179585834,3141592.653589793015271,18.600544239658596,131
193,192,Nordeste,NA,Calhau,-2.480673000000000,-44.249679999999998,NA,NA,NA,NA,NA,1.000000000000000,1.000000000000000,1.000000000000000,1.000000000000000,1000.000000000000000,193,6283.185307179585834,3141592.653589793015271,20.840083416777411,193
194,193,Nordeste,NA,Olho D'Agu,-2.477097000000000,-44.230155000000003,NA,NA,NA,NA,NA,1.000000000000000,1.000000000000000,1.000000000000000,1.000000000000000,1000.000000000000000,194,6283.185307179585834,3141592.653589793015271,18.134972512900255,116
195,194,Nordeste,NA,Ponta do Farol,-2.456442000000000,-44.173347999999997,NA,NA,NA,NA,NA,1.000000000000000,1.000000000000000,1.000000000000000,1.000000000000000,1000.000000000000000,195,6283.185307179585834,3141592.653589793015271,4.884283797229656,21
196,195,Sul,Rio Grande Do Sul,Hermenegildo,-33.668354000000001,-53.262405000000001,3,3,Right and left,Beach-break,All surfers,2.000000000000000,3.000000000000000,1.000000000000000,3.000000000000000,1000.000000000000000,196,6283.185307179585834,3141592.653589793015271,23.490799394485329,93
197,196,Sul,Rio Grande Do Sul,Navio,-32.290560999999997,-52.258674999999997,3,2,Right and left,Beach-break,All surfers,2.000000000000000,2.000000000000000,1.000000000000000,3.000000000000000,1000.000000000000000,197,6283.185307179585834,3141592.653589793015271,2.549862247359072,2
198,197,Sul,Rio Grande Do Sul,Tres Marias,-32.192610999999999,-52.085065999999998,5,2,Right and left,Sand-bar,Pros or kamikaze only...,2.000000000000000,2.000000000000000,0.000000000000000,5.000000000000000,1000.000000000000000,198,6283.185307179585834,3141592.653589793015271,0.000000000000000,0
199,198,Sul,Rio Grande Do Sul,Praia do Cassino,-32.178336999999999,-52.142142999999997,3,2,Right and left,Sand-bar,All surfers,2.000000000000000,2.000000000000000,1.000000000000000,3.000000000000000,1000.000000000000000,199,6283.185307179585834,3141592.653589793015271,22.316719884257509,56
200,199,Sul,Rio Grande Do Sul,Sao Jose do Norte,-32.008076000000003,-52.018889999999999,3,NA,Right and left,Beach-break,All surfers,2.000000000000000,1.000000000000000,1.000000000000000,3.000000000000000,1000.000000000000000,200,6283.185307179585834,3141592.653589793015271,6.922606668355875,19
201,200,Sul,Rio Grande Do Sul,Quintão,-30.410782000000001,-50.292664000000002,3.5,3,Right and left,Sand-bar,Experienced surfers,2.000000000000000,3.000000000000000,0.000000000000000,3.500000000000000,1000.000000000000000,201,6283.185307179585834,3141592.653589793015271,1.727306540579000,1
202,201,Sul,Rio Grande Do Sul,Nova Tramandaí,-30.045256999999999,-50.150033999999998,3,3,Right and left,Beach-break,All surfers,2.000000000000000,3.000000000000000,1.000000000000000,3.000000000000000,1000.000000000000000,202,6283.185307179585834,3141592.653589793015271,30.781531045228256,63
203,202,Sul,Rio Grande Do Sul,Oasis Sul,-30.039822999999998,-50.147266000000002,3,3,Right and left,Beach-break,All surfers,2.000000000000000,3.000000000000000,1.000000000000000,3.000000000000000,1000.000000000000000,203,6283.185307179585834,3141592.653589793015271,28.549190610885795,61
204,203,Sul,Rio Grande Do Sul,Tramandai - Malvina,-30.005490000000002,-50.129156000000002,3.5,3,Right and left,Beach-break,All surfers,2.000000000000000,3.000000000000000,1.000000000000000,3.500000000000000,1000.000000000000000,204,6283.185307179585834,3141592.653589793015271,18.608982571589561,47
205,204,Sul,Rio Grande Do Sul,Tramandai,-29.993077000000000,-50.125508000000004,3,3,Right and left,Beach-break,All surfers,2.000000000000000,3.000000000000000,1.000000000000000,3.000000000000000,1000.000000000000000,205,6283.185307179585834,3141592.653589793015271,21.714954618164885,65
206,205,Sul,Rio Grande Do Sul,Rainha do Mar,-29.859477999999999,-50.064568999999999,3.5,5,Right and left,Beach-break,All surfers,2.000000000000000,5.000000000000000,1.000000000000000,3.500000000000000,1000.000000000000000,206,6283.185307179585834,3141592.653589793015271,28.386132078589736,82
207,206,Sul,Rio Grande Do Sul,Xangri-lá,-29.785982000000001,-50.024636000000001,3,3,Right and left,Beach-break,All surfers,2.000000000000000,3.000000000000000,1.000000000000000,3.000000000000000,1000.000000000000000,207,6283.185307179585834,3141592.653589793015271,21.428174078868523,103
208,207,Sul,Rio Grande Do Sul,Atlântida - Pier,-29.784716000000000,-50.022554000000000,3,3,Right and left,Sand-bar,All surfers,2.000000000000000,3.000000000000000,1.000000000000000,3.000000000000000,1000.000000000000000,208,6283.185307179585834,3141592.653589793015271,16.894181928133584,78
209,208,Sul,Rio Grande Do Sul,Capao da Canoa,-29.758676999999999,-50.010967000000001,3,3,Right and left,Sand-bar,All surfers,2.000000000000000,3.000000000000000,1.000000000000000,3.000000000000000,1000.000000000000000,209,6283.185307179585834,3141592.653589793015271,28.847094296936657,115
210,209,Sul,Rio Grande Do Sul,Capao Novo,-29.686972000000001,-49.972558999999997,3,3,Right and left,Beach-break,All surfers,2.000000000000000,3.000000000000000,1.000000000000000,3.000000000000000,1000.000000000000000,210,6283.185307179585834,3141592.653589793015271,26.787023853577441,89
211,210,Sul,Rio Grande Do Sul,Curumim,-29.625605000000000,-49.935744999999997,3,4,Right and left,Beach-break,Experienced surfers,2.000000000000000,4.000000000000000,0.000000000000000,3.000000000000000,1000.000000000000000,211,6283.185307179585834,3141592.653589793015271,27.374412890740917,148
212,211,Sul,Rio Grande Do Sul,Itapeva,-29.372975000000000,-49.784109999999998,3,3,Right and left,Beach-break,All surfers,2.000000000000000,3.000000000000000,1.000000000000000,3.000000000000000,1000.000000000000000,212,6283.185307179585834,3141592.653589793015271,5.000024917174958,13
213,212,Sul,Rio Grande Do Sul,Guarita,-29.357804999999999,-49.733997000000002,3,2,Right and left,Beach-break,All surfers,2.000000000000000,2.000000000000000,1.000000000000000,3.000000000000000,1000.000000000000000,213,6283.185307179585834,3141592.653589793015271,18.479718037209171,117
214,213,Sul,Rio Grande Do Sul,Cal,-29.349421000000000,-49.729849999999999,3.5,3,Right and left,Beach-break,All surfers,2.000000000000000,3.000000000000000,1.000000000000000,3.500000000000000,1000.000000000000000,214,6283.185307179585834,3141592.653589793015271,25.027566038600213,162
215,214,Sul,Rio Grande Do Sul,Ilha dos Lobos,-29.346876999999999,-49.704411999999998,5,2,Left,Reef-rocky,Pros or kamikaze only...,1.000000000000000,2.000000000000000,0.000000000000000,5.000000000000000,1000.000000000000000,215,6283.185307179585834,3141592.653589793015271,0.000000000000000,0
216,215,Sul,Rio Grande Do Sul,Prainha,-29.342434999999998,-49.724497000000000,3.5,3,Right and left,Beach-break,Experienced surfers,2.000000000000000,3.000000000000000,0.000000000000000,3.500000000000000,1000.000000000000000,216,6283.185307179585834,3141592.653589793015271,28.451600953365208,280
217,216,Sul,Rio Grande Do Sul,Saraiva,-29.340395999999998,-49.723241000000002,3.5,3,Right and left,Beach-break,Experienced surfers,2.000000000000000,3.000000000000000,0.000000000000000,3.500000000000000,1000.000000000000000,217,6283.185307179585834,3141592.653589793015271,30.858343987218415,275
218,217,Sul,Rio Grande Do Sul,Molhes,-29.327311000000002,-49.712007999999997,3.5,3,Right and left,Beach-break,All surfers,2.000000000000000,3.000000000000000,1.000000000000000,3.500000000000000,1000.000000000000000,218,6283.185307179585834,3141592.653589793015271,14.309210983238014,90
219,218,Sul,Rio Grande Do Sul,Passo de Torres,-29.324159000000002,-49.712415999999997,3.5,2,Right and left,Rivermouth,Experienced surfers,2.000000000000000,2.000000000000000,0.000000000000000,3.500000000000000,1000.000000000000000,219,6283.185307179585834,3141592.653589793015271,16.247956837014804,104
220,219,Sul,Santa Catarina South,Gaivota,-29.164828000000000,-49.582157000000002,3,2,Right and left,Beach-break,Experienced surfers,2.000000000000000,2.000000000000000,0.000000000000000,3.000000000000000,1000.000000000000000,220,6283.185307179585834,3141592.653589793015271,35.763905774481891,91
221,220,Sul,Santa Catarina South,Arroio do Silva,-28.943866000000000,-49.385604999999998,3.5,2,Right and left,Beach-break,Experienced surfers,2.000000000000000,2.000000000000000,0.000000000000000,3.500000000000000,1000.000000000000000,221,6283.185307179585834,3141592.653589793015271,8.087282870865540,33
222,221,Sul,Santa Catarina South,Morro dos Conventos,-28.937256000000001,-49.329642999999997,3.5,3,Right and left,Beach-break,All surfers,2.000000000000000,3.000000000000000,1.000000000000000,3.500000000000000,1000.000000000000000,222,6283.185307179585834,3141592.653589793015271,0.000000000000000,0
223,222,Sul,Santa Catarina South,Rincão,-28.833846999999999,-49.216003000000001,3.5,4,Right and left,Beach-break,Experienced surfers,2.000000000000000,4.000000000000000,0.000000000000000,3.500000000000000,1000.000000000000000,223,6283.185307179585834,3141592.653589793015271,0.809349914640294,3
224,223,Sul,Santa Catarina South,Jaguaruna,-28.635157000000000,-48.948211999999998,3.5,3,Right and left,Beach-break,All surfers,2.000000000000000,3.000000000000000,1.000000000000000,3.500000000000000,1000.000000000000000,224,6283.185307179585834,3141592.653589793015271,3.778830519210006,8
225,224,Sul,Santa Catarina South,Camacho,-28.615946000000001,-48.859506000000003,3,2,NA,Beach-break,All surfers,1.000000000000000,2.000000000000000,1.000000000000000,3.000000000000000,1000.000000000000000,225,6283.185307179585834,3141592.653589793015271,14.235626872179926,58
226,225,Sul,Santa Catarina South,Cigana,-28.613534999999999,-48.845387000000002,3,3,Right and left,Beach-break,Experienced surfers,2.000000000000000,3.000000000000000,0.000000000000000,3.000000000000000,1000.000000000000000,226,6283.185307179585834,3141592.653589793015271,2.320606759448328,3
227,226,Sul,Santa Catarina South,Cardozo,-28.607516000000000,-48.822994999999999,3.5,4,Right and left,Beach-break,All surfers,2.000000000000000,4.000000000000000,1.000000000000000,3.500000000000000,1000.000000000000000,227,6283.185307179585834,3141592.653589793015271,13.009361206720442,83
228,227,Sul,Santa Catarina South,Cemiterio,-28.604341999999999,-48.811998000000003,5,1,Right,Point-break,Pros or kamikaze only...,1.000000000000000,1.000000000000000,0.000000000000000,5.000000000000000,1000.000000000000000,228,6283.185307179585834,3141592.653589793015271,10.623369899442020,83
229,228,Sul,Santa Catarina South,Prainha do Farol,-28.600442000000001,-48.816654999999997,3,1,Right,Beach-break,All surfers,1.000000000000000,1.000000000000000,1.000000000000000,3.000000000000000,1000.000000000000000,229,6283.185307179585834,3141592.653589793015271,15.961092573024896,104
230,229,Sul,Santa Catarina South,Ipoa,-28.536688999999999,-48.765521000000000,3,4,Right and left,Beach-break,All surfers,2.000000000000000,4.000000000000000,1.000000000000000,3.000000000000000,1000.000000000000000,230,6283.185307179585834,3141592.653589793015271,3.320354687076049,14
231,230,Sul,Santa Catarina South,Teresa,-28.524982000000001,-48.762453000000001,3,3,Right and left,Beach-break,All surfers,2.000000000000000,3.000000000000000,1.000000000000000,3.000000000000000,1000.000000000000000,231,6283.185307179585834,3141592.653589793015271,4.900124240465698,18
232,231,Sul,Santa Catarina South,Praia de Cima,-28.497350000000001,-48.748752000000003,3.5,2,Right and left,Beach-break,All surfers,2.000000000000000,2.000000000000000,1.000000000000000,3.500000000000000,1000.000000000000000,232,6283.185307179585834,3141592.653589793015271,5.522300000121833,21
233,232,Sul,Santa Catarina South,Laguna,-28.473973000000001,-48.762645999999997,3.5,3,Right and left,Beach-break,All surfers,2.000000000000000,3.000000000000000,1.000000000000000,3.500000000000000,1000.000000000000000,233,6283.185307179585834,3141592.653589793015271,8.799432056204584,46
234,233,Sul,Santa Catarina South,Cavalinho,-28.419032000000001,-48.744278000000001,3.5,3,Right,Point-break,Experienced surfers,1.000000000000000,3.000000000000000,0.000000000000000,3.500000000000000,1000.000000000000000,234,6283.185307179585834,3141592.653589793015271,10.219101826204431,64
235,234,Sul,Santa Catarina South,Itapirubá,-28.342309000000000,-48.707799999999999,3.5,4,Right and left,Beach-break,All surfers,2.000000000000000,4.000000000000000,1.000000000000000,3.500000000000000,1000.000000000000000,235,6283.185307179585834,3141592.653589793015271,18.277420747807685,67
236,235,Sul,Santa Catarina South,Itapirubá Norte,-28.336776000000000,-48.704709999999999,3.5,3,Right and left,Beach-break,All surfers,2.000000000000000,3.000000000000000,1.000000000000000,3.500000000000000,1000.000000000000000,236,6283.185307179585834,3141592.653589793015271,16.316081446133786,59
237,236,Sul,Santa Catarina South,Castelinho,-28.256232000000001,-48.672694999999997,4,4,Right and left,Beach-break,Experienced surfers,2.000000000000000,4.000000000000000,0.000000000000000,4.000000000000000,1000.000000000000000,237,6283.185307179585834,3141592.653589793015271,0.899440412577587,11
238,237,Sul,Santa Catarina South,Praia da Vila,-28.241149000000000,-48.653877000000001,4,4,Right and left,Sand-bar,Experienced surfers,2.000000000000000,4.000000000000000,0.000000000000000,4.000000000000000,1000.000000000000000,238,6283.185307179585834,3141592.653589793015271,14.072330652664260,85
239,238,Sul,Santa Catarina South,Ribanceira,-28.191742000000001,-48.661344000000000,3,2,Right and left,Sand-bar,All surfers,2.000000000000000,2.000000000000000,1.000000000000000,3.000000000000000,1000.000000000000000,239,6283.185307179585834,3141592.653589793015271,12.375685225120291,51
240,239,Sul,Santa Catarina South,Ibiraquera,-28.153732000000002,-48.645895000000003,4,4,Right and left,Point-break,Experienced surfers,2.000000000000000,4.000000000000000,0.000000000000000,4.000000000000000,1000.000000000000000,240,6283.185307179585834,3141592.653589793015271,5.303413285124258,38
241,240,Sul,Santa Catarina South,Rosa Sul,-28.135401999999999,-48.642691999999997,3.5,4,Right and left,Beach-break,All surfers,2.000000000000000,4.000000000000000,1.000000000000000,3.500000000000000,1000.000000000000000,241,6283.185307179585834,3141592.653589793015271,14.454841633798594,73
242,241,Sul,Santa Catarina South,Rosa Norte,-28.124375000000001,-48.637675999999999,3.5,2,Right and left,Beach-break,All surfers,2.000000000000000,2.000000000000000,1.000000000000000,3.500000000000000,1000.000000000000000,242,6283.185307179585834,3141592.653589793015271,13.780363610970245,53
243,242,Sul,Santa Catarina South,Vermelha,-28.114457999999999,-48.635573000000001,3.5,2,Left,Beach-break,Experienced surfers,1.000000000000000,2.000000000000000,0.000000000000000,3.500000000000000,1000.000000000000000,243,6283.185307179585834,3141592.653589793015271,10.497733359961094,27
244,243,Sul,Santa Catarina South,Ouvidor,-28.105449000000000,-48.635272999999998,2,2,Right and left,Beach-break,Beginners wave,2.000000000000000,2.000000000000000,0.000000000000000,2.000000000000000,1000.000000000000000,244,6283.185307179585834,3141592.653589793015271,6.692311416006477,21
245,244,Sul,Santa Catarina South,Barrinha,-28.085384000000001,-48.630896000000000,3.5,3,Right and left,Beach-break,NA,2.000000000000000,3.000000000000000,1.000000000000000,3.500000000000000,1000.000000000000000,245,6283.185307179585834,3141592.653589793015271,14.295931802396062,75
246,245,Sul,Santa Catarina South,Ferrugem,-28.077736000000002,-48.626604000000000,3.5,4,Right and left,Sand-bar,All surfers,2.000000000000000,4.000000000000000,1.000000000000000,3.500000000000000,1000.000000000000000,246,6283.185307179585834,3141592.653589793015271,13.565647162506099,78
247,246,Sul,Santa Catarina South,Praia do Silveira,-28.039069000000001,-48.606862999999997,4,4,Right,Point-break,Pros or kamikaze only...,1.000000000000000,4.000000000000000,0.000000000000000,4.000000000000000,1000.000000000000000,247,6283.185307179585834,3141592.653589793015271,10.646036535348790,57
248,247,Sul,Santa Catarina South,Garopaba Centro,-28.021577000000001,-48.619447999999998,3,2,Right and left,Beach-break,All surfers,2.000000000000000,2.000000000000000,1.000000000000000,3.000000000000000,1000.000000000000000,248,6283.185307179585834,3141592.653589793015271,25.536792629849447,181
249,248,Sul,Santa Catarina South,Siriu,-27.976248999999999,-48.627999000000003,3.5,3,Right and left,Beach-break,All surfers,2.000000000000000,3.000000000000000,1.000000000000000,3.500000000000000,1000.000000000000000,249,6283.185307179585834,3141592.653589793015271,7.567337002234708,41
250,249,Sul,Santa Catarina South,Gamboa,-27.958926999999999,-48.624662000000001,3.5,1,Right and left,Beach-break,All surfers,2.000000000000000,1.000000000000000,1.000000000000000,3.500000000000000,1000.000000000000000,250,6283.185307179585834,3141592.653589793015271,16.095355876692395,87
251,250,Sul,Santa Catarina South,Guarda do embau,-27.905540999999999,-48.586779000000000,4,3,Left,Rivermouth,Experienced surfers,1.000000000000000,3.000000000000000,0.000000000000000,4.000000000000000,1000.000000000000000,251,6283.185307179585834,3141592.653589793015271,8.972930455373959,54
252,251,Sul,Santa Catarina South,Costão da Pinheira,-27.881077000000001,-48.586542999999999,3.5,1,Right,Point-break,Experienced surfers,1.000000000000000,1.000000000000000,0.000000000000000,3.500000000000000,1000.000000000000000,252,6283.185307179585834,3141592.653589793015271,13.803986166443645,94
253,252,Sul,Florianopolis,Naufragados,-27.834740000000000,-48.566747999999997,5,3,Right,Beach-break,Pros or kamikaze only...,1.000000000000000,3.000000000000000,0.000000000000000,5.000000000000000,1000.000000000000000,253,6283.185307179585834,3141592.653589793015271,6.191505271944464,19
254,253,Sul,Santa Catarina South,Solidao - Caladinho,-27.793519000000000,-48.533456000000001,3.5,3,Right,Point-break,Experienced surfers,1.000000000000000,3.000000000000000,0.000000000000000,3.500000000000000,1000.000000000000000,254,6283.185307179585834,3141592.653589793015271,5.883138324765847,33
255,254,Sul,Santa Catarina South,Praia dos Açores,-27.784758000000000,-48.525989000000003,3,3,Right and left,Beach-break,All surfers,2.000000000000000,3.000000000000000,1.000000000000000,3.000000000000000,1000.000000000000000,255,6283.185307179585834,3141592.653589793015271,18.811032379352124,104
256,255,Sul,Florianopolis,Lagoinha do Leste,-27.773575999999998,-48.486528000000000,3.5,4,Right and left,Beach-break,All surfers,2.000000000000000,4.000000000000000,1.000000000000000,3.500000000000000,1000.000000000000000,256,6283.185307179585834,3141592.653589793015271,2.593688757681391,6
257,256,Sul,Florianopolis,Matadeiro,-27.755140000000001,-48.498522999999999,3.5,4,Right and left,Beach-break,Experienced surfers,2.000000000000000,4.000000000000000,0.000000000000000,3.500000000000000,1000.000000000000000,257,6283.185307179585834,3141592.653589793015271,5.862000833950727,41
258,257,Sul,Florianopolis,Armação,-27.741619000000000,-48.508114999999997,3,2,Right and left,Beach-break,All surfers,2.000000000000000,2.000000000000000,1.000000000000000,3.000000000000000,1000.000000000000000,258,6283.185307179585834,3141592.653589793015271,13.313049716775160,93
259,258,Sul,Florianopolis,Caldeirao,-27.723690000000001,-48.504595999999999,3.5,3,Left,Beach-break,Experienced surfers,1.000000000000000,3.000000000000000,0.000000000000000,3.500000000000000,1000.000000000000000,259,6283.185307179585834,3141592.653589793015271,8.316463821817534,53
260,259,Sul,Florianopolis,Morro das Pedras,-27.715522000000000,-48.502257000000000,3,4,Right and left,Sand-bar,Experienced surfers,2.000000000000000,4.000000000000000,0.000000000000000,3.000000000000000,1000.000000000000000,260,6283.185307179585834,3141592.653589793015271,14.166710948780679,114
261,260,Sul,Florianopolis,Campeche Rights,-27.693864000000001,-48.482686999999999,4,2,Right,Sand-bar,Experienced surfers,1.000000000000000,2.000000000000000,0.000000000000000,4.000000000000000,1000.000000000000000,261,6283.185307179585834,3141592.653589793015271,14.180900119901850,111
262,261,Sul,Florianopolis,Riozinho,-27.685523000000000,-48.479598000000003,5,3,Right and left,Beach-break,Experienced surfers,2.000000000000000,3.000000000000000,0.000000000000000,5.000000000000000,1000.000000000000000,262,6283.185307179585834,3141592.653589793015271,19.230171281302457,136
263,262,Sul,Florianopolis,Joaquina,-27.629588999999999,-48.448768000000001,4,4,Left,Sand-bar,Experienced surfers,1.000000000000000,4.000000000000000,0.000000000000000,4.000000000000000,1000.000000000000000,263,6283.185307179585834,3141592.653589793015271,7.094237403439287,40
264,263,Sul,Florianopolis,Praia Mole,-27.602475999999999,-48.432583999999999,3.5,3,Right and left,Sand-bar,All surfers,2.000000000000000,3.000000000000000,1.000000000000000,3.500000000000000,1000.000000000000000,264,6283.185307179585834,3141592.653589793015271,8.694223061236587,52
265,264,Sul,Florianopolis,Galheta,-27.593482000000002,-48.425224000000000,3.5,4,Right and left,Beach-break,All surfers,2.000000000000000,4.000000000000000,1.000000000000000,3.500000000000000,1000.000000000000000,265,6283.185307179585834,3141592.653589793015271,4.734754199657269,19
266,265,Sul,Florianopolis,Barra da Lagoa,-27.572818000000002,-48.424376000000002,3,3,Right and left,Beach-break,Beginners wave,2.000000000000000,3.000000000000000,0.000000000000000,3.000000000000000,1000.000000000000000,266,6283.185307179585834,3141592.653589793015271,19.066254941346770,139
267,266,Sul,Florianopolis,Mocambique,-27.525323000000000,-48.410567999999998,3.5,4,Right and left,Beach-break,All surfers,2.000000000000000,4.000000000000000,1.000000000000000,3.500000000000000,1000.000000000000000,267,6283.185307179585834,3141592.653589793015271,1.018587632335615,2
268,267,Sul,Santa Catarina South,Ponta das Aranhas,-27.482099999999999,-48.380892000000003,3.5,4,Right and left,Beach-break,All surfers,2.000000000000000,4.000000000000000,1.000000000000000,3.500000000000000,1000.000000000000000,268,6283.185307179585834,3141592.653589793015271,4.620318614919169,9
269,268,Sul,Florianopolis,Santinho,-27.457940000000001,-48.372630999999998,3.5,4,Right and left,Beach-break,Experienced surfers,2.000000000000000,4.000000000000000,0.000000000000000,3.500000000000000,1000.000000000000000,269,6283.185307179585834,3141592.653589793015271,10.086999293498575,77
270,269,Sul,Florianopolis,Canasvieiras,-27.430966000000002,-48.479661999999998,3.5,1,Right,Sand-bar,All surfers,1.000000000000000,1.000000000000000,1.000000000000000,3.500000000000000,1000.000000000000000,270,6283.185307179585834,3141592.653589793015271,9.438319711447182,81
271,270,Sul,Florianopolis,Praia do Forte,-27.430747000000000,-48.519658999999997,3.5,1,Right,Point-break,All surfers,1.000000000000000,1.000000000000000,1.000000000000000,3.500000000000000,1000.000000000000000,271,6283.185307179585834,3141592.653589793015271,7.037675231121503,58
272,271,Sul,Florianopolis,Ingleses,-27.429832999999999,-48.390569999999997,3,2,Right and left,Beach-break,All surfers,2.000000000000000,2.000000000000000,1.000000000000000,3.000000000000000,1000.000000000000000,272,6283.185307179585834,3141592.653589793015271,9.839636031623218,107
273,272,Sul,Florianopolis,Praia Brava,-27.400804000000001,-48.413401000000000,3.5,3,Right and left,Beach-break,Experienced surfers,2.000000000000000,3.000000000000000,0.000000000000000,3.500000000000000,1000.000000000000000,273,6283.185307179585834,3141592.653589793015271,12.044490774152571,76
274,273,Sul,Santa Catarina South,Praia Brava,-27.396440999999999,-48.414130000000000,3,4,Right and left,Sand-bar,All surfers,2.000000000000000,4.000000000000000,1.000000000000000,3.000000000000000,1000.000000000000000,274,6283.185307179585834,3141592.653589793015271,12.488861651317395,77
275,274,Sul,Florianopolis,Lambe lambe,-27.387601000000000,-48.433185000000002,4,1,Right,Point-break,Experienced surfers,1.000000000000000,1.000000000000000,0.000000000000000,4.000000000000000,1000.000000000000000,275,6283.185307179585834,3141592.653589793015271,6.329126304101180,38
276,275,Sul,Florianopolis,Ponta Do Rapa,-27.380837000000000,-48.420524999999998,4,1,Right,Reef-rocky,Pros or kamikaze only...,1.000000000000000,1.000000000000000,0.000000000000000,4.000000000000000,1000.000000000000000,276,6283.185307179585834,3141592.653589793015271,1.966896095866292,4
277,276,Sul,Santa Catarina North,Tingua,-27.368165999999999,-48.532501000000003,3.5,1,Left,Beach-break,Experienced surfers,1.000000000000000,1.000000000000000,0.000000000000000,3.500000000000000,1000.000000000000000,277,6283.185307179585834,3141592.653589793015271,10.380965411535326,38
278,277,Sul,Santa Catarina North,Palmas,-27.321984000000000,-48.535451999999999,3.5,2,Right and left,Beach-break,Experienced surfers,2.000000000000000,2.000000000000000,0.000000000000000,3.500000000000000,1000.000000000000000,278,6283.185307179585834,3141592.653589793015271,14.348641978704435,88
279,278,Sul,Santa Catarina North,Mariscal,-27.166504000000000,-48.494833000000000,3.5,3,Right and left,Beach-break,All surfers,2.000000000000000,3.000000000000000,1.000000000000000,3.500000000000000,1000.000000000000000,279,6283.185307179585834,3141592.653589793015271,9.598011853141184,75
280,279,Sul,Santa Catarina North,Quatro Ilhas,-27.156195000000000,-48.482923999999997,3.5,3,Right,Point-break,Experienced surfers,1.000000000000000,3.000000000000000,0.000000000000000,3.500000000000000,1000.000000000000000,280,6283.185307179585834,3141592.653589793015271,22.928209092686249,126
281,280,Sul,Santa Catarina North,Bombinhas,-27.148367000000000,-48.489531999999997,2,2,Right and left,Beach-break,Beginners wave,2.000000000000000,2.000000000000000,0.000000000000000,2.000000000000000,1000.000000000000000,281,6283.185307179585834,3141592.653589793015271,28.796764687737625,186
282,281,Sul,Santa Catarina North,Bombas,-27.140118000000001,-48.506784000000003,3,2,Right and left,Beach-break,All surfers,2.000000000000000,2.000000000000000,1.000000000000000,3.000000000000000,1000.000000000000000,282,6283.185307179585834,3141592.653589793015271,25.729030932173583,157
283,282,Sul,Santa Catarina North,Meia Praia,-27.104825000000002,-48.609009000000000,3,3,Right and left,Sand-bar,All surfers,2.000000000000000,3.000000000000000,1.000000000000000,3.000000000000000,1000.000000000000000,283,6283.185307179585834,3141592.653589793015271,15.742413275994384,114
284,283,Sul,Santa Catarina North,Itapema,-27.095541000000001,-48.609738000000000,3,3,Right and left,Beach-break,All surfers,2.000000000000000,3.000000000000000,1.000000000000000,3.000000000000000,1000.000000000000000,284,6283.185307179585834,3141592.653589793015271,29.165668769822936,244
285,284,Sul,Santa Catarina North,Ponta do Cabeço,-27.093436000000001,-48.601959999999998,4,2,Left,Reef-rocky,Experienced surfers,1.000000000000000,2.000000000000000,0.000000000000000,4.000000000000000,1000.000000000000000,285,6283.185307179585834,3141592.653589793015271,8.936237771954341,57
286,285,Sul,Santa Catarina North,Mocó,-27.080182000000001,-48.588451999999997,4,2,Left,Reef-rocky,Experienced surfers,1.000000000000000,2.000000000000000,0.000000000000000,4.000000000000000,1000.000000000000000,286,6283.185307179585834,3141592.653589793015271,3.984592938442688,15
287,286,Sul,Santa Catarina North,Estaleirinho,-27.049112000000001,-48.586779000000000,3,4,Right and left,Beach-break,Pros or kamikaze only...,2.000000000000000,4.000000000000000,0.000000000000000,3.000000000000000,1000.000000000000000,287,6283.185307179585834,3141592.653589793015271,8.927351807994292,40
288,287,Sul,Santa Catarina North,Estaleiro (reef),-27.025050000000000,-48.574064999999997,3.5,2,Left,Reef-rocky,Experienced surfers,1.000000000000000,2.000000000000000,0.000000000000000,3.500000000000000,1000.000000000000000,288,6283.185307179585834,3141592.653589793015271,3.600853919045082,15
289,288,Sul,Santa Catarina North,Balneário Camboriú,-26.987711999999998,-48.629950999999998,3,3,Right and left,Beach-break,All surfers,2.000000000000000,3.000000000000000,1.000000000000000,3.000000000000000,1000.000000000000000,289,6283.185307179585834,3141592.653589793015271,27.267977031407781,189
290,289,Sul,Santa Catarina North,Parcel,-26.976469000000002,-48.623170999999999,4,1,Right and left,Reef-rocky,Pros or kamikaze only...,2.000000000000000,1.000000000000000,0.000000000000000,4.000000000000000,1000.000000000000000,290,6283.185307179585834,3141592.653589793015271,0.610611174699080,4
291,290,Sul,Santa Catarina North,Praia dos Amores,-26.957191000000002,-48.629221999999999,3,2,Right and left,Beach-break,Experienced surfers,2.000000000000000,2.000000000000000,0.000000000000000,3.000000000000000,1000.000000000000000,291,6283.185307179585834,3141592.653589793015271,18.227234029358403,121
292,291,Sul,Santa Catarina North,Praia Brava,-26.941659999999999,-48.628234999999997,3,3,Right and left,Beach-break,Experienced surfers,2.000000000000000,3.000000000000000,0.000000000000000,3.000000000000000,1000.000000000000000,292,6283.185307179585834,3141592.653589793015271,11.520859505529490,72
293,292,Sul,Santa Catarina North,Morcego,-26.931052000000001,-48.625214999999997,3.5,NA,Left,Point-break,Pros or kamikaze only...,1.000000000000000,1.000000000000000,0.000000000000000,3.500000000000000,1000.000000000000000,293,6283.185307179585834,3141592.653589793015271,6.954625234228745,50
294,293,Sul,Santa Catarina North,Atalaia,-26.915163000000000,-48.639361000000001,3.5,2,Left,breakwater/jetty,All surfers,1.000000000000000,2.000000000000000,1.000000000000000,3.500000000000000,1000.000000000000000,294,6283.185307179585834,3141592.653589793015271,7.771214605990219,47
295,294,Sul,Santa Catarina North,Pracinha,-26.901883999999999,-48.641613999999997,3.5,4,Right and left,Beach-break,All surfers,2.000000000000000,4.000000000000000,1.000000000000000,3.500000000000000,1000.000000000000000,295,6283.185307179585834,3141592.653589793015271,20.575974938187496,131
296,295,Sul,Santa Catarina North,Navegantes,-26.897577999999999,-48.638705999999999,3.5,3,Right and left,Beach-break,All surfers,2.000000000000000,3.000000000000000,1.000000000000000,3.500000000000000,1000.000000000000000,296,6283.185307179585834,3141592.653589793015271,13.082111294766754,68
297,296,Sul,Santa Catarina North,Garrincha,-26.858702999999998,-48.634619000000001,3,2,Right and left,Sand-bar,Experienced surfers,2.000000000000000,2.000000000000000,0.000000000000000,3.000000000000000,1000.000000000000000,297,6283.185307179585834,3141592.653589793015271,14.993964951570625,59
298,297,Sul,Santa Catarina North,Gravatá (1 e 2),-26.831883000000001,-48.621969000000000,3,3,Right and left,Beach-break,All surfers,2.000000000000000,3.000000000000000,1.000000000000000,3.000000000000000,1000.000000000000000,298,6283.185307179585834,3141592.653589793015271,19.203825745838255,87
299,298,Sul,Santa Catarina North,Gravatá,-26.831730000000000,-48.623427999999997,3,3,Right and left,Beach-break,All surfers,2.000000000000000,3.000000000000000,1.000000000000000,3.000000000000000,1000.000000000000000,299,6283.185307179585834,3141592.653589793015271,25.541607906781206,100
300,299,Sul,Santa Catarina North,Quilombo,-26.766992999999999,-48.639414000000002,3.5,2,Left,Beach-break,All surfers,1.000000000000000,2.000000000000000,1.000000000000000,3.500000000000000,1000.000000000000000,300,6283.185307179585834,3141592.653589793015271,14.637430328128461,77
301,300,Sul,Santa Catarina North,Quilombo (reef),-26.765743000000001,-48.640143999999999,3.5,2,Right,Point-break,All surfers,1.000000000000000,2.000000000000000,1.000000000000000,3.500000000000000,1000.000000000000000,301,6283.185307179585834,3141592.653589793015271,12.677077407496084,73
302,301,Sul,Santa Catarina North,molhe de Piçarras,-26.757026000000000,-48.673434999999998,3,1,Right,Point-break,All surfers,1.000000000000000,1.000000000000000,1.000000000000000,3.000000000000000,1000.000000000000000,302,6283.185307179585834,3141592.653589793015271,21.746024297714964,100
303,302,Sul,Santa Catarina North,Laje do Jacques,-26.726915999999999,-48.673060000000000,4,2,Right and left,Reef-rocky,Experienced surfers,2.000000000000000,2.000000000000000,0.000000000000000,4.000000000000000,1000.000000000000000,303,6283.185307179585834,3141592.653589793015271,0.863990629121922,9
304,303,Sul,Santa Catarina North,Syphodys,-26.701371000000002,-48.680247999999999,3,2,Right and left,Beach-break,Experienced surfers,2.000000000000000,2.000000000000000,0.000000000000000,3.000000000000000,1000.000000000000000,304,6283.185307179585834,3141592.653589793015271,21.404543249638088,139
305,304,Sul,Santa Catarina North,ilha do grants,-26.696031999999999,-48.674990999999999,3.5,1,Left,Reef-rocky,Pros or kamikaze only...,1.000000000000000,1.000000000000000,0.000000000000000,3.500000000000000,1000.000000000000000,305,6283.185307179585834,3141592.653589793015271,4.118060787131648,38
306,305,Sul,Santa Catarina North,barra de Itajuba,-26.691344999999998,-48.684164000000003,3,1,Right,Point-break,All surfers,1.000000000000000,1.000000000000000,1.000000000000000,3.000000000000000,1000.000000000000000,306,6283.185307179585834,3141592.653589793015271,15.831737918706857,116
307,306,Sul,Santa Catarina North,Praia do Sol,-26.679962000000000,-48.688166000000002,2,3,Right and left,Point-break,All surfers,2.000000000000000,3.000000000000000,1.000000000000000,2.000000000000000,1000.000000000000000,307,6283.185307179585834,3141592.653589793015271,20.370652226959983,112
308,307,Sul,Santa Catarina North,Praia do Tabuleiro,-26.643014000000001,-48.682051000000001,3,2,Right and left,Beach-break,Beginners wave,2.000000000000000,2.000000000000000,0.000000000000000,3.000000000000000,1000.000000000000000,308,6283.185307179585834,3141592.653589793015271,28.876675924392394,177
309,308,Sul,Santa Catarina North,Canoas,-26.639403000000001,-48.682501000000002,2,3,Right and left,Beach-break,Beginners wave,2.000000000000000,3.000000000000000,0.000000000000000,2.000000000000000,1000.000000000000000,309,6283.185307179585834,3141592.653589793015271,31.776929212209495,211
310,309,Sul,Santa Catarina North,Barrinha,-26.623905000000001,-48.679991000000001,3.5,3,Right and left,Beach-break,All surfers,2.000000000000000,3.000000000000000,1.000000000000000,3.500000000000000,1000.000000000000000,310,6283.185307179585834,3141592.653589793015271,20.303313023915209,80
311,310,Sul,Santa Catarina North,Foz do Itapocu,-26.580708000000001,-48.663769000000002,3,3,Left,breakwater/jetty,All surfers,1.000000000000000,3.000000000000000,1.000000000000000,3.000000000000000,1000.000000000000000,311,6283.185307179585834,3141592.653589793015271,2.647535479690261,17
312,311,Sul,Santa Catarina South,Foz do Itapocu,-26.566918999999999,-48.657525000000000,3.5,4,Right and left,Beach-break,All surfers,2.000000000000000,4.000000000000000,1.000000000000000,3.500000000000000,1000.000000000000000,312,6283.185307179585834,3141592.653589793015271,2.279531007024595,10
313,312,Sul,Santa Catarina North,Praia do Bispo,-26.469248000000000,-48.607056000000000,3,4,Right and left,Beach-break,All surfers,2.000000000000000,4.000000000000000,1.000000000000000,3.000000000000000,1000.000000000000000,313,6283.185307179585834,3141592.653589793015271,22.105777414537510,113
314,313,Sul,Santa Catarina North,Picama,-26.458086999999999,-48.596874000000000,3,3,Right and left,Sand-bar,Experienced surfers,2.000000000000000,3.000000000000000,0.000000000000000,3.000000000000000,1000.000000000000000,314,6283.185307179585834,3141592.653589793015271,11.844084247185879,94
315,314,Sul,Santa Catarina North,"Praia Grande, São Francisco do Sul",-26.235880000000002,-48.502600000000001,3,3,Right and left,Beach-break,All surfers,2.000000000000000,3.000000000000000,1.000000000000000,3.000000000000000,1000.000000000000000,315,6283.185307179585834,3141592.653589793015271,24.210043056931902,82
316,315,Sul,Santa Catarina South,Praia da Saudade,-26.230606000000002,-48.498888000000001,3.5,4,Right and left,Beach-break,All surfers,2.000000000000000,4.000000000000000,1.000000000000000,3.500000000000000,1000.000000000000000,316,6283.185307179585834,3141592.653589793015271,19.084664161606010,69
317,316,Sul,Santa Catarina South,Sao Francisco do Sul,-26.219557999999999,-48.502107000000002,3,1,Right,Sand-bar,Beginners wave,1.000000000000000,1.000000000000000,0.000000000000000,3.000000000000000,1000.000000000000000,317,6283.185307179585834,3141592.653589793015271,5.003739671218190,29
318,317,Sul,Santa Catarina South,Píer da Petrobras,-26.217386999999999,-48.500518999999997,3.5,2,Right,Point-break,All surfers,1.000000000000000,2.000000000000000,1.000000000000000,3.500000000000000,1000.000000000000000,318,6283.185307179585834,3141592.653589793015271,2.804290828742013,21
319,318,Sul,Santa Catarina North,Sumidouro,-26.169526000000001,-48.552478999999998,3.5,1,Right and left,Beach-break,Experienced surfers,2.000000000000000,1.000000000000000,0.000000000000000,3.500000000000000,1000.000000000000000,319,6283.185307179585834,3141592.653589793015271,0.430940201370265,1
320,319,Sul,Santa Catarina North,Praia do Forte,-26.163305999999999,-48.533220000000000,3.5,1,Right,Point-break,All surfers,1.000000000000000,1.000000000000000,1.000000000000000,3.500000000000000,1000.000000000000000,320,6283.185307179585834,3141592.653589793015271,3.643905017698149,17
321,320,Sul,Santa Catarina North,Terceira Pedra,-26.067008999999999,-48.607646000000003,3.5,3,Right,Point-break,All surfers,1.000000000000000,3.000000000000000,1.000000000000000,3.500000000000000,1000.000000000000000,321,6283.185307179585834,3141592.653589793015271,22.660859609991693,116
322,321,Sul,Santa Catarina North,Barra do sai mirim,-26.007832000000001,-48.604061000000002,3,3,Right and left,Beach-break,All surfers,2.000000000000000,3.000000000000000,1.000000000000000,3.000000000000000,1000.000000000000000,322,6283.185307179585834,3141592.653589793015271,8.872388154261133,20
323,322,Sul,Parana,Barrinha,-25.976699000000000,-48.590727000000001,3,2,Right,Beach-break,Experienced surfers,1.000000000000000,2.000000000000000,0.000000000000000,3.000000000000000,1000.000000000000000,323,6283.185307179585834,3141592.653589793015271,1.294637715222061,14
324,323,Sul,Parana,Guaratuba Praia Brava,-25.897758000000000,-48.564290999999997,3,3,Right and left,Beach-break,All surfers,2.000000000000000,3.000000000000000,1.000000000000000,3.000000000000000,1000.000000000000000,324,6283.185307179585834,3141592.653589793015271,19.568548684081211,51
325,324,Sul,Parana,Praia Brava Guaratuba,-25.892817000000001,-48.561458999999999,3.5,3,Right and left,Beach-break,All surfers,2.000000000000000,3.000000000000000,1.000000000000000,3.500000000000000,1000.000000000000000,325,6283.185307179585834,3141592.653589793015271,12.874598619643686,48
326,325,Sul,Parana,Direitas de Guaratuba,-25.890046000000002,-48.560288999999997,4,2,Right,Point-break,Experienced surfers,1.000000000000000,2.000000000000000,0.000000000000000,4.000000000000000,1000.000000000000000,326,6283.185307179585834,3141592.653589793015271,9.227287157268449,34
327,326,Sul,Parana,Pico de Matinhos,-25.817817999999999,-48.529701000000003,3.5,3,Right,Point-break,Experienced surfers,1.000000000000000,3.000000000000000,0.000000000000000,3.500000000000000,1000.000000000000000,327,6283.185307179585834,3141592.653589793015271,20.712543368338594,123
328,327,Sul,Parana,Ilha do Mel,-25.548327000000000,-48.295383000000001,3.5,3,Right and left,Beach-break,All surfers,2.000000000000000,3.000000000000000,1.000000000000000,3.500000000000000,1000.000000000000000,328,6283.185307179585834,3141592.653589793015271,7.156751821807052,39
329,328,Sul,Parana,Farolete,-25.515314000000000,-48.286113999999998,3.5,4,Left,Point-break,Experienced surfers,1.000000000000000,4.000000000000000,0.000000000000000,3.500000000000000,1000.000000000000000,329,6283.185307179585834,3141592.653589793015271,0.000000000000000,0
330,329,Sudeste,Sao Paolo South,"Guarau, Peruibe SP",-24.369537000000001,-47.011699999999998,3,4,Right and left,Beach-break,All surfers,2.000000000000000,4.000000000000000,1.000000000000000,3.000000000000000,1000.000000000000000,330,6283.185307179585834,3141592.653589793015271,9.271923878774269,63
331,330,Sudeste,Sao Paolo South,Pier de Mongaguá,-24.095718000000002,-46.618552000000001,3.5,4,Right and left,Beach-break,All surfers,2.000000000000000,4.000000000000000,1.000000000000000,3.500000000000000,1000.000000000000000,331,6283.185307179585834,3141592.653589793015271,23.585758209039941,157
332,332,Sudeste,Sao Paolo South,Tombo,-24.014990000000001,-46.272697000000001,3.5,4,Right and left,Beach-break,All surfers,2.000000000000000,4.000000000000000,1.000000000000000,3.500000000000000,1000.000000000000000,333,6283.185307179585834,3141592.653589793015271,21.466132810232708,122
333,333,Sudeste,Sao Paulo North,Astúrias,-24.007738000000000,-46.266475000000000,3,2,Right and left,Beach-break,All surfers,2.000000000000000,2.000000000000000,1.000000000000000,3.000000000000000,1000.000000000000000,334,6283.185307179585834,3141592.653589793015271,18.545255725812762,130
334,334,Sudeste,Sao Paolo South,Pitangueiras Beach,-24.000935999999999,-46.260767000000001,3.5,4,Right and left,Beach-break,Experienced surfers,2.000000000000000,4.000000000000000,0.000000000000000,3.500000000000000,1000.000000000000000,335,6283.185307179585834,3141592.653589793015271,15.690123036630645,95
335,335,Sudeste,Sao Paulo North,porta do sol,-23.981331999999998,-46.373762999999997,3.5,2,Right and left,Point-break,Experienced surfers,2.000000000000000,2.000000000000000,0.000000000000000,3.500000000000000,1000.000000000000000,336,6283.185307179585834,3141592.653589793015271,5.021124619609259,35
336,336,Sudeste,Sao Paolo South,Itarare,-23.972332999999999,-46.362003999999999,3,3,Right and left,Beach-break,All surfers,2.000000000000000,3.000000000000000,1.000000000000000,3.000000000000000,1000.000000000000000,337,6283.185307179585834,3141592.653589793015271,23.242981210261814,208
337,337,Sudeste,Sao Paolo South,Santos,-23.971744000000001,-46.347208999999999,3,3,Right and left,Beach-break,All surfers,2.000000000000000,3.000000000000000,1.000000000000000,3.000000000000000,1000.000000000000000,338,6283.185307179585834,3141592.653589793015271,25.471385654193398,207
338,338,Sudeste,Sao Paolo South,"Praia de Pernambuco (Pernambuco Beach, in Guaruja)",-23.963431000000000,-46.184033999999997,3.5,4,Right and left,Beach-break,All surfers,2.000000000000000,4.000000000000000,1.000000000000000,3.500000000000000,1000.000000000000000,339,6283.185307179585834,3141592.653589793015271,20.522771358934609,116
339,339,Sudeste,Sao Paulo North,Bonete,-23.917383000000001,-45.347785999999999,3.5,4,Right and left,Beach-break,Experienced surfers,2.000000000000000,4.000000000000000,0.000000000000000,3.500000000000000,1000.000000000000000,340,6283.185307179585834,3141592.653589793015271,5.469032178969780,21
340,340,Sudeste,Sao Paulo North,Sao Pedro,-23.908522000000001,-46.166581000000001,4,3,Right and left,Sand-bar,All surfers,2.000000000000000,3.000000000000000,1.000000000000000,4.000000000000000,1000.000000000000000,341,6283.185307179585834,3141592.653589793015271,10.165120218584724,36
341,341,Sudeste,Sao Paolo South,Praia de Iporanga,-23.902191999999999,-46.152724999999997,3.5,2,Left,Reef-rocky,Pros or kamikaze only...,1.000000000000000,2.000000000000000,0.000000000000000,3.500000000000000,1000.000000000000000,342,6283.185307179585834,3141592.653589793015271,11.318902798723093,45
342,342,Sudeste,Sao Paolo South,Taguaíba,-23.896726000000001,-46.151353999999998,3.5,4,Right and left,Beach-break,All surfers,2.000000000000000,4.000000000000000,1.000000000000000,3.500000000000000,1000.000000000000000,343,6283.185307179585834,3141592.653589793015271,7.965871309335546,32
343,343,Sudeste,Sao Paolo South,praia branca,-23.863427999999999,-46.130795999999997,3.5,3,Left,Beach-break,All surfers,1.000000000000000,3.000000000000000,1.000000000000000,3.500000000000000,1000.000000000000000,344,6283.185307179585834,3141592.653589793015271,1.929977009153962,9
344,344,Sudeste,Sao Paulo North,Castelhanos,-23.857582000000001,-45.288905999999997,3.5,3,Right and left,Beach-break,Experienced surfers,2.000000000000000,3.000000000000000,0.000000000000000,3.500000000000000,1000.000000000000000,345,6283.185307179585834,3141592.653589793015271,2.615953331015287,9
345,345,Sudeste,Sao Paulo North,Enseada - Bertioga,-23.839860000000002,-46.123674000000001,3,4,Right and left,Beach-break,All surfers,2.000000000000000,4.000000000000000,1.000000000000000,3.000000000000000,1000.000000000000000,346,6283.185307179585834,3141592.653589793015271,20.426062437676293,112
346,346,Sudeste,Sao Paulo North,Santiago,-23.819897999999998,-45.541420000000002,3.5,2,Right and left,Beach-break,Experienced surfers,2.000000000000000,2.000000000000000,0.000000000000000,3.500000000000000,1000.000000000000000,347,6283.185307179585834,3141592.653589793015271,2.621170665168842,23
347,347,Sudeste,Sao Paulo North,Guaecá,-23.819123000000001,-45.466200000000001,3.5,3,Right and left,Beach-break,All surfers,2.000000000000000,3.000000000000000,1.000000000000000,3.500000000000000,1000.000000000000000,348,6283.185307179585834,3141592.653589793015271,7.926599634338329,22
348,348,Sudeste,Sao Paulo North,Riviera de São Lourenço,-23.808668999999998,-46.022072000000001,3,3,Right and left,Beach-break,All surfers,2.000000000000000,3.000000000000000,1.000000000000000,3.000000000000000,1000.000000000000000,349,6283.185307179585834,3141592.653589793015271,11.278024716754746,97
349,349,Sudeste,Sao Paulo North,Paúba,-23.802819000000000,-45.553167999999999,4,2,Right and left,Beach-break,Pros or kamikaze only...,2.000000000000000,2.000000000000000,0.000000000000000,4.000000000000000,1000.000000000000000,350,6283.185307179585834,3141592.653589793015271,10.283586300336978,61
350,350,Sudeste,Sao Paulo North,Itaguaré,-23.796026000000001,-45.991173000000003,3,4,Right and left,Beach-break,All surfers,2.000000000000000,4.000000000000000,1.000000000000000,3.000000000000000,1000.000000000000000,351,6283.185307179585834,3141592.653589793015271,6.351154409561661,25
351,351,Sudeste,Sao Paulo North,Maresias,-23.791530000000002,-45.573456000000000,3.5,4,Right and left,Beach-break,All surfers,2.000000000000000,4.000000000000000,1.000000000000000,3.500000000000000,1000.000000000000000,352,6283.185307179585834,3141592.653589793015271,12.949511097018416,80
352,352,Sudeste,Sao Paulo North,Camburi,-23.778825999999999,-45.649137000000003,3.5,4,Right and left,Beach-break,All surfers,2.000000000000000,4.000000000000000,1.000000000000000,3.500000000000000,1000.000000000000000,353,6283.185307179585834,3141592.653589793015271,10.252587021449049,46
353,353,Sudeste,Sao Paulo North,Baleia,-23.777600000000000,-45.670217000000001,3.5,3,Right and left,Beach-break,All surfers,2.000000000000000,3.000000000000000,1.000000000000000,3.500000000000000,1000.000000000000000,354,6283.185307179585834,3141592.653589793015271,8.978976181271673,43
354,354,Sudeste,Sao Paulo North,Guaratuba,-23.772306000000000,-45.922251000000003,3,3,Right and left,Beach-break,Experienced surfers,2.000000000000000,3.000000000000000,0.000000000000000,3.000000000000000,1000.000000000000000,355,6283.185307179585834,3141592.653589793015271,8.405591740558377,95
355,355,Sudeste,Sao Paulo North,Juquehy,-23.768065000000000,-45.738143999999998,3,4,Right and left,Beach-break,All surfers,2.000000000000000,4.000000000000000,1.000000000000000,3.000000000000000,1000.000000000000000,356,6283.185307179585834,3141592.653589793015271,11.063006434961480,58
356,356,Sudeste,Sao Paulo North,Massaguaçu,-23.590772999999999,-45.334611000000002,3.5,2,Right and left,Beach-break,Experienced surfers,2.000000000000000,2.000000000000000,0.000000000000000,3.500000000000000,1000.000000000000000,357,6283.185307179585834,3141592.653589793015271,26.272187943329691,150
357,357,Sudeste,Sao Paulo North,Simão,-23.585149000000001,-45.238287000000000,3.5,3,Right,Beach-break,Experienced surfers,1.000000000000000,3.000000000000000,0.000000000000000,3.500000000000000,1000.000000000000000,358,6283.185307179585834,3141592.653589793015271,2.610882119304640,4
358,358,Sudeste,Sao Paulo North,Praia do sape,-23.531963000000001,-45.222301000000002,3.5,3,Right and left,Beach-break,All surfers,2.000000000000000,3.000000000000000,1.000000000000000,3.500000000000000,1000.000000000000000,359,6283.185307179585834,3141592.653589793015271,17.103689786735352,82
359,359,Sudeste,Sao Paulo North,Lagoinha,-23.521339000000001,-45.205221000000002,3.5,2,Right and left,Beach-break,Beginners wave,2.000000000000000,2.000000000000000,0.000000000000000,3.500000000000000,1000.000000000000000,360,6283.185307179585834,3141592.653589793015271,16.557416377980196,87
360,360,Sudeste,Sao Paulo North,Sununga,-23.511344000000001,-45.129432999999999,3.5,3,Right,Beach-break,Pros or kamikaze only...,1.000000000000000,3.000000000000000,0.000000000000000,3.500000000000000,1000.000000000000000,361,6283.185307179585834,3141592.653589793015271,9.057808187376665,50
361,361,Sudeste,Sao Paulo North,Toninhas,-23.484739000000001,-45.073771000000001,3,2,Right and left,Beach-break,All surfers,2.000000000000000,2.000000000000000,1.000000000000000,3.000000000000000,1000.000000000000000,362,6283.185307179585834,3141592.653589793015271,15.691413312427029,105
362,362,Sudeste,Sao Paulo North,Praia Grande (PG),-23.478835000000000,-45.067290999999997,3,3,Right and left,Beach-break,All surfers,2.000000000000000,3.000000000000000,1.000000000000000,3.000000000000000,1000.000000000000000,363,6283.185307179585834,3141592.653589793015271,10.040223209320047,42
363,363,Sudeste,Sao Paulo North,Praia Grande North,-23.467497999999999,-45.062055999999998,3,3,Left,Beach-break,All surfers,1.000000000000000,3.000000000000000,1.000000000000000,3.000000000000000,1000.000000000000000,364,6283.185307179585834,3141592.653589793015271,26.693120149640890,135
364,364,Sudeste,Sao Paulo North,Vermelha do Centro,-23.463128000000001,-45.049353000000004,3.5,4,Right and left,Beach-break,All surfers,2.000000000000000,4.000000000000000,1.000000000000000,3.500000000000000,1000.000000000000000,365,6283.185307179585834,3141592.653589793015271,9.111477251917169,53
365,365,Sudeste,Sao Paulo North,Patiero,-23.456318000000000,-45.021242999999998,3.5,2,NA,Reef-rocky,Experienced surfers,1.000000000000000,2.000000000000000,0.000000000000000,3.500000000000000,1000.000000000000000,366,6283.185307179585834,3141592.653589793015271,1.167190720963391,4
366,366,Sudeste,Sao Paulo North,Vermelha do Norte,-23.416982000000001,-45.035876999999999,3,3,Right and left,Beach-break,All surfers,2.000000000000000,3.000000000000000,1.000000000000000,3.000000000000000,1000.000000000000000,367,6283.185307179585834,3141592.653589793015271,6.371329008494754,16
367,367,Sudeste,Sao Paulo North,Itamambuca,-23.402332000000001,-45.001458999999997,3.5,4,Right and left,Beach-break,All surfers,2.000000000000000,4.000000000000000,1.000000000000000,3.500000000000000,1000.000000000000000,368,6283.185307179585834,3141592.653589793015271,18.608888391032206,83
368,368,Sudeste,Sao Paulo North,Praia do Felix,-23.389334000000002,-44.972405000000002,3.5,3,Right and left,Beach-break,All surfers,2.000000000000000,3.000000000000000,1.000000000000000,3.500000000000000,1000.000000000000000,369,6283.185307179585834,3141592.653589793015271,10.238834128929755,40
369,369,Sudeste,Sao Paulo North,Brava do Camburi,-23.370963000000000,-44.799858999999998,3,3,Right and left,Beach-break,Experienced surfers,2.000000000000000,3.000000000000000,0.000000000000000,3.000000000000000,1000.000000000000000,370,6283.185307179585834,3141592.653589793015271,3.787980605194052,4
