OBJECTID,Join_Count,TARGET_FID,id,region,zone,name,lat,long,quality,frequency,direction,type,experience,BUFF_DIST,ORIG_FID,OBJECTID_1,FID_1,cod_icao,nm_municip,TipoAero,nome,largura_m,num_pista,uf,altitude,extensao,cod_uso,pavimento,GEOCODIGO,Shape_Leng,Shape_Area
1,0,1,0,Sul,NA,Cardoso,-28.585450000000002,-48.798270000000002,NA,NA,NA,NA,NA,10000.000000000000000,1,1,,,,,,,,,,,,,,62831.853071795863798,314159265.358979284763336
2,1,2,1,Sul,NA,Ravena,-28.454780000000000,-48.751339999999999,NA,NA,NA,NA,NA,10000.000000000000000,2,2,2344,SSLA,Laguna,Nacional,Laguna,23.000000000000000,1,SC,6.000000000000000,1500.000000000000000,Public,saibro,4209409.000000000000000,62831.853071795863798,314159265.358979284763336
3,0,3,2,Sul,NA,Praia da Vila Imbituba,-28.252472220000001,-48.661850000000001,NA,NA,NA,NA,NA,10000.000000000000000,3,3,,,,,,,,,,,,,,62831.853071795863798,314159265.358979284763336
4,0,4,3,Sul,NA,Praia do Porto Imbituba,-28.220199000000001,-48.663214000000004,NA,NA,NA,NA,NA,10000.000000000000000,4,4,,,,,,,,,,,,,,62831.853071795863798,314159265.358979284763336
5,0,5,4,Sul,NA,Ponta da Pinheira,-27.878140999999999,-48.576442000000000,NA,NA,NA,NA,NA,10000.000000000000000,5,5,,,,,,,,,,,,,,62831.853071795863798,314159265.358979284763336
6,0,6,5,Sul,NA,Mocambique,-27.518350000000002,-48.392183330000002,NA,NA,NA,NA,NA,10000.000000000000000,6,6,,,,,,,,,,,,,,62831.853071795863798,314159265.358979284763336
7,0,7,6,Sul,NA,Ponta das Canas,-27.394818999999998,-48.435709000000003,NA,NA,NA,NA,NA,10000.000000000000000,7,7,,,,,,,,,,,,,,62831.853071795863798,314159265.358979284763336
8,1,8,7,Sul,NA,Itagua&ccedil;u,-26.184728000000000,-48.526327999999999,NA,NA,NA,NA,NA,10000.000000000000000,8,8,389,SSSS,São Francisco do Sul,Nacional,São Francisco do Sul,35.000000000000000,1,SC,15.000000000000000,700.000000000000000,Public,grama,4216206.000000000000000,62831.853071795863798,314159265.358979284763336
9,0,9,8,Sul,NA,Caioba,-25.838000000000001,-48.534999999999997,NA,NA,NA,NA,NA,10000.000000000000000,9,9,,,,,,,,,,,,,,62831.853071795863798,314159265.358979284763336
10,0,10,9,Sudeste,NA,Ilha Comprida,-24.783999999999999,-47.594999999999999,NA,NA,NA,NA,NA,10000.000000000000000,10,10,,,,,,,,,,,,,,62831.853071795863798,314159265.358979284763336
11,0,11,10,Sudeste,NA,Iguape,-24.753211000000000,-47.542059000000002,NA,NA,NA,NA,NA,10000.000000000000000,11,11,,,,,,,,,,,,,,62831.853071795863798,314159265.358979284763336
12,0,12,11,Sudeste,NA,Peruibe,-24.324427000000000,-46.978886000000003,NA,NA,NA,NA,NA,10000.000000000000000,12,12,,,,,,,,,,,,,,62831.853071795863798,314159265.358979284763336
13,1,13,12,Sudeste,NA,Praia dos Pescadores,-24.194862000000001,-46.798881999999999,NA,NA,NA,NA,NA,10000.000000000000000,13,13,334,SDIM,Itanhaém,Nacional,Itanhaém,30.000000000000000,1,SP,4.000000000000000,800.000000000000000,Public,asfalto ou concreto Asfáltico,3522109.000000000000000,62831.853071795863798,314159265.358979284763336
14,1,14,13,Sudeste,NA,Itanhaem,-24.151427000000002,-46.707858000000002,NA,NA,NA,NA,NA,10000.000000000000000,14,14,334,SDIM,Itanhaém,Nacional,Itanhaém,30.000000000000000,1,SP,4.000000000000000,800.000000000000000,Public,asfalto ou concreto Asfáltico,3522109.000000000000000,62831.853071795863798,314159265.358979284763336
15,0,15,14,Sudeste,NA,Praia Grande,-24.028497000000002,-46.438310000000001,NA,NA,NA,NA,NA,10000.000000000000000,15,15,,,,,,,,,,,,,,62831.853071795863798,314159265.358979284763336
16,0,16,15,Sudeste,NA,Praia do Forte dos Andradas,-24.028369000000001,-46.288159000000000,NA,NA,NA,NA,NA,10000.000000000000000,16,16,,,,,,,,,,,,,,62831.853071795863798,314159265.358979284763336
17,0,17,16,Sudeste,NA,Praia do Forte dos Andradas,-24.025659999999998,-46.285460000000000,NA,NA,NA,NA,NA,10000.000000000000000,17,17,,,,,,,,,,,,,,62831.853071795863798,314159265.358979284763336
18,0,18,17,Sudeste,NA,Praia da Ponta Grossa,-24.024816000000001,-46.314497000000003,NA,NA,NA,NA,NA,10000.000000000000000,18,18,,,,,,,,,,,,,,62831.853071795863798,314159265.358979284763336
19,0,19,18,Sudeste,NA,Itaipu,-24.019545000000001,-46.386795999999997,NA,NA,NA,NA,NA,10000.000000000000000,19,19,,,,,,,,,,,,,,62831.853071795863798,314159265.358979284763336
20,0,20,19,Sudeste,NA,Guaiuba,-24.017081999999998,-46.295202000000003,NA,NA,NA,NA,NA,10000.000000000000000,20,20,,,,,,,,,,,,,,62831.853071795863798,314159265.358979284763336
21,0,21,20,Sudeste,NA,Santos,-24.015000000000001,-46.353999999999999,NA,NA,NA,NA,NA,10000.000000000000000,21,21,,,,,,,,,,,,,,62831.853071795863798,314159265.358979284763336
22,0,22,21,Sudeste,NA,Morro do Maluf,-23.997560000000000,-46.251593999999997,NA,NA,NA,NA,NA,10000.000000000000000,22,22,,,,,,,,,,,,,,62831.853071795863798,314159265.358979284763336
23,0,23,22,Sudeste,NA,Praia da Enseada,-23.990651000000000,-46.209406000000001,NA,NA,NA,NA,NA,10000.000000000000000,23,23,,,,,,,,,,,,,,62831.853071795863798,314159265.358979284763336
24,0,24,23,Sudeste,NA,Embare,-23.980865999999999,-46.317684000000000,NA,NA,NA,NA,NA,10000.000000000000000,24,24,,,,,,,,,,,,,,62831.853071795863798,314159265.358979284763336
25,0,25,24,Sudeste,NA,Gonzaga,-23.974027000000000,-46.330098000000000,NA,NA,NA,NA,NA,10000.000000000000000,25,25,,,,,,,,,,,,,,62831.853071795863798,314159265.358979284763336
26,0,26,25,Sudeste,NA,Pereque,-23.927582999999998,-46.178826000000001,NA,NA,NA,NA,NA,10000.000000000000000,26,26,,,,,,,,,,,,,,62831.853071795863798,314159265.358979284763336
27,0,27,26,Sudeste,NA,Praia Preta,-23.874700000000001,-46.138959000000000,NA,NA,NA,NA,NA,10000.000000000000000,27,27,,,,,,,,,,,,,,62831.853071795863798,314159265.358979284763336
28,0,28,27,Sudeste,NA,Praia da Bertioga,-23.846986000000001,-46.126967999999998,NA,NA,NA,NA,NA,10000.000000000000000,28,28,,,,,,,,,,,,,,62831.853071795863798,314159265.358979284763336
29,0,29,28,Sudeste,NA,Maresias,-23.793693260000001,-45.559764340000001,NA,NA,NA,NA,NA,10000.000000000000000,29,29,,,,,,,,,,,,,,62831.853071795863798,314159265.358979284763336
30,0,30,29,Sudeste,NA,Canto de Moreira,-23.793056000000000,-45.587394000000003,NA,NA,NA,NA,NA,10000.000000000000000,30,30,,,,,,,,,,,,,,62831.853071795863798,314159265.358979284763336
31,0,31,30,Sudeste,NA,Itaguere,-23.786995000000001,-45.971372000000002,NA,NA,NA,NA,NA,10000.000000000000000,31,31,,,,,,,,,,,,,,62831.853071795863798,314159265.358979284763336
32,0,32,31,Sudeste,NA,Boicucanga,-23.784431000000001,-45.631354999999999,NA,NA,NA,NA,NA,10000.000000000000000,32,32,,,,,,,,,,,,,,62831.853071795863798,314159265.358979284763336
33,0,33,32,Sudeste,NA,Praia de Baleia,-23.775839000000001,-45.683985999999997,NA,NA,NA,NA,NA,10000.000000000000000,33,33,,,,,,,,,,,,,,62831.853071795863798,314159265.358979284763336
34,0,34,33,Sudeste,NA,Barra do Sahy,-23.774384999999999,-45.697569999999999,NA,NA,NA,NA,NA,10000.000000000000000,34,34,,,,,,,,,,,,,,62831.853071795863798,314159265.358979284763336
35,0,35,34,Sudeste,NA,Praia Preta,-23.773009999999999,-45.715814999999999,NA,NA,NA,NA,NA,10000.000000000000000,35,35,,,,,,,,,,,,,,62831.853071795863798,314159265.358979284763336
36,0,36,35,Sudeste,NA,Bananas Point,-23.771605000000001,-45.706209999999999,NA,NA,NA,NA,NA,10000.000000000000000,36,36,,,,,,,,,,,,,,62831.853071795863798,314159265.358979284763336
37,0,37,36,Sudeste,NA,Praia do Juquei,-23.768115000000002,-45.745452999999998,NA,NA,NA,NA,NA,10000.000000000000000,37,37,,,,,,,,,,,,,,62831.853071795863798,314159265.358979284763336
38,0,38,37,Sudeste,NA,Barra do Una,-23.763818000000001,-45.762779999999999,NA,NA,NA,NA,NA,10000.000000000000000,38,38,,,,,,,,,,,,,,62831.853071795863798,314159265.358979284763336
39,0,39,38,Sudeste,NA,Praia da Boracéia,-23.758372999999999,-45.828777000000002,NA,NA,NA,NA,NA,10000.000000000000000,39,39,,,,,,,,,,,,,,62831.853071795863798,314159265.358979284763336
40,0,40,39,Sudeste,NA,Praia Dura,-23.496058000000001,-45.171014000000000,NA,NA,NA,NA,NA,10000.000000000000000,40,40,,,,,,,,,,,,,,62831.853071795863798,314159265.358979284763336
41,1,41,40,Sudeste,NA,Pereque-Acu,-23.424565000000001,-45.062697000000000,NA,NA,NA,NA,NA,10000.000000000000000,41,41,2306,SDUB,Ubatuba,Nacional,Ubatuba,30.000000000000000,1,SP,4.000000000000000,940.000000000000000,Public,asfalto ou concreto Asfáltico,3555406.000000000000000,62831.853071795863798,314159265.358979284763336
42,1,42,41,Sudeste,NA,Itamambuca,-23.406683000000001,-45.008741000000001,NA,NA,NA,NA,NA,10000.000000000000000,42,42,2306,SDUB,Ubatuba,Nacional,Ubatuba,30.000000000000000,1,SP,4.000000000000000,940.000000000000000,Public,asfalto ou concreto Asfáltico,3555406.000000000000000,62831.853071795863798,314159265.358979284763336
43,0,43,42,Sudeste,NA,Praia da Fazenda,-23.361352000000000,-44.859766000000000,NA,NA,NA,NA,NA,10000.000000000000000,43,43,,,,,,,,,,,,,,62831.853071795863798,314159265.358979284763336
44,0,44,43,Sudeste,NA,Aventureiro,-23.184405999999999,-44.315804000000000,NA,NA,NA,NA,NA,10000.000000000000000,44,44,,,,,,,,,,,,,,62831.853071795863798,314159265.358979284763336
45,0,45,44,Sudeste,NA,Praia do Leste,-23.179746000000002,-44.274093999999998,NA,NA,NA,NA,NA,10000.000000000000000,45,45,,,,,,,,,,,,,,62831.853071795863798,314159265.358979284763336
46,0,46,45,Sudeste,NA,Praia do Sul,-23.178656000000000,-44.296756999999999,NA,NA,NA,NA,NA,10000.000000000000000,46,46,,,,,,,,,,,,,,62831.853071795863798,314159265.358979284763336
47,0,47,46,Sudeste,NA,Praia do Meio,-23.066913000000000,-43.549809000000003,NA,NA,NA,NA,NA,10000.000000000000000,47,47,,,,,,,,,,,,,,62831.853071795863798,314159265.358979284763336
48,0,48,47,Sudeste,NA,Restinga a Marambaia,-23.061833000000000,-43.591673000000000,NA,NA,NA,NA,NA,10000.000000000000000,48,48,,,,,,,,,,,,,,62831.853071795863798,314159265.358979284763336
49,0,49,48,Sudeste,NA,Grumari,-23.050469000000000,-43.533907999999997,NA,NA,NA,NA,NA,10000.000000000000000,49,49,,,,,,,,,,,,,,62831.853071795863798,314159265.358979284763336
50,1,50,49,Sudeste,NA,Reserva,-23.022717000000000,-43.440916000000001,NA,NA,NA,NA,NA,10000.000000000000000,50,50,2079,SBJR,Rio de Janeiro,Nacional,Jacarepaguá,30.000000000000000,1,RJ,3.000000000000000,900.000000000000000,Public,asfalto ou concreto Asfáltico,3304557.000000000000000,62831.853071795863798,314159265.358979284763336
51,1,51,50,Sudeste,NA,Barra da Tijuca,-23.020340120000000,-43.372478489999999,NA,NA,NA,NA,NA,10000.000000000000000,51,51,2079,SBJR,Rio de Janeiro,Nacional,Jacarepaguá,30.000000000000000,1,RJ,3.000000000000000,900.000000000000000,Public,asfalto ou concreto Asfáltico,3304557.000000000000000,62831.853071795863798,314159265.358979284763336
52,1,52,51,Sudeste,NA,Barra da Tijuca,-23.014886109999999,-43.372222219999998,NA,NA,NA,NA,NA,10000.000000000000000,52,52,2079,SBJR,Rio de Janeiro,Nacional,Jacarepaguá,30.000000000000000,1,RJ,3.000000000000000,900.000000000000000,Public,asfalto ou concreto Asfáltico,3304557.000000000000000,62831.853071795863798,314159265.358979284763336
53,0,53,52,Sudeste,NA,Sao Conrado,-23.000617999999999,-43.264187000000000,NA,NA,NA,NA,NA,10000.000000000000000,53,53,,,,,,,,,,,,,,62831.853071795863798,314159265.358979284763336
54,0,54,53,Sudeste,NA,Bambui,-22.975255000000001,-42.916570000000000,NA,NA,NA,NA,NA,10000.000000000000000,54,54,,,,,,,,,,,,,,62831.853071795863798,314159265.358979284763336
55,0,55,54,Sudeste,NA,Itaipuacu,-22.971149000000000,-43.011260000000000,NA,NA,NA,NA,NA,10000.000000000000000,55,55,,,,,,,,,,,,,,62831.853071795863798,314159265.358979284763336
56,1,56,55,Sudeste,NA,Barra de Marica,-22.962100000000000,-42.809486999999997,NA,NA,NA,NA,NA,10000.000000000000000,56,56,310,SDMC,Maricá,Nacional,Maricá,30.000000000000000,1,RJ,4.000000000000000,1190.000000000000000,Public,asfalto ou concreto Asfáltico,3302700.000000000000000,62831.853071795863798,314159265.358979284763336
57,0,57,56,Sudeste,NA,Camboinhas,-22.961998000000001,-43.059922999999998,NA,NA,NA,NA,NA,10000.000000000000000,57,57,,,,,,,,,,,,,,62831.853071795863798,314159265.358979284763336
58,0,58,57,Sudeste,NA,Pirantininga,-22.955044999999998,-43.088653999999998,NA,NA,NA,NA,NA,10000.000000000000000,58,58,,,,,,,,,,,,,,62831.853071795863798,314159265.358979284763336
59,0,59,58,Sudeste,NA,Jacone,-22.946556000000001,-42.679789000000000,NA,NA,NA,NA,NA,10000.000000000000000,59,59,,,,,,,,,,,,,,62831.853071795863798,314159265.358979284763336
60,0,60,59,Sudeste,NA,Figueira,-22.944991999999999,-42.188828000000001,NA,NA,NA,NA,NA,10000.000000000000000,60,60,,,,,,,,,,,,,,62831.853071795863798,314159265.358979284763336
61,1,61,60,Sudeste,NA,Praia do Fora,-22.944794000000002,-43.155304000000001,NA,NA,NA,NA,NA,10000.000000000000000,61,61,312,SBRJ,Rio de Janeiro,Nacional,Santos Dumont,42.000000000000000,2,RJ,3.000000000000000,1323.000000000000000,Public,asfalto ou concreto Asfáltico,3304557.000000000000000,62831.853071795863798,314159265.358979284763336
62,1,62,61,Sudeste,NA,Laje do Pao de Acucar,-22.938409000000000,-43.151797000000002,NA,NA,NA,NA,NA,10000.000000000000000,62,62,312,SBRJ,Rio de Janeiro,Nacional,Santos Dumont,42.000000000000000,2,RJ,3.000000000000000,1323.000000000000000,Public,asfalto ou concreto Asfáltico,3304557.000000000000000,62831.853071795863798,314159265.358979284763336
63,1,63,62,Sudeste,NA,Canal,-22.937418999999998,-42.487813000000003,NA,NA,NA,NA,NA,10000.000000000000000,63,63,2081,SDSK,Saquarema,Nacional,Saquarema,40.000000000000000,1,RJ,8.000000000000000,905.000000000000000,Public,grama,3305505.000000000000000,62831.853071795863798,314159265.358979284763336
64,0,64,63,Sudeste,NA,Praia Seca,-22.936126000000002,-42.361598000000001,NA,NA,NA,NA,NA,10000.000000000000000,64,64,,,,,,,,,,,,,,62831.853071795863798,314159265.358979284763336
65,0,65,64,Sudeste,NA,Caravelas,-22.814850000000000,-41.953901999999999,NA,NA,NA,NA,NA,10000.000000000000000,65,65,,,,,,,,,,,,,,62831.853071795863798,314159265.358979284763336
66,0,66,65,Sudeste,NA,Tucuns,-22.799863999999999,-41.929282000000001,NA,NA,NA,NA,NA,10000.000000000000000,66,66,,,,,,,,,,,,,,62831.853071795863798,314159265.358979284763336
67,0,67,66,Sudeste,NA,Praia Brava,-22.754252000000001,-41.872608999999997,NA,NA,NA,NA,NA,10000.000000000000000,67,67,,,,,,,,,,,,,,62831.853071795863798,314159265.358979284763336
68,0,68,67,Sudeste,NA,Marataizes,-21.044882999999999,-40.827455999999998,NA,NA,NA,NA,NA,10000.000000000000000,68,68,,,,,,,,,,,,,,62831.853071795863798,314159265.358979284763336
69,0,69,68,Sudeste,NA,Ponta do Ubu,-20.793246000000000,-40.579551000000002,NA,NA,NA,NA,NA,10000.000000000000000,69,69,,,,,,,,,,,,,,62831.853071795863798,314159265.358979284763336
70,0,70,69,Sudeste,NA,Ponta dos Castelhanos,-20.755085000000001,-40.560755000000000,NA,NA,NA,NA,NA,10000.000000000000000,70,70,,,,,,,,,,,,,,62831.853071795863798,314159265.358979284763336
71,1,71,70,Sudeste,NA,Maimba,-20.707021999999998,-40.514367999999997,NA,NA,NA,NA,NA,10000.000000000000000,71,71,2074,SNGA,Guarapari,Nacional,Guarapari,30.000000000000000,1,ES,9.000000000000000,1190.000000000000000,Public,asfalto ou concreto Asfáltico,3202405.000000000000000,62831.853071795863798,314159265.358979284763336
72,1,72,71,Sudeste,NA,Praia do Morro,-20.659787999999999,-40.493842999999998,NA,NA,NA,NA,NA,10000.000000000000000,72,72,2074,SNGA,Guarapari,Nacional,Guarapari,30.000000000000000,1,ES,9.000000000000000,1190.000000000000000,Public,asfalto ou concreto Asfáltico,3202405.000000000000000,62831.853071795863798,314159265.358979284763336
73,1,73,72,Sudeste,NA,Ponta de Bororo,-20.614518000000000,-40.415382000000001,NA,NA,NA,NA,NA,10000.000000000000000,73,73,2074,SNGA,Guarapari,Nacional,Guarapari,30.000000000000000,1,ES,9.000000000000000,1190.000000000000000,Public,asfalto ou concreto Asfáltico,3202405.000000000000000,62831.853071795863798,314159265.358979284763336
74,0,74,73,Sudeste,NA,Tropical,-20.559543999999999,-40.391810000000000,NA,NA,NA,NA,NA,10000.000000000000000,74,74,,,,,,,,,,,,,,62831.853071795863798,314159265.358979284763336
75,0,75,74,Sudeste,NA,Dunas de Ule,-20.542100000000001,-40.379860999999998,NA,NA,NA,NA,NA,10000.000000000000000,75,75,,,,,,,,,,,,,,62831.853071795863798,314159265.358979284763336
76,0,76,75,Sudeste,NA,Guarapari - Ule,-20.541319000000001,-40.378385999999999,NA,NA,NA,NA,NA,10000.000000000000000,76,76,,,,,,,,,,,,,,62831.853071795863798,314159265.358979284763336
77,0,77,76,Sudeste,NA,Ponta da Fruta,-20.516836999999999,-40.358133000000002,NA,NA,NA,NA,NA,10000.000000000000000,77,77,,,,,,,,,,,,,,62831.853071795863798,314159265.358979284763336
78,0,78,77,Sudeste,NA,Coral Dois,-20.448948000000001,-40.330300000000001,NA,NA,NA,NA,NA,10000.000000000000000,78,78,,,,,,,,,,,,,,62831.853071795863798,314159265.358979284763336
79,0,79,78,Sudeste,NA,Ponta da Belina,-20.445827000000001,-40.329245000000000,NA,NA,NA,NA,NA,10000.000000000000000,79,79,,,,,,,,,,,,,,62831.853071795863798,314159265.358979284763336
80,0,80,79,Sudeste,NA,Coral Um,-20.437659000000000,-40.326006999999997,NA,NA,NA,NA,NA,10000.000000000000000,80,80,,,,,,,,,,,,,,62831.853071795863798,314159265.358979284763336
81,0,81,80,Sudeste,NA,"Barrao, Brazil",-20.427381000000000,-40.320982000000001,NA,NA,NA,NA,NA,10000.000000000000000,81,81,,,,,,,,,,,,,,62831.853071795863798,314159265.358979284763336
82,0,82,81,Sudeste,NA,Barrinha,-20.422540999999999,-40.321933999999999,NA,NA,NA,NA,NA,10000.000000000000000,82,82,,,,,,,,,,,,,,62831.853071795863798,314159265.358979284763336
83,1,83,82,Sudeste,NA,Praia de Camburi,-20.279677000000000,-40.248994000000003,NA,NA,NA,NA,NA,10000.000000000000000,83,83,303,SBVT,Vitória,Nacional,Goiabeiras,45.000000000000000,1,ES,3.000000000000000,1750.000000000000000,Public,asfalto ou concreto Asfáltico,3205309.000000000000000,62831.853071795863798,314159265.358979284763336
84,1,84,83,Sudeste,NA,Velzyland,-20.244838999999999,-40.216205000000002,NA,NA,NA,NA,NA,10000.000000000000000,84,84,303,SBVT,Vitória,Nacional,Goiabeiras,45.000000000000000,1,ES,3.000000000000000,1750.000000000000000,Public,asfalto ou concreto Asfáltico,3205309.000000000000000,62831.853071795863798,314159265.358979284763336
85,0,85,84,Sudeste,NA,Ponta da Cacao,-20.219573000000000,-40.196268000000003,NA,NA,NA,NA,NA,10000.000000000000000,85,85,,,,,,,,,,,,,,62831.853071795863798,314159265.358979284763336
86,0,86,85,Sudeste,NA,"Manguinhos, Brazil",-20.199344000000000,-40.190266999999999,NA,NA,NA,NA,NA,10000.000000000000000,86,86,,,,,,,,,,,,,,62831.853071795863798,314159265.358979284763336
87,0,87,86,Sudeste,NA,Praia da Baleia,-20.171105000000001,-40.184866000000000,NA,NA,NA,NA,NA,10000.000000000000000,87,87,,,,,,,,,,,,,,62831.853071795863798,314159265.358979284763336
88,0,88,87,Sudeste,NA,Jacaraipe - Solemar,-20.109774999999999,-40.171481000000000,NA,NA,NA,NA,NA,10000.000000000000000,88,88,,,,,,,,,,,,,,62831.853071795863798,314159265.358979284763336
89,0,89,88,Sudeste,NA,Xa,-20.107229000000000,-40.171174999999998,NA,NA,NA,NA,NA,10000.000000000000000,89,89,,,,,,,,,,,,,,62831.853071795863798,314159265.358979284763336
90,0,90,89,Sudeste,NA,Nova Almeida,-20.058461999999999,-40.183000999999997,NA,NA,NA,NA,NA,10000.000000000000000,90,90,,,,,,,,,,,,,,62831.853071795863798,314159265.358979284763336
91,0,91,90,Sudeste,NA,Praia Grande,-20.047100000000000,-40.182743000000002,NA,NA,NA,NA,NA,10000.000000000000000,91,91,,,,,,,,,,,,,,62831.853071795863798,314159265.358979284763336
92,0,92,91,Sudeste,NA,Regencia,-19.562811000000000,-39.764263999999997,NA,NA,NA,NA,NA,10000.000000000000000,92,92,,,,,,,,,,,,,,62831.853071795863798,314159265.358979284763336
93,0,93,92,Sudeste,NA,Guriri,-18.910750000000000,-39.738563999999997,NA,NA,NA,NA,NA,10000.000000000000000,93,93,,,,,,,,,,,,,,62831.853071795863798,314159265.358979284763336
94,1,94,93,Nordeste,NA,Milionarios,-14.847631000000000,-39.022942000000000,NA,NA,NA,NA,NA,10000.000000000000000,94,94,183,SBIL,Ilhéus,Nacional,Bahia - Jorge Amado,45.000000000000000,1,BA,4.000000000000000,1577.000000000000000,Public,asfalto ou concreto Asfáltico,2913606.000000000000000,62831.853071795863798,314159265.358979284763336
95,1,95,94,Nordeste,NA,Sul,-14.831120000000000,-39.022562999999998,NA,NA,NA,NA,NA,10000.000000000000000,95,95,183,SBIL,Ilhéus,Nacional,Bahia - Jorge Amado,45.000000000000000,1,BA,4.000000000000000,1577.000000000000000,Public,asfalto ou concreto Asfáltico,2913606.000000000000000,62831.853071795863798,314159265.358979284763336
96,1,96,95,Nordeste,NA,Pedra da Cachorra,-14.821026000000000,-39.023632999999997,NA,NA,NA,NA,NA,10000.000000000000000,96,96,183,SBIL,Ilhéus,Nacional,Bahia - Jorge Amado,45.000000000000000,1,BA,4.000000000000000,1577.000000000000000,Public,asfalto ou concreto Asfáltico,2913606.000000000000000,62831.853071795863798,314159265.358979284763336
97,1,97,96,Nordeste,NA,Jardim Atlantico,-14.815026000000000,-39.023400000000002,NA,NA,NA,NA,NA,10000.000000000000000,97,97,183,SBIL,Ilhéus,Nacional,Bahia - Jorge Amado,45.000000000000000,1,BA,4.000000000000000,1577.000000000000000,Public,asfalto ou concreto Asfáltico,2913606.000000000000000,62831.853071795863798,314159265.358979284763336
98,1,98,97,Nordeste,NA,Baduska,-14.809442000000001,-39.023423000000001,NA,NA,NA,NA,NA,10000.000000000000000,98,98,183,SBIL,Ilhéus,Nacional,Bahia - Jorge Amado,45.000000000000000,1,BA,4.000000000000000,1577.000000000000000,Public,asfalto ou concreto Asfáltico,2913606.000000000000000,62831.853071795863798,314159265.358979284763336
99,0,99,98,Nordeste,NA,Norte,-14.660090000000000,-39.063006999999999,NA,NA,NA,NA,NA,10000.000000000000000,99,99,,,,,,,,,,,,,,62831.853071795863798,314159265.358979284763336
100,0,100,99,Nordeste,NA,Havaizinho,-14.468062000000000,-39.023161000000002,NA,NA,NA,NA,NA,10000.000000000000000,100,100,,,,,,,,,,,,,,62831.853071795863798,314159265.358979284763336
101,0,101,100,Nordeste,NA,Sao Jose,-14.316062000000001,-38.990701000000001,NA,NA,NA,NA,NA,10000.000000000000000,101,101,,,,,,,,,,,,,,62831.853071795863798,314159265.358979284763336
102,0,102,101,Nordeste,NA,Corals,-14.275408000000001,-38.982568999999998,NA,NA,NA,NA,NA,10000.000000000000000,102,102,,,,,,,,,,,,,,62831.853071795863798,314159265.358979284763336
103,0,103,102,Nordeste,NA,Tony,-13.016731999999999,-38.488781000000003,NA,NA,NA,NA,NA,10000.000000000000000,103,103,,,,,,,,,,,,,,62831.853071795863798,314159265.358979284763336
104,0,104,103,Nordeste,NA,Meridien,-13.016598000000000,-38.484878999999999,NA,NA,NA,NA,NA,10000.000000000000000,104,104,,,,,,,,,,,,,,62831.853071795863798,314159265.358979284763336
105,0,105,104,Nordeste,NA,Amaralina,-13.015369000000000,-38.471834000000001,NA,NA,NA,NA,NA,10000.000000000000000,105,105,,,,,,,,,,,,,,62831.853071795863798,314159265.358979284763336
106,0,106,105,Nordeste,NA,Tubao,-13.010683999999999,-38.461410999999998,NA,NA,NA,NA,NA,10000.000000000000000,106,106,,,,,,,,,,,,,,62831.853071795863798,314159265.358979284763336
107,0,107,106,Nordeste,NA,Psiu,-12.995919000000001,-38.439390000000003,NA,NA,NA,NA,NA,10000.000000000000000,107,107,,,,,,,,,,,,,,62831.853071795863798,314159265.358979284763336
108,0,108,107,Nordeste,NA,Alex,-12.973279000000000,-38.406477000000002,NA,NA,NA,NA,NA,10000.000000000000000,108,108,,,,,,,,,,,,,,62831.853071795863798,314159265.358979284763336
109,0,109,108,Nordeste,NA,Terceira Ponte,-12.963839999999999,-38.396822000000000,NA,NA,NA,NA,NA,10000.000000000000000,109,109,,,,,,,,,,,,,,62831.853071795863798,314159265.358979284763336
110,1,110,109,Nordeste,NA,SESC,-12.960485000000000,-38.390998000000003,NA,NA,NA,NA,NA,10000.000000000000000,110,110,2626,SBSV,Salvador,Internacional,Deputado Luís Eduardo Magalhães,45.000000000000000,2,BA,19.000000000000000,3005.000000000000000,Public,asfalto ou concreto Asfáltico,2927408.000000000000000,62831.853071795863798,314159265.358979284763336
111,1,111,110,Nordeste,NA,Farol,-12.958147000000000,-38.352812999999998,NA,NA,NA,NA,NA,10000.000000000000000,111,111,2626,SBSV,Salvador,Internacional,Deputado Luís Eduardo Magalhães,45.000000000000000,2,BA,19.000000000000000,3005.000000000000000,Public,asfalto ou concreto Asfáltico,2927408.000000000000000,62831.853071795863798,314159265.358979284763336
112,1,112,111,Nordeste,NA,Pedro do Sal,-12.954224000000000,-38.347234000000000,NA,NA,NA,NA,NA,10000.000000000000000,112,112,2626,SBSV,Salvador,Internacional,Deputado Luís Eduardo Magalhães,45.000000000000000,2,BA,19.000000000000000,3005.000000000000000,Public,asfalto ou concreto Asfáltico,2927408.000000000000000,62831.853071795863798,314159265.358979284763336
113,1,113,112,Nordeste,NA,Itapoa,-12.952339000000000,-38.369608999999997,NA,NA,NA,NA,NA,10000.000000000000000,113,113,2626,SBSV,Salvador,Internacional,Deputado Luís Eduardo Magalhães,45.000000000000000,2,BA,19.000000000000000,3005.000000000000000,Public,asfalto ou concreto Asfáltico,2927408.000000000000000,62831.853071795863798,314159265.358979284763336
114,1,114,113,Nordeste,NA,Seper,-12.952040999999999,-38.343243999999999,NA,NA,NA,NA,NA,10000.000000000000000,114,114,2626,SBSV,Salvador,Internacional,Deputado Luís Eduardo Magalhães,45.000000000000000,2,BA,19.000000000000000,3005.000000000000000,Public,asfalto ou concreto Asfáltico,2927408.000000000000000,62831.853071795863798,314159265.358979284763336
115,1,115,114,Nordeste,NA,Corrente,-12.948985000000000,-38.339199999999998,NA,NA,NA,NA,NA,10000.000000000000000,115,115,2626,SBSV,Salvador,Internacional,Deputado Luís Eduardo Magalhães,45.000000000000000,2,BA,19.000000000000000,3005.000000000000000,Public,asfalto ou concreto Asfáltico,2927408.000000000000000,62831.853071795863798,314159265.358979284763336
116,1,116,115,Nordeste,NA,Stela Maris,-12.947385000000001,-38.337372000000002,NA,NA,NA,NA,NA,10000.000000000000000,116,116,2626,SBSV,Salvador,Internacional,Deputado Luís Eduardo Magalhães,45.000000000000000,2,BA,19.000000000000000,3005.000000000000000,Public,asfalto ou concreto Asfáltico,2927408.000000000000000,62831.853071795863798,314159265.358979284763336
117,1,117,116,Nordeste,NA,Plator,-12.946393000000000,-38.333083999999999,NA,NA,NA,NA,NA,10000.000000000000000,117,117,2626,SBSV,Salvador,Internacional,Deputado Luís Eduardo Magalhães,45.000000000000000,2,BA,19.000000000000000,3005.000000000000000,Public,asfalto ou concreto Asfáltico,2927408.000000000000000,62831.853071795863798,314159265.358979284763336
118,1,118,117,Nordeste,NA,Aleluia,-12.926800999999999,-38.312618999999998,NA,NA,NA,NA,NA,10000.000000000000000,118,118,2626,SBSV,Salvador,Internacional,Deputado Luís Eduardo Magalhães,45.000000000000000,2,BA,19.000000000000000,3005.000000000000000,Public,asfalto ou concreto Asfáltico,2927408.000000000000000,62831.853071795863798,314159265.358979284763336
119,1,119,118,Nordeste,NA,Ipitanga,-12.920477000000000,-38.309717999999997,NA,NA,NA,NA,NA,10000.000000000000000,119,119,2626,SBSV,Salvador,Internacional,Deputado Luís Eduardo Magalhães,45.000000000000000,2,BA,19.000000000000000,3005.000000000000000,Public,asfalto ou concreto Asfáltico,2927408.000000000000000,62831.853071795863798,314159265.358979284763336
120,1,120,119,Nordeste,NA,Vilas,-12.894546000000000,-38.290790999999999,NA,NA,NA,NA,NA,10000.000000000000000,120,120,2626,SBSV,Salvador,Internacional,Deputado Luís Eduardo Magalhães,45.000000000000000,2,BA,19.000000000000000,3005.000000000000000,Public,asfalto ou concreto Asfáltico,2927408.000000000000000,62831.853071795863798,314159265.358979284763336
121,1,121,120,Nordeste,NA,Busca Vida,-12.863464000000000,-38.255961999999997,NA,NA,NA,NA,NA,10000.000000000000000,121,121,2626,SBSV,Salvador,Internacional,Deputado Luís Eduardo Magalhães,45.000000000000000,2,BA,19.000000000000000,3005.000000000000000,Public,asfalto ou concreto Asfáltico,2927408.000000000000000,62831.853071795863798,314159265.358979284763336
122,0,122,121,Nordeste,NA,Itacimirim,-12.639232000000000,-38.048194000000002,NA,NA,NA,NA,NA,10000.000000000000000,122,122,,,,,,,,,,,,,,62831.853071795863798,314159265.358979284763336
123,0,123,122,Nordeste,NA,Praia do Forte,-12.583304999999999,-38.005077999999997,NA,NA,NA,NA,NA,10000.000000000000000,123,123,,,,,,,,,,,,,,62831.853071795863798,314159265.358979284763336
124,0,124,123,Nordeste,NA,Imbassai,-12.342055000000000,-37.846200000000003,NA,NA,NA,NA,NA,10000.000000000000000,124,124,,,,,,,,,,,,,,62831.853071795863798,314159265.358979284763336
125,0,125,124,Nordeste,NA,Costa do Sauipe,-12.022171000000000,-37.645508000000000,NA,NA,NA,NA,NA,10000.000000000000000,125,125,,,,,,,,,,,,,,62831.853071795863798,314159265.358979284763336
126,0,126,125,Nordeste,NA,Marlin,-11.939802999999999,-37.602476000000003,NA,NA,NA,NA,NA,10000.000000000000000,126,126,,,,,,,,,,,,,,62831.853071795863798,314159265.358979284763336
127,0,127,126,Nordeste,NA,Conde,-11.848141000000000,-37.558169999999997,NA,NA,NA,NA,NA,10000.000000000000000,127,127,,,,,,,,,,,,,,62831.853071795863798,314159265.358979284763336
128,0,128,127,Nordeste,NA,Mangue Seco,-11.483613999999999,-37.364454000000002,NA,NA,NA,NA,NA,10000.000000000000000,128,128,,,,,,,,,,,,,,62831.853071795863798,314159265.358979284763336
129,0,129,128,Nordeste,NA,Mosqueiro,-11.138116000000000,-37.145493000000002,NA,NA,NA,NA,NA,10000.000000000000000,129,129,,,,,,,,,,,,,,62831.853071795863798,314159265.358979284763336
130,1,130,129,Nordeste,NA,Aruana,-11.067069000000000,-37.101289000000001,NA,NA,NA,NA,NA,10000.000000000000000,130,130,161,SBAR,Aracaju,Nacional,Santa Maria,45.000000000000000,1,SE,7.000000000000000,2200.000000000000000,Public,asfalto ou concreto Asfáltico,2800308.000000000000000,62831.853071795863798,314159265.358979284763336
131,1,131,130,Nordeste,NA,Hawaiizinho,-11.043927999999999,-37.082977999999997,NA,NA,NA,NA,NA,10000.000000000000000,131,131,161,SBAR,Aracaju,Nacional,Santa Maria,45.000000000000000,1,SE,7.000000000000000,2200.000000000000000,Public,asfalto ou concreto Asfáltico,2800308.000000000000000,62831.853071795863798,314159265.358979284763336
132,1,132,131,Nordeste,NA,Praia do Meio,-10.999541000000001,-37.050151000000000,NA,NA,NA,NA,NA,10000.000000000000000,132,132,161,SBAR,Aracaju,Nacional,Santa Maria,45.000000000000000,1,SE,7.000000000000000,2200.000000000000000,Public,asfalto ou concreto Asfáltico,2800308.000000000000000,62831.853071795863798,314159265.358979284763336
133,0,133,132,Nordeste,NA,Pirambu,-10.746346000000001,-36.855099000000003,NA,NA,NA,NA,NA,10000.000000000000000,133,133,,,,,,,,,,,,,,62831.853071795863798,314159265.358979284763336
134,0,134,133,Nordeste,NA,Ponta do Mangue,-10.639483000000000,-36.678539000000001,NA,NA,NA,NA,NA,10000.000000000000000,134,134,,,,,,,,,,,,,,62831.853071795863798,314159265.358979284763336
135,0,135,134,Nordeste,NA,Pontal de Peba,-10.367584000000001,-36.303941000000002,NA,NA,NA,NA,NA,10000.000000000000000,135,135,,,,,,,,,,,,,,62831.853071795863798,314159265.358979284763336
136,0,136,135,Nordeste,NA,Mihai,-10.196728000000000,-36.181641999999997,NA,NA,NA,NA,NA,10000.000000000000000,136,136,,,,,,,,,,,,,,62831.853071795863798,314159265.358979284763336
137,0,137,136,Nordeste,NA,Pontal do Coruripe,-10.160774999999999,-36.150663999999999,NA,NA,NA,NA,NA,10000.000000000000000,137,137,,,,,,,,,,,,,,62831.853071795863798,314159265.358979284763336
138,0,138,137,Nordeste,NA,Forjos,-10.107661999999999,-36.097672000000003,NA,NA,NA,NA,NA,10000.000000000000000,138,138,,,,,,,,,,,,,,62831.853071795863798,314159265.358979284763336
139,0,139,138,Nordeste,NA,Poxim,-10.063563000000000,-36.040908999999999,NA,NA,NA,NA,NA,10000.000000000000000,139,139,,,,,,,,,,,,,,62831.853071795863798,314159265.358979284763336
140,0,140,139,Nordeste,NA,Jacarecica,-9.916383000000000,-35.945963999999996,NA,NA,NA,NA,NA,10000.000000000000000,140,140,,,,,,,,,,,,,,62831.853071795863798,314159265.358979284763336
141,0,141,140,Nordeste,NA,Praia do Meio,-9.824446999999999,-35.877803000000000,NA,NA,NA,NA,NA,10000.000000000000000,141,141,,,,,,,,,,,,,,62831.853071795863798,314159265.358979284763336
142,0,142,141,Nordeste,NA,Praia do Pontal,-9.682589999999999,-35.758536999999997,NA,NA,NA,NA,NA,10000.000000000000000,142,142,,,,,,,,,,,,,,62831.853071795863798,314159265.358979284763336
143,0,143,142,Nordeste,NA,Salgema,-9.679629000000000,-35.718974000000003,NA,NA,NA,NA,NA,10000.000000000000000,143,143,,,,,,,,,,,,,,62831.853071795863798,314159265.358979284763336
144,0,144,143,Nordeste,NA,Pier do Emissario,-9.673301000000000,-35.715234000000002,NA,NA,NA,NA,NA,10000.000000000000000,144,144,,,,,,,,,,,,,,62831.853071795863798,314159265.358979284763336
145,0,145,144,Nordeste,NA,Praia do Sobral,-9.666869000000000,-35.710735000000000,NA,NA,NA,NA,NA,10000.000000000000000,145,145,,,,,,,,,,,,,,62831.853071795863798,314159265.358979284763336
146,0,146,145,Nordeste,NA,"Pico da Barra, Brazil",-9.665630000000000,-35.697186000000002,NA,NA,NA,NA,NA,10000.000000000000000,146,146,,,,,,,,,,,,,,62831.853071795863798,314159265.358979284763336
147,0,147,146,Nordeste,NA,Pedra Virada,-9.585521999999999,-35.660038000000000,NA,NA,NA,NA,NA,10000.000000000000000,147,147,,,,,,,,,,,,,,62831.853071795863798,314159265.358979284763336
148,0,148,147,Nordeste,NA,Praia de Jatiuca,-9.531449000000000,-35.590927999999998,NA,NA,NA,NA,NA,10000.000000000000000,148,148,,,,,,,,,,,,,,62831.853071795863798,314159265.358979284763336
149,0,149,148,Nordeste,NA,Garca Torta,-9.487114000000000,-35.557476999999999,NA,NA,NA,NA,NA,10000.000000000000000,149,149,,,,,,,,,,,,,,62831.853071795863798,314159265.358979284763336
150,0,150,149,Nordeste,NA,Mirante da Sirena,-9.430906000000000,-35.503683000000002,NA,NA,NA,NA,NA,10000.000000000000000,150,150,,,,,,,,,,,,,,62831.853071795863798,314159265.358979284763336
151,0,151,150,Nordeste,NA,Japaratinga,-9.261582000000001,-35.353366000000001,NA,NA,NA,NA,NA,10000.000000000000000,151,151,,,,,,,,,,,,,,62831.853071795863798,314159265.358979284763336
152,0,152,151,Nordeste,NA,Impossivel,-8.615505000000001,-35.020375000000001,NA,NA,NA,NA,NA,10000.000000000000000,152,152,,,,,,,,,,,,,,62831.853071795863798,314159265.358979284763336
153,0,153,152,Nordeste,NA,Serrambi,-8.576358000000001,-35.028714999999998,NA,NA,NA,NA,NA,10000.000000000000000,153,153,,,,,,,,,,,,,,62831.853071795863798,314159265.358979284763336
154,0,154,153,Nordeste,NA,Porto de Galinhas,-8.488678000000000,-34.999501000000002,NA,NA,NA,NA,NA,10000.000000000000000,154,154,,,,,,,,,,,,,,62831.853071795863798,314159265.358979284763336
155,0,155,154,Nordeste,NA,Cupe,-8.479708000000000,-34.996577000000002,NA,NA,NA,NA,NA,10000.000000000000000,155,155,,,,,,,,,,,,,,62831.853071795863798,314159265.358979284763336
156,0,156,155,Nordeste,NA,Gaibu,-8.341567000000000,-34.948825999999997,NA,NA,NA,NA,NA,10000.000000000000000,156,156,,,,,,,,,,,,,,62831.853071795863798,314159265.358979284763336
157,1,157,156,Nordeste,NA,Bessa,-7.091138000000000,-34.832765000000002,NA,NA,NA,NA,NA,10000.000000000000000,157,157,148,SNJO,João Pessoa,Nacional,Aeroclube,30.000000000000000,1,PB,5.000000000000000,1050.000000000000000,Public,asfalto ou concreto Asfáltico,2507507.000000000000000,62831.853071795863798,314159265.358979284763336
158,0,158,157,Nordeste,NA,Saji,-6.466880000000000,-34.970449000000002,NA,NA,NA,NA,NA,10000.000000000000000,158,158,,,,,,,,,,,,,,62831.853071795863798,314159265.358979284763336
159,0,159,158,Nordeste,NA,Farol,-6.408908000000000,-34.979016999999999,NA,NA,NA,NA,NA,10000.000000000000000,159,159,,,,,,,,,,,,,,62831.853071795863798,314159265.358979284763336
160,0,160,159,Nordeste,NA,Xilauzinho,-6.395101000000000,-34.983204999999998,NA,NA,NA,NA,NA,10000.000000000000000,160,160,,,,,,,,,,,,,,62831.853071795863798,314159265.358979284763336
161,0,161,160,Nordeste,NA,Mar Aberto,-6.379758000000000,-34.989437000000002,NA,NA,NA,NA,NA,10000.000000000000000,161,161,,,,,,,,,,,,,,62831.853071795863798,314159265.358979284763336
162,0,162,161,Nordeste,NA,Pontal,-6.368680000000000,-34.993423999999997,NA,NA,NA,NA,NA,10000.000000000000000,162,162,,,,,,,,,,,,,,62831.853071795863798,314159265.358979284763336
163,0,163,162,Nordeste,NA,Mar da Frente,-6.365217000000000,-35.006211999999998,NA,NA,NA,NA,NA,10000.000000000000000,163,163,,,,,,,,,,,,,,62831.853071795863798,314159265.358979284763336
164,0,164,163,Nordeste,NA,Lajinha,-6.278960000000000,-35.033028000000002,NA,NA,NA,NA,NA,10000.000000000000000,164,164,,,,,,,,,,,,,,62831.853071795863798,314159265.358979284763336
165,0,165,164,Nordeste,NA,Afogados,-6.244350000000000,-35.036464000000002,NA,NA,NA,NA,NA,10000.000000000000000,165,165,,,,,,,,,,,,,,62831.853071795863798,314159265.358979284763336
166,0,166,165,Nordeste,NA,Sororoca,-6.238074000000000,-35.035608000000003,NA,NA,NA,NA,NA,10000.000000000000000,166,166,,,,,,,,,,,,,,62831.853071795863798,314159265.358979284763336
167,0,167,166,Nordeste,NA,Abacateiro,-6.233891000000000,-35.036746999999998,NA,NA,NA,NA,NA,10000.000000000000000,167,167,,,,,,,,,,,,,,62831.853071795863798,314159265.358979284763336
168,0,168,167,Nordeste,NA,Tibau do Sul,-6.180279000000000,-35.089708999999999,NA,NA,NA,NA,NA,10000.000000000000000,168,168,,,,,,,,,,,,,,62831.853071795863798,314159265.358979284763336
169,0,169,168,Nordeste,NA,Tabatinga,-6.049479000000000,-35.108238000000000,NA,NA,NA,NA,NA,10000.000000000000000,169,169,,,,,,,,,,,,,,62831.853071795863798,314159265.358979284763336
170,0,170,169,Nordeste,NA,Xoxoline,-6.005800000000000,-35.105258999999997,NA,NA,NA,NA,NA,10000.000000000000000,170,170,,,,,,,,,,,,,,62831.853071795863798,314159265.358979284763336
171,0,171,170,Nordeste,NA,Pirangi Reef,-5.980259000000000,-35.107796000000000,NA,NA,NA,NA,NA,10000.000000000000000,171,171,,,,,,,,,,,,,,62831.853071795863798,314159265.358979284763336
172,0,172,171,Nordeste,NA,Cotovelo,-5.949906000000000,-35.151975000000000,NA,NA,NA,NA,NA,10000.000000000000000,172,172,,,,,,,,,,,,,,62831.853071795863798,314159265.358979284763336
173,0,173,172,Nordeste,NA,Miami,-5.794834000000000,-35.181663999999998,NA,NA,NA,NA,NA,10000.000000000000000,173,173,,,,,,,,,,,,,,62831.853071795863798,314159265.358979284763336
174,0,174,173,Nordeste,NA,Areia Preta,-5.792249000000000,-35.184387000000001,NA,NA,NA,NA,NA,10000.000000000000000,174,174,,,,,,,,,,,,,,62831.853071795863798,314159265.358979284763336
175,0,175,174,Nordeste,NA,Praia dos Artistas,-5.781239000000000,-35.192050000000002,NA,NA,NA,NA,NA,10000.000000000000000,175,175,,,,,,,,,,,,,,62831.853071795863798,314159265.358979284763336
176,0,176,175,Nordeste,NA,Genipabu,-5.694407000000000,-35.201922000000003,NA,NA,NA,NA,NA,10000.000000000000000,176,176,,,,,,,,,,,,,,62831.853071795863798,314159265.358979284763336
177,0,177,176,Nordeste,NA,Touros Area,-5.197434000000000,-35.457929999999998,NA,NA,NA,NA,NA,10000.000000000000000,177,177,,,,,,,,,,,,,,62831.853071795863798,314159265.358979284763336
178,0,178,177,Nordeste,NA,Urca da Concei&ccedil;&atilde;o,-5.069617000000000,-35.800230999999997,NA,NA,NA,NA,NA,10000.000000000000000,178,178,,,,,,,,,,,,,,62831.853071795863798,314159265.358979284763336
179,0,179,178,Nordeste,NA,Cocoa das Lavadeiras,-5.066515000000000,-35.862005000000003,NA,NA,NA,NA,NA,10000.000000000000000,179,179,,,,,,,,,,,,,,62831.853071795863798,314159265.358979284763336
180,1,180,179,Nordeste,NA,Baia das Ratas,-3.813000000000000,-32.393000000000001,NA,NA,NA,NA,NA,10000.000000000000000,180,180,153,SBFN,Fernando de Noronha,Nacional,Fernando de Noronha,45.000000000000000,1,PE,58.000000000000000,1845.000000000000000,Public,asfalto ou concreto Asfáltico,2605459.000000000000000,62831.853071795863798,314159265.358979284763336
181,1,181,180,Nordeste,NA,Volta da Jurema,-3.724294000000000,-38.496071999999998,NA,NA,NA,NA,NA,10000.000000000000000,181,181,2621,SBFZ,Fortaleza,Internacional,Pinto Martins,45.000000000000000,1,CE,25.000000000000000,2545.000000000000000,Public,asfalto ou concreto Asfáltico,2304400.000000000000000,62831.853071795863798,314159265.358979284763336
182,1,182,181,Nordeste,NA,Portao,-3.719326000000000,-38.510655000000000,NA,NA,NA,NA,NA,10000.000000000000000,182,182,2621,SBFZ,Fortaleza,Internacional,Pinto Martins,45.000000000000000,1,CE,25.000000000000000,2545.000000000000000,Public,asfalto ou concreto Asfáltico,2304400.000000000000000,62831.853071795863798,314159265.358979284763336
183,0,183,182,Nordeste,NA,Barra do Ceara,-3.692659000000000,-38.584716000000000,NA,NA,NA,NA,NA,10000.000000000000000,183,183,,,,,,,,,,,,,,62831.853071795863798,314159265.358979284763336
184,0,184,183,Nordeste,NA,Praia do Pecem,-3.546170000000000,-38.806919000000001,NA,NA,NA,NA,NA,10000.000000000000000,184,184,,,,,,,,,,,,,,62831.853071795863798,314159265.358979284763336
185,0,185,184,Nordeste,NA,Tabinha,-3.500935000000000,-38.911282000000000,NA,NA,NA,NA,NA,10000.000000000000000,185,185,,,,,,,,,,,,,,62831.853071795863798,314159265.358979284763336
186,0,186,185,Nordeste,NA,Pedra do Meio,-3.410858000000000,-39.040807000000001,NA,NA,NA,NA,NA,10000.000000000000000,186,186,,,,,,,,,,,,,,62831.853071795863798,314159265.358979284763336
187,0,187,186,Nordeste,NA,Havaizinho,-3.403507000000000,-39.022171000000000,NA,NA,NA,NA,NA,10000.000000000000000,187,187,,,,,,,,,,,,,,62831.853071795863798,314159265.358979284763336
188,0,188,187,Nordeste,NA,Curral,-3.403353000000000,-39.025868000000003,NA,NA,NA,NA,NA,10000.000000000000000,188,188,,,,,,,,,,,,,,62831.853071795863798,314159265.358979284763336
189,0,189,188,Nordeste,NA,Outside,-3.398539000000000,-39.013306000000000,NA,NA,NA,NA,NA,10000.000000000000000,189,189,,,,,,,,,,,,,,62831.853071795863798,314159265.358979284763336
190,0,190,189,Nordeste,NA,Atins,-2.555789000000000,-42.727836000000003,NA,NA,NA,NA,NA,10000.000000000000000,190,190,,,,,,,,,,,,,,62831.853071795863798,314159265.358979284763336
191,0,191,190,Nordeste,NA,Ponta d'Areia,-2.497384000000000,-44.311779000000001,NA,NA,NA,NA,NA,10000.000000000000000,191,191,,,,,,,,,,,,,,62831.853071795863798,314159265.358979284763336
192,0,192,191,Nordeste,NA,S&atilde;o Marcos,-2.485445000000000,-44.297899999999998,NA,NA,NA,NA,NA,10000.000000000000000,192,192,,,,,,,,,,,,,,62831.853071795863798,314159265.358979284763336
193,0,193,192,Nordeste,NA,Calhau,-2.480673000000000,-44.249679999999998,NA,NA,NA,NA,NA,10000.000000000000000,193,193,,,,,,,,,,,,,,62831.853071795863798,314159265.358979284763336
194,0,194,193,Nordeste,NA,Olho D'Agu,-2.477097000000000,-44.230155000000003,NA,NA,NA,NA,NA,10000.000000000000000,194,194,,,,,,,,,,,,,,62831.853071795863798,314159265.358979284763336
195,0,195,194,Nordeste,NA,Ponta do Farol,-2.456442000000000,-44.173347999999997,NA,NA,NA,NA,NA,10000.000000000000000,195,195,,,,,,,,,,,,,,62831.853071795863798,314159265.358979284763336
196,0,196,195,Sul,Rio Grande Do Sul,Hermenegildo,-33.668354000000001,-53.262405000000001,3,3,Right and left,Beach-break,All surfers,10000.000000000000000,196,196,,,,,,,,,,,,,,62831.853071795863798,314159265.358979284763336
197,0,197,196,Sul,Rio Grande Do Sul,Navio,-32.290560999999997,-52.258674999999997,3,2,Right and left,Beach-break,All surfers,10000.000000000000000,197,197,,,,,,,,,,,,,,62831.853071795863798,314159265.358979284763336
198,0,198,197,Sul,Rio Grande Do Sul,Tres Marias,-32.192610999999999,-52.085065999999998,5,2,Right and left,Sand-bar,Pros or kamikaze only...,10000.000000000000000,198,198,,,,,,,,,,,,,,62831.853071795863798,314159265.358979284763336
199,0,199,198,Sul,Rio Grande Do Sul,Praia do Cassino,-32.178336999999999,-52.142142999999997,3,2,Right and left,Sand-bar,All surfers,10000.000000000000000,199,199,,,,,,,,,,,,,,62831.853071795863798,314159265.358979284763336
200,0,200,199,Sul,Rio Grande Do Sul,Sao Jose do Norte,-32.008076000000003,-52.018889999999999,3,NA,Right and left,Beach-break,All surfers,10000.000000000000000,200,200,,,,,,,,,,,,,,62831.853071795863798,314159265.358979284763336
201,0,201,200,Sul,Rio Grande Do Sul,Quintão,-30.410782000000001,-50.292664000000002,3.5,3,Right and left,Sand-bar,Experienced surfers,10000.000000000000000,201,201,,,,,,,,,,,,,,62831.853071795863798,314159265.358979284763336
202,0,202,201,Sul,Rio Grande Do Sul,Nova Tramandaí,-30.045256999999999,-50.150033999999998,3,3,Right and left,Beach-break,All surfers,10000.000000000000000,202,202,,,,,,,,,,,,,,62831.853071795863798,314159265.358979284763336
203,0,203,202,Sul,Rio Grande Do Sul,Oasis Sul,-30.039822999999998,-50.147266000000002,3,3,Right and left,Beach-break,All surfers,10000.000000000000000,203,203,,,,,,,,,,,,,,62831.853071795863798,314159265.358979284763336
204,0,204,203,Sul,Rio Grande Do Sul,Tramandai - Malvina,-30.005490000000002,-50.129156000000002,3.5,3,Right and left,Beach-break,All surfers,10000.000000000000000,204,204,,,,,,,,,,,,,,62831.853071795863798,314159265.358979284763336
205,0,205,204,Sul,Rio Grande Do Sul,Tramandai,-29.993077000000000,-50.125508000000004,3,3,Right and left,Beach-break,All surfers,10000.000000000000000,205,205,,,,,,,,,,,,,,62831.853071795863798,314159265.358979284763336
206,0,206,205,Sul,Rio Grande Do Sul,Rainha do Mar,-29.859477999999999,-50.064568999999999,3.5,5,Right and left,Beach-break,All surfers,10000.000000000000000,206,206,,,,,,,,,,,,,,62831.853071795863798,314159265.358979284763336
207,1,207,206,Sul,Rio Grande Do Sul,Xangri-lá,-29.785982000000001,-50.024636000000001,3,3,Right and left,Beach-break,All surfers,10000.000000000000000,207,207,399,SSKK,Capão da Canoa,Nacional,Capão da Canoa,80.000000000000000,1,RS,10.000000000000000,700.000000000000000,Public,grama,4304630.000000000000000,62831.853071795863798,314159265.358979284763336
208,1,208,207,Sul,Rio Grande Do Sul,Atlântida - Pier,-29.784716000000000,-50.022554000000000,3,3,Right and left,Sand-bar,All surfers,10000.000000000000000,208,208,399,SSKK,Capão da Canoa,Nacional,Capão da Canoa,80.000000000000000,1,RS,10.000000000000000,700.000000000000000,Public,grama,4304630.000000000000000,62831.853071795863798,314159265.358979284763336
209,1,209,208,Sul,Rio Grande Do Sul,Capao da Canoa,-29.758676999999999,-50.010967000000001,3,3,Right and left,Sand-bar,All surfers,10000.000000000000000,209,209,399,SSKK,Capão da Canoa,Nacional,Capão da Canoa,80.000000000000000,1,RS,10.000000000000000,700.000000000000000,Public,grama,4304630.000000000000000,62831.853071795863798,314159265.358979284763336
210,0,210,209,Sul,Rio Grande Do Sul,Capao Novo,-29.686972000000001,-49.972558999999997,3,3,Right and left,Beach-break,All surfers,10000.000000000000000,210,210,,,,,,,,,,,,,,62831.853071795863798,314159265.358979284763336
211,0,211,210,Sul,Rio Grande Do Sul,Curumim,-29.625605000000000,-49.935744999999997,3,4,Right and left,Beach-break,Experienced surfers,10000.000000000000000,211,211,,,,,,,,,,,,,,62831.853071795863798,314159265.358979284763336
212,1,212,211,Sul,Rio Grande Do Sul,Itapeva,-29.372975000000000,-49.784109999999998,3,3,Right and left,Beach-break,All surfers,10000.000000000000000,212,212,2394,SBTR,Torres,Nacional,Torres,30.000000000000000,1,RS,8.000000000000000,1500.000000000000000,Public,asfalto ou concreto Asfáltico,4321501.000000000000000,62831.853071795863798,314159265.358979284763336
213,0,213,212,Sul,Rio Grande Do Sul,Guarita,-29.357804999999999,-49.733997000000002,3,2,Right and left,Beach-break,All surfers,10000.000000000000000,213,213,,,,,,,,,,,,,,62831.853071795863798,314159265.358979284763336
214,0,214,213,Sul,Rio Grande Do Sul,Cal,-29.349421000000000,-49.729849999999999,3.5,3,Right and left,Beach-break,All surfers,10000.000000000000000,214,214,,,,,,,,,,,,,,62831.853071795863798,314159265.358979284763336
215,0,215,214,Sul,Rio Grande Do Sul,Ilha dos Lobos,-29.346876999999999,-49.704411999999998,5,2,Left,Reef-rocky,Pros or kamikaze only...,10000.000000000000000,215,215,,,,,,,,,,,,,,62831.853071795863798,314159265.358979284763336
216,0,216,215,Sul,Rio Grande Do Sul,Prainha,-29.342434999999998,-49.724497000000000,3.5,3,Right and left,Beach-break,Experienced surfers,10000.000000000000000,216,216,,,,,,,,,,,,,,62831.853071795863798,314159265.358979284763336
217,0,217,216,Sul,Rio Grande Do Sul,Saraiva,-29.340395999999998,-49.723241000000002,3.5,3,Right and left,Beach-break,Experienced surfers,10000.000000000000000,217,217,,,,,,,,,,,,,,62831.853071795863798,314159265.358979284763336
218,0,218,217,Sul,Rio Grande Do Sul,Molhes,-29.327311000000002,-49.712007999999997,3.5,3,Right and left,Beach-break,All surfers,10000.000000000000000,218,218,,,,,,,,,,,,,,62831.853071795863798,314159265.358979284763336
219,0,219,218,Sul,Rio Grande Do Sul,Passo de Torres,-29.324159000000002,-49.712415999999997,3.5,2,Right and left,Rivermouth,Experienced surfers,10000.000000000000000,219,219,,,,,,,,,,,,,,62831.853071795863798,314159265.358979284763336
220,0,220,219,Sul,Santa Catarina South,Gaivota,-29.164828000000000,-49.582157000000002,3,2,Right and left,Beach-break,Experienced surfers,10000.000000000000000,220,220,,,,,,,,,,,,,,62831.853071795863798,314159265.358979284763336
221,0,221,220,Sul,Santa Catarina South,Arroio do Silva,-28.943866000000000,-49.385604999999998,3.5,2,Right and left,Beach-break,Experienced surfers,10000.000000000000000,221,221,,,,,,,,,,,,,,62831.853071795863798,314159265.358979284763336
222,0,222,221,Sul,Santa Catarina South,Morro dos Conventos,-28.937256000000001,-49.329642999999997,3.5,3,Right and left,Beach-break,All surfers,10000.000000000000000,222,222,,,,,,,,,,,,,,62831.853071795863798,314159265.358979284763336
223,0,223,222,Sul,Santa Catarina South,Rincão,-28.833846999999999,-49.216003000000001,3.5,4,Right and left,Beach-break,Experienced surfers,10000.000000000000000,223,223,,,,,,,,,,,,,,62831.853071795863798,314159265.358979284763336
224,0,224,223,Sul,Santa Catarina South,Jaguaruna,-28.635157000000000,-48.948211999999998,3.5,3,Right and left,Beach-break,All surfers,10000.000000000000000,224,224,,,,,,,,,,,,,,62831.853071795863798,314159265.358979284763336
225,0,225,224,Sul,Santa Catarina South,Camacho,-28.615946000000001,-48.859506000000003,3,2,NA,Beach-break,All surfers,10000.000000000000000,225,225,,,,,,,,,,,,,,62831.853071795863798,314159265.358979284763336
226,0,226,225,Sul,Santa Catarina South,Cigana,-28.613534999999999,-48.845387000000002,3,3,Right and left,Beach-break,Experienced surfers,10000.000000000000000,226,226,,,,,,,,,,,,,,62831.853071795863798,314159265.358979284763336
227,0,227,226,Sul,Santa Catarina South,Cardozo,-28.607516000000000,-48.822994999999999,3.5,4,Right and left,Beach-break,All surfers,10000.000000000000000,227,227,,,,,,,,,,,,,,62831.853071795863798,314159265.358979284763336
228,0,228,227,Sul,Santa Catarina South,Cemiterio,-28.604341999999999,-48.811998000000003,5,1,Right,Point-break,Pros or kamikaze only...,10000.000000000000000,228,228,,,,,,,,,,,,,,62831.853071795863798,314159265.358979284763336
229,0,229,228,Sul,Santa Catarina South,Prainha do Farol,-28.600442000000001,-48.816654999999997,3,1,Right,Beach-break,All surfers,10000.000000000000000,229,229,,,,,,,,,,,,,,62831.853071795863798,314159265.358979284763336
230,0,230,229,Sul,Santa Catarina South,Ipoa,-28.536688999999999,-48.765521000000000,3,4,Right and left,Beach-break,All surfers,10000.000000000000000,230,230,,,,,,,,,,,,,,62831.853071795863798,314159265.358979284763336
231,0,231,230,Sul,Santa Catarina South,Teresa,-28.524982000000001,-48.762453000000001,3,3,Right and left,Beach-break,All surfers,10000.000000000000000,231,231,,,,,,,,,,,,,,62831.853071795863798,314159265.358979284763336
232,0,232,231,Sul,Santa Catarina South,Praia de Cima,-28.497350000000001,-48.748752000000003,3.5,2,Right and left,Beach-break,All surfers,10000.000000000000000,232,232,,,,,,,,,,,,,,62831.853071795863798,314159265.358979284763336
233,0,233,232,Sul,Santa Catarina South,Laguna,-28.473973000000001,-48.762645999999997,3.5,3,Right and left,Beach-break,All surfers,10000.000000000000000,233,233,,,,,,,,,,,,,,62831.853071795863798,314159265.358979284763336
234,1,234,233,Sul,Santa Catarina South,Cavalinho,-28.419032000000001,-48.744278000000001,3.5,3,Right,Point-break,Experienced surfers,10000.000000000000000,234,234,2344,SSLA,Laguna,Nacional,Laguna,23.000000000000000,1,SC,6.000000000000000,1500.000000000000000,Public,saibro,4209409.000000000000000,62831.853071795863798,314159265.358979284763336
235,1,235,234,Sul,Santa Catarina South,Itapirubá,-28.342309000000000,-48.707799999999999,3.5,4,Right and left,Beach-break,All surfers,10000.000000000000000,235,235,2344,SSLA,Laguna,Nacional,Laguna,23.000000000000000,1,SC,6.000000000000000,1500.000000000000000,Public,saibro,4209409.000000000000000,62831.853071795863798,314159265.358979284763336
236,1,236,235,Sul,Santa Catarina South,Itapirubá Norte,-28.336776000000000,-48.704709999999999,3.5,3,Right and left,Beach-break,All surfers,10000.000000000000000,236,236,2344,SSLA,Laguna,Nacional,Laguna,23.000000000000000,1,SC,6.000000000000000,1500.000000000000000,Public,saibro,4209409.000000000000000,62831.853071795863798,314159265.358979284763336
237,0,237,236,Sul,Santa Catarina South,Castelinho,-28.256232000000001,-48.672694999999997,4,4,Right and left,Beach-break,Experienced surfers,10000.000000000000000,237,237,,,,,,,,,,,,,,62831.853071795863798,314159265.358979284763336
238,0,238,237,Sul,Santa Catarina South,Praia da Vila,-28.241149000000000,-48.653877000000001,4,4,Right and left,Sand-bar,Experienced surfers,10000.000000000000000,238,238,,,,,,,,,,,,,,62831.853071795863798,314159265.358979284763336
239,0,239,238,Sul,Santa Catarina South,Ribanceira,-28.191742000000001,-48.661344000000000,3,2,Right and left,Sand-bar,All surfers,10000.000000000000000,239,239,,,,,,,,,,,,,,62831.853071795863798,314159265.358979284763336
240,0,240,239,Sul,Santa Catarina South,Ibiraquera,-28.153732000000002,-48.645895000000003,4,4,Right and left,Point-break,Experienced surfers,10000.000000000000000,240,240,,,,,,,,,,,,,,62831.853071795863798,314159265.358979284763336
241,0,241,240,Sul,Santa Catarina South,Rosa Sul,-28.135401999999999,-48.642691999999997,3.5,4,Right and left,Beach-break,All surfers,10000.000000000000000,241,241,,,,,,,,,,,,,,62831.853071795863798,314159265.358979284763336
242,0,242,241,Sul,Santa Catarina South,Rosa Norte,-28.124375000000001,-48.637675999999999,3.5,2,Right and left,Beach-break,All surfers,10000.000000000000000,242,242,,,,,,,,,,,,,,62831.853071795863798,314159265.358979284763336
243,0,243,242,Sul,Santa Catarina South,Vermelha,-28.114457999999999,-48.635573000000001,3.5,2,Left,Beach-break,Experienced surfers,10000.000000000000000,243,243,,,,,,,,,,,,,,62831.853071795863798,314159265.358979284763336
244,0,244,243,Sul,Santa Catarina South,Ouvidor,-28.105449000000000,-48.635272999999998,2,2,Right and left,Beach-break,Beginners wave,10000.000000000000000,244,244,,,,,,,,,,,,,,62831.853071795863798,314159265.358979284763336
245,0,245,244,Sul,Santa Catarina South,Barrinha,-28.085384000000001,-48.630896000000000,3.5,3,Right and left,Beach-break,NA,10000.000000000000000,245,245,,,,,,,,,,,,,,62831.853071795863798,314159265.358979284763336
246,0,246,245,Sul,Santa Catarina South,Ferrugem,-28.077736000000002,-48.626604000000000,3.5,4,Right and left,Sand-bar,All surfers,10000.000000000000000,246,246,,,,,,,,,,,,,,62831.853071795863798,314159265.358979284763336
247,0,247,246,Sul,Santa Catarina South,Praia do Silveira,-28.039069000000001,-48.606862999999997,4,4,Right,Point-break,Pros or kamikaze only...,10000.000000000000000,247,247,,,,,,,,,,,,,,62831.853071795863798,314159265.358979284763336
248,0,248,247,Sul,Santa Catarina South,Garopaba Centro,-28.021577000000001,-48.619447999999998,3,2,Right and left,Beach-break,All surfers,10000.000000000000000,248,248,,,,,,,,,,,,,,62831.853071795863798,314159265.358979284763336
249,0,249,248,Sul,Santa Catarina South,Siriu,-27.976248999999999,-48.627999000000003,3.5,3,Right and left,Beach-break,All surfers,10000.000000000000000,249,249,,,,,,,,,,,,,,62831.853071795863798,314159265.358979284763336
250,0,250,249,Sul,Santa Catarina South,Gamboa,-27.958926999999999,-48.624662000000001,3.5,1,Right and left,Beach-break,All surfers,10000.000000000000000,250,250,,,,,,,,,,,,,,62831.853071795863798,314159265.358979284763336
251,0,251,250,Sul,Santa Catarina South,Guarda do embau,-27.905540999999999,-48.586779000000000,4,3,Left,Rivermouth,Experienced surfers,10000.000000000000000,251,251,,,,,,,,,,,,,,62831.853071795863798,314159265.358979284763336
252,0,252,251,Sul,Santa Catarina South,Costão da Pinheira,-27.881077000000001,-48.586542999999999,3.5,1,Right,Point-break,Experienced surfers,10000.000000000000000,252,252,,,,,,,,,,,,,,62831.853071795863798,314159265.358979284763336
253,0,253,252,Sul,Florianopolis,Naufragados,-27.834740000000000,-48.566747999999997,5,3,Right,Beach-break,Pros or kamikaze only...,10000.000000000000000,253,253,,,,,,,,,,,,,,62831.853071795863798,314159265.358979284763336
254,0,254,253,Sul,Santa Catarina South,Solidao - Caladinho,-27.793519000000000,-48.533456000000001,3.5,3,Right,Point-break,Experienced surfers,10000.000000000000000,254,254,,,,,,,,,,,,,,62831.853071795863798,314159265.358979284763336
255,0,255,254,Sul,Santa Catarina South,Praia dos Açores,-27.784758000000000,-48.525989000000003,3,3,Right and left,Beach-break,All surfers,10000.000000000000000,255,255,,,,,,,,,,,,,,62831.853071795863798,314159265.358979284763336
256,0,256,255,Sul,Florianopolis,Lagoinha do Leste,-27.773575999999998,-48.486528000000000,3.5,4,Right and left,Beach-break,All surfers,10000.000000000000000,256,256,,,,,,,,,,,,,,62831.853071795863798,314159265.358979284763336
257,0,257,256,Sul,Florianopolis,Matadeiro,-27.755140000000001,-48.498522999999999,3.5,4,Right and left,Beach-break,Experienced surfers,10000.000000000000000,257,257,,,,,,,,,,,,,,62831.853071795863798,314159265.358979284763336
258,0,258,257,Sul,Florianopolis,Armação,-27.741619000000000,-48.508114999999997,3,2,Right and left,Beach-break,All surfers,10000.000000000000000,258,258,,,,,,,,,,,,,,62831.853071795863798,314159265.358979284763336
259,1,259,258,Sul,Florianopolis,Caldeirao,-27.723690000000001,-48.504595999999999,3.5,3,Left,Beach-break,Experienced surfers,10000.000000000000000,259,259,2634,SBFL,Florianópolis,Internacional,Hercílio Luz,45.000000000000000,2,SC,5.000000000000000,2300.000000000000000,Public,asfalto ou concreto Asfáltico,4205407.000000000000000,62831.853071795863798,314159265.358979284763336
260,1,260,259,Sul,Florianopolis,Morro das Pedras,-27.715522000000000,-48.502257000000000,3,4,Right and left,Sand-bar,Experienced surfers,10000.000000000000000,260,260,2634,SBFL,Florianópolis,Internacional,Hercílio Luz,45.000000000000000,2,SC,5.000000000000000,2300.000000000000000,Public,asfalto ou concreto Asfáltico,4205407.000000000000000,62831.853071795863798,314159265.358979284763336
261,1,261,260,Sul,Florianopolis,Campeche Rights,-27.693864000000001,-48.482686999999999,4,2,Right,Sand-bar,Experienced surfers,10000.000000000000000,261,261,2634,SBFL,Florianópolis,Internacional,Hercílio Luz,45.000000000000000,2,SC,5.000000000000000,2300.000000000000000,Public,asfalto ou concreto Asfáltico,4205407.000000000000000,62831.853071795863798,314159265.358979284763336
262,1,262,261,Sul,Florianopolis,Riozinho,-27.685523000000000,-48.479598000000003,5,3,Right and left,Beach-break,Experienced surfers,10000.000000000000000,262,262,2634,SBFL,Florianópolis,Internacional,Hercílio Luz,45.000000000000000,2,SC,5.000000000000000,2300.000000000000000,Public,asfalto ou concreto Asfáltico,4205407.000000000000000,62831.853071795863798,314159265.358979284763336
263,0,263,262,Sul,Florianopolis,Joaquina,-27.629588999999999,-48.448768000000001,4,4,Left,Sand-bar,Experienced surfers,10000.000000000000000,263,263,,,,,,,,,,,,,,62831.853071795863798,314159265.358979284763336
264,0,264,263,Sul,Florianopolis,Praia Mole,-27.602475999999999,-48.432583999999999,3.5,3,Right and left,Sand-bar,All surfers,10000.000000000000000,264,264,,,,,,,,,,,,,,62831.853071795863798,314159265.358979284763336
265,0,265,264,Sul,Florianopolis,Galheta,-27.593482000000002,-48.425224000000000,3.5,4,Right and left,Beach-break,All surfers,10000.000000000000000,265,265,,,,,,,,,,,,,,62831.853071795863798,314159265.358979284763336
266,0,266,265,Sul,Florianopolis,Barra da Lagoa,-27.572818000000002,-48.424376000000002,3,3,Right and left,Beach-break,Beginners wave,10000.000000000000000,266,266,,,,,,,,,,,,,,62831.853071795863798,314159265.358979284763336
267,0,267,266,Sul,Florianopolis,Mocambique,-27.525323000000000,-48.410567999999998,3.5,4,Right and left,Beach-break,All surfers,10000.000000000000000,267,267,,,,,,,,,,,,,,62831.853071795863798,314159265.358979284763336
268,0,268,267,Sul,Santa Catarina South,Ponta das Aranhas,-27.482099999999999,-48.380892000000003,3.5,4,Right and left,Beach-break,All surfers,10000.000000000000000,268,268,,,,,,,,,,,,,,62831.853071795863798,314159265.358979284763336
269,0,269,268,Sul,Florianopolis,Santinho,-27.457940000000001,-48.372630999999998,3.5,4,Right and left,Beach-break,Experienced surfers,10000.000000000000000,269,269,,,,,,,,,,,,,,62831.853071795863798,314159265.358979284763336
270,0,270,269,Sul,Florianopolis,Canasvieiras,-27.430966000000002,-48.479661999999998,3.5,1,Right,Sand-bar,All surfers,10000.000000000000000,270,270,,,,,,,,,,,,,,62831.853071795863798,314159265.358979284763336
271,0,271,270,Sul,Florianopolis,Praia do Forte,-27.430747000000000,-48.519658999999997,3.5,1,Right,Point-break,All surfers,10000.000000000000000,271,271,,,,,,,,,,,,,,62831.853071795863798,314159265.358979284763336
272,0,272,271,Sul,Florianopolis,Ingleses,-27.429832999999999,-48.390569999999997,3,2,Right and left,Beach-break,All surfers,10000.000000000000000,272,272,,,,,,,,,,,,,,62831.853071795863798,314159265.358979284763336
273,0,273,272,Sul,Florianopolis,Praia Brava,-27.400804000000001,-48.413401000000000,3.5,3,Right and left,Beach-break,Experienced surfers,10000.000000000000000,273,273,,,,,,,,,,,,,,62831.853071795863798,314159265.358979284763336
274,0,274,273,Sul,Santa Catarina South,Praia Brava,-27.396440999999999,-48.414130000000000,3,4,Right and left,Sand-bar,All surfers,10000.000000000000000,274,274,,,,,,,,,,,,,,62831.853071795863798,314159265.358979284763336
275,0,275,274,Sul,Florianopolis,Lambe lambe,-27.387601000000000,-48.433185000000002,4,1,Right,Point-break,Experienced surfers,10000.000000000000000,275,275,,,,,,,,,,,,,,62831.853071795863798,314159265.358979284763336
276,0,276,275,Sul,Florianopolis,Ponta Do Rapa,-27.380837000000000,-48.420524999999998,4,1,Right,Reef-rocky,Pros or kamikaze only...,10000.000000000000000,276,276,,,,,,,,,,,,,,62831.853071795863798,314159265.358979284763336
277,0,277,276,Sul,Santa Catarina North,Tingua,-27.368165999999999,-48.532501000000003,3.5,1,Left,Beach-break,Experienced surfers,10000.000000000000000,277,277,,,,,,,,,,,,,,62831.853071795863798,314159265.358979284763336
278,0,278,277,Sul,Santa Catarina North,Palmas,-27.321984000000000,-48.535451999999999,3.5,2,Right and left,Beach-break,Experienced surfers,10000.000000000000000,278,278,,,,,,,,,,,,,,62831.853071795863798,314159265.358979284763336
279,0,279,278,Sul,Santa Catarina North,Mariscal,-27.166504000000000,-48.494833000000000,3.5,3,Right and left,Beach-break,All surfers,10000.000000000000000,279,279,,,,,,,,,,,,,,62831.853071795863798,314159265.358979284763336
280,0,280,279,Sul,Santa Catarina North,Quatro Ilhas,-27.156195000000000,-48.482923999999997,3.5,3,Right,Point-break,Experienced surfers,10000.000000000000000,280,280,,,,,,,,,,,,,,62831.853071795863798,314159265.358979284763336
281,0,281,280,Sul,Santa Catarina North,Bombinhas,-27.148367000000000,-48.489531999999997,2,2,Right and left,Beach-break,Beginners wave,10000.000000000000000,281,281,,,,,,,,,,,,,,62831.853071795863798,314159265.358979284763336
282,0,282,281,Sul,Santa Catarina North,Bombas,-27.140118000000001,-48.506784000000003,3,2,Right and left,Beach-break,All surfers,10000.000000000000000,282,282,,,,,,,,,,,,,,62831.853071795863798,314159265.358979284763336
283,0,283,282,Sul,Santa Catarina North,Meia Praia,-27.104825000000002,-48.609009000000000,3,3,Right and left,Sand-bar,All surfers,10000.000000000000000,283,283,,,,,,,,,,,,,,62831.853071795863798,314159265.358979284763336
284,0,284,283,Sul,Santa Catarina North,Itapema,-27.095541000000001,-48.609738000000000,3,3,Right and left,Beach-break,All surfers,10000.000000000000000,284,284,,,,,,,,,,,,,,62831.853071795863798,314159265.358979284763336
285,0,285,284,Sul,Santa Catarina North,Ponta do Cabeço,-27.093436000000001,-48.601959999999998,4,2,Left,Reef-rocky,Experienced surfers,10000.000000000000000,285,285,,,,,,,,,,,,,,62831.853071795863798,314159265.358979284763336
286,0,286,285,Sul,Santa Catarina North,Mocó,-27.080182000000001,-48.588451999999997,4,2,Left,Reef-rocky,Experienced surfers,10000.000000000000000,286,286,,,,,,,,,,,,,,62831.853071795863798,314159265.358979284763336
287,0,287,286,Sul,Santa Catarina North,Estaleirinho,-27.049112000000001,-48.586779000000000,3,4,Right and left,Beach-break,Pros or kamikaze only...,10000.000000000000000,287,287,,,,,,,,,,,,,,62831.853071795863798,314159265.358979284763336
288,0,288,287,Sul,Santa Catarina North,Estaleiro (reef),-27.025050000000000,-48.574064999999997,3.5,2,Left,Reef-rocky,Experienced surfers,10000.000000000000000,288,288,,,,,,,,,,,,,,62831.853071795863798,314159265.358979284763336
289,0,289,288,Sul,Santa Catarina North,Balneário Camboriú,-26.987711999999998,-48.629950999999998,3,3,Right and left,Beach-break,All surfers,10000.000000000000000,289,289,,,,,,,,,,,,,,62831.853071795863798,314159265.358979284763336
290,0,290,289,Sul,Santa Catarina North,Parcel,-26.976469000000002,-48.623170999999999,4,1,Right and left,Reef-rocky,Pros or kamikaze only...,10000.000000000000000,290,290,,,,,,,,,,,,,,62831.853071795863798,314159265.358979284763336
291,0,291,290,Sul,Santa Catarina North,Praia dos Amores,-26.957191000000002,-48.629221999999999,3,2,Right and left,Beach-break,Experienced surfers,10000.000000000000000,291,291,,,,,,,,,,,,,,62831.853071795863798,314159265.358979284763336
292,1,292,291,Sul,Santa Catarina North,Praia Brava,-26.941659999999999,-48.628234999999997,3,3,Right and left,Beach-break,Experienced surfers,10000.000000000000000,292,292,2635,SBNF,Navegantes,Internacional,Ministro Victor Konder,45.000000000000000,1,SC,5.000000000000000,1701.000000000000000,Public,asfalto ou concreto Asfáltico,4211306.000000000000000,62831.853071795863798,314159265.358979284763336
293,1,293,292,Sul,Santa Catarina North,Morcego,-26.931052000000001,-48.625214999999997,3.5,NA,Left,Point-break,Pros or kamikaze only...,10000.000000000000000,293,293,2635,SBNF,Navegantes,Internacional,Ministro Victor Konder,45.000000000000000,1,SC,5.000000000000000,1701.000000000000000,Public,asfalto ou concreto Asfáltico,4211306.000000000000000,62831.853071795863798,314159265.358979284763336
294,1,294,293,Sul,Santa Catarina North,Atalaia,-26.915163000000000,-48.639361000000001,3.5,2,Left,breakwater/jetty,All surfers,10000.000000000000000,294,294,2635,SBNF,Navegantes,Internacional,Ministro Victor Konder,45.000000000000000,1,SC,5.000000000000000,1701.000000000000000,Public,asfalto ou concreto Asfáltico,4211306.000000000000000,62831.853071795863798,314159265.358979284763336
295,1,295,294,Sul,Santa Catarina North,Pracinha,-26.901883999999999,-48.641613999999997,3.5,4,Right and left,Beach-break,All surfers,10000.000000000000000,295,295,2635,SBNF,Navegantes,Internacional,Ministro Victor Konder,45.000000000000000,1,SC,5.000000000000000,1701.000000000000000,Public,asfalto ou concreto Asfáltico,4211306.000000000000000,62831.853071795863798,314159265.358979284763336
296,1,296,295,Sul,Santa Catarina North,Navegantes,-26.897577999999999,-48.638705999999999,3.5,3,Right and left,Beach-break,All surfers,10000.000000000000000,296,296,2635,SBNF,Navegantes,Internacional,Ministro Victor Konder,45.000000000000000,1,SC,5.000000000000000,1701.000000000000000,Public,asfalto ou concreto Asfáltico,4211306.000000000000000,62831.853071795863798,314159265.358979284763336
297,1,297,296,Sul,Santa Catarina North,Garrincha,-26.858702999999998,-48.634619000000001,3,2,Right and left,Sand-bar,Experienced surfers,10000.000000000000000,297,297,2635,SBNF,Navegantes,Internacional,Ministro Victor Konder,45.000000000000000,1,SC,5.000000000000000,1701.000000000000000,Public,asfalto ou concreto Asfáltico,4211306.000000000000000,62831.853071795863798,314159265.358979284763336
298,1,298,297,Sul,Santa Catarina North,Gravatá (1 e 2),-26.831883000000001,-48.621969000000000,3,3,Right and left,Beach-break,All surfers,10000.000000000000000,298,298,2635,SBNF,Navegantes,Internacional,Ministro Victor Konder,45.000000000000000,1,SC,5.000000000000000,1701.000000000000000,Public,asfalto ou concreto Asfáltico,4211306.000000000000000,62831.853071795863798,314159265.358979284763336
299,1,299,298,Sul,Santa Catarina North,Gravatá,-26.831730000000000,-48.623427999999997,3,3,Right and left,Beach-break,All surfers,10000.000000000000000,299,299,2635,SBNF,Navegantes,Internacional,Ministro Victor Konder,45.000000000000000,1,SC,5.000000000000000,1701.000000000000000,Public,asfalto ou concreto Asfáltico,4211306.000000000000000,62831.853071795863798,314159265.358979284763336
300,0,300,299,Sul,Santa Catarina North,Quilombo,-26.766992999999999,-48.639414000000002,3.5,2,Left,Beach-break,All surfers,10000.000000000000000,300,300,,,,,,,,,,,,,,62831.853071795863798,314159265.358979284763336
301,0,301,300,Sul,Santa Catarina North,Quilombo (reef),-26.765743000000001,-48.640143999999999,3.5,2,Right,Point-break,All surfers,10000.000000000000000,301,301,,,,,,,,,,,,,,62831.853071795863798,314159265.358979284763336
302,0,302,301,Sul,Santa Catarina North,molhe de Piçarras,-26.757026000000000,-48.673434999999998,3,1,Right,Point-break,All surfers,10000.000000000000000,302,302,,,,,,,,,,,,,,62831.853071795863798,314159265.358979284763336
303,0,303,302,Sul,Santa Catarina North,Laje do Jacques,-26.726915999999999,-48.673060000000000,4,2,Right and left,Reef-rocky,Experienced surfers,10000.000000000000000,303,303,,,,,,,,,,,,,,62831.853071795863798,314159265.358979284763336
304,0,304,303,Sul,Santa Catarina North,Syphodys,-26.701371000000002,-48.680247999999999,3,2,Right and left,Beach-break,Experienced surfers,10000.000000000000000,304,304,,,,,,,,,,,,,,62831.853071795863798,314159265.358979284763336
305,0,305,304,Sul,Santa Catarina North,ilha do grants,-26.696031999999999,-48.674990999999999,3.5,1,Left,Reef-rocky,Pros or kamikaze only...,10000.000000000000000,305,305,,,,,,,,,,,,,,62831.853071795863798,314159265.358979284763336
306,0,306,305,Sul,Santa Catarina North,barra de Itajuba,-26.691344999999998,-48.684164000000003,3,1,Right,Point-break,All surfers,10000.000000000000000,306,306,,,,,,,,,,,,,,62831.853071795863798,314159265.358979284763336
307,0,307,306,Sul,Santa Catarina North,Praia do Sol,-26.679962000000000,-48.688166000000002,2,3,Right and left,Point-break,All surfers,10000.000000000000000,307,307,,,,,,,,,,,,,,62831.853071795863798,314159265.358979284763336
308,0,308,307,Sul,Santa Catarina North,Praia do Tabuleiro,-26.643014000000001,-48.682051000000001,3,2,Right and left,Beach-break,Beginners wave,10000.000000000000000,308,308,,,,,,,,,,,,,,62831.853071795863798,314159265.358979284763336
309,0,309,308,Sul,Santa Catarina North,Canoas,-26.639403000000001,-48.682501000000002,2,3,Right and left,Beach-break,Beginners wave,10000.000000000000000,309,309,,,,,,,,,,,,,,62831.853071795863798,314159265.358979284763336
310,0,310,309,Sul,Santa Catarina North,Barrinha,-26.623905000000001,-48.679991000000001,3.5,3,Right and left,Beach-break,All surfers,10000.000000000000000,310,310,,,,,,,,,,,,,,62831.853071795863798,314159265.358979284763336
311,0,311,310,Sul,Santa Catarina North,Foz do Itapocu,-26.580708000000001,-48.663769000000002,3,3,Left,breakwater/jetty,All surfers,10000.000000000000000,311,311,,,,,,,,,,,,,,62831.853071795863798,314159265.358979284763336
312,0,312,311,Sul,Santa Catarina South,Foz do Itapocu,-26.566918999999999,-48.657525000000000,3.5,4,Right and left,Beach-break,All surfers,10000.000000000000000,312,312,,,,,,,,,,,,,,62831.853071795863798,314159265.358979284763336
313,0,313,312,Sul,Santa Catarina North,Praia do Bispo,-26.469248000000000,-48.607056000000000,3,4,Right and left,Beach-break,All surfers,10000.000000000000000,313,313,,,,,,,,,,,,,,62831.853071795863798,314159265.358979284763336
314,0,314,313,Sul,Santa Catarina North,Picama,-26.458086999999999,-48.596874000000000,3,3,Right and left,Sand-bar,Experienced surfers,10000.000000000000000,314,314,,,,,,,,,,,,,,62831.853071795863798,314159265.358979284763336
315,1,315,314,Sul,Santa Catarina North,"Praia Grande, São Francisco do Sul",-26.235880000000002,-48.502600000000001,3,3,Right and left,Beach-break,All surfers,10000.000000000000000,315,315,389,SSSS,São Francisco do Sul,Nacional,São Francisco do Sul,35.000000000000000,1,SC,15.000000000000000,700.000000000000000,Public,grama,4216206.000000000000000,62831.853071795863798,314159265.358979284763336
316,1,316,315,Sul,Santa Catarina South,Praia da Saudade,-26.230606000000002,-48.498888000000001,3.5,4,Right and left,Beach-break,All surfers,10000.000000000000000,316,316,389,SSSS,São Francisco do Sul,Nacional,São Francisco do Sul,35.000000000000000,1,SC,15.000000000000000,700.000000000000000,Public,grama,4216206.000000000000000,62831.853071795863798,314159265.358979284763336
317,1,317,316,Sul,Santa Catarina South,Sao Francisco do Sul,-26.219557999999999,-48.502107000000002,3,1,Right,Sand-bar,Beginners wave,10000.000000000000000,317,317,389,SSSS,São Francisco do Sul,Nacional,São Francisco do Sul,35.000000000000000,1,SC,15.000000000000000,700.000000000000000,Public,grama,4216206.000000000000000,62831.853071795863798,314159265.358979284763336
318,1,318,317,Sul,Santa Catarina South,Píer da Petrobras,-26.217386999999999,-48.500518999999997,3.5,2,Right,Point-break,All surfers,10000.000000000000000,318,318,389,SSSS,São Francisco do Sul,Nacional,São Francisco do Sul,35.000000000000000,1,SC,15.000000000000000,700.000000000000000,Public,grama,4216206.000000000000000,62831.853071795863798,314159265.358979284763336
319,1,319,318,Sul,Santa Catarina North,Sumidouro,-26.169526000000001,-48.552478999999998,3.5,1,Right and left,Beach-break,Experienced surfers,10000.000000000000000,319,319,389,SSSS,São Francisco do Sul,Nacional,São Francisco do Sul,35.000000000000000,1,SC,15.000000000000000,700.000000000000000,Public,grama,4216206.000000000000000,62831.853071795863798,314159265.358979284763336
320,1,320,319,Sul,Santa Catarina North,Praia do Forte,-26.163305999999999,-48.533220000000000,3.5,1,Right,Point-break,All surfers,10000.000000000000000,320,320,389,SSSS,São Francisco do Sul,Nacional,São Francisco do Sul,35.000000000000000,1,SC,15.000000000000000,700.000000000000000,Public,grama,4216206.000000000000000,62831.853071795863798,314159265.358979284763336
321,0,321,320,Sul,Santa Catarina North,Terceira Pedra,-26.067008999999999,-48.607646000000003,3.5,3,Right,Point-break,All surfers,10000.000000000000000,321,321,,,,,,,,,,,,,,62831.853071795863798,314159265.358979284763336
322,0,322,321,Sul,Santa Catarina North,Barra do sai mirim,-26.007832000000001,-48.604061000000002,3,3,Right and left,Beach-break,All surfers,10000.000000000000000,322,322,,,,,,,,,,,,,,62831.853071795863798,314159265.358979284763336
323,0,323,322,Sul,Parana,Barrinha,-25.976699000000000,-48.590727000000001,3,2,Right,Beach-break,Experienced surfers,10000.000000000000000,323,323,,,,,,,,,,,,,,62831.853071795863798,314159265.358979284763336
324,1,324,323,Sul,Parana,Guaratuba Praia Brava,-25.897758000000000,-48.564290999999997,3,3,Right and left,Beach-break,All surfers,10000.000000000000000,324,324,368,SSGB,Guaratuba,Nacional,Guaratuba,18.000000000000000,1,PR,15.000000000000000,990.000000000000000,Public,asfalto ou concreto Asfáltico,4109609.000000000000000,62831.853071795863798,314159265.358979284763336
325,1,325,324,Sul,Parana,Praia Brava Guaratuba,-25.892817000000001,-48.561458999999999,3.5,3,Right and left,Beach-break,All surfers,10000.000000000000000,325,325,368,SSGB,Guaratuba,Nacional,Guaratuba,18.000000000000000,1,PR,15.000000000000000,990.000000000000000,Public,asfalto ou concreto Asfáltico,4109609.000000000000000,62831.853071795863798,314159265.358979284763336
326,1,326,325,Sul,Parana,Direitas de Guaratuba,-25.890046000000002,-48.560288999999997,4,2,Right,Point-break,Experienced surfers,10000.000000000000000,326,326,368,SSGB,Guaratuba,Nacional,Guaratuba,18.000000000000000,1,PR,15.000000000000000,990.000000000000000,Public,asfalto ou concreto Asfáltico,4109609.000000000000000,62831.853071795863798,314159265.358979284763336
327,0,327,326,Sul,Parana,Pico de Matinhos,-25.817817999999999,-48.529701000000003,3.5,3,Right,Point-break,Experienced surfers,10000.000000000000000,327,327,,,,,,,,,,,,,,62831.853071795863798,314159265.358979284763336
328,0,328,327,Sul,Parana,Ilha do Mel,-25.548327000000000,-48.295383000000001,3.5,3,Right and left,Beach-break,All surfers,10000.000000000000000,328,328,,,,,,,,,,,,,,62831.853071795863798,314159265.358979284763336
329,0,329,328,Sul,Parana,Farolete,-25.515314000000000,-48.286113999999998,3.5,4,Left,Point-break,Experienced surfers,10000.000000000000000,329,329,,,,,,,,,,,,,,62831.853071795863798,314159265.358979284763336
330,0,330,329,Sudeste,Sao Paolo South,"Guarau, Peruibe SP",-24.369537000000001,-47.011699999999998,3,4,Right and left,Beach-break,All surfers,10000.000000000000000,330,330,,,,,,,,,,,,,,62831.853071795863798,314159265.358979284763336
331,0,331,330,Sudeste,Sao Paolo South,Pier de Mongaguá,-24.095718000000002,-46.618552000000001,3.5,4,Right and left,Beach-break,All surfers,10000.000000000000000,331,331,,,,,,,,,,,,,,62831.853071795863798,314159265.358979284763336
332,0,332,331,NA,Sao Paulo North,Pitangueiras,-24.036431000000000,-45.845947000000002,3,4,Right and left,Beach-break,All surfers,10000.000000000000000,332,332,,,,,,,,,,,,,,62831.853071795863798,314159265.358979284763336
333,0,333,332,Sudeste,Sao Paolo South,Tombo,-24.014990000000001,-46.272697000000001,3.5,4,Right and left,Beach-break,All surfers,10000.000000000000000,333,333,,,,,,,,,,,,,,62831.853071795863798,314159265.358979284763336
334,0,334,333,Sudeste,Sao Paulo North,Astúrias,-24.007738000000000,-46.266475000000000,3,2,Right and left,Beach-break,All surfers,10000.000000000000000,334,334,,,,,,,,,,,,,,62831.853071795863798,314159265.358979284763336
335,0,335,334,Sudeste,Sao Paolo South,Pitangueiras Beach,-24.000935999999999,-46.260767000000001,3.5,4,Right and left,Beach-break,Experienced surfers,10000.000000000000000,335,335,,,,,,,,,,,,,,62831.853071795863798,314159265.358979284763336
336,0,336,335,Sudeste,Sao Paulo North,porta do sol,-23.981331999999998,-46.373762999999997,3.5,2,Right and left,Point-break,Experienced surfers,10000.000000000000000,336,336,,,,,,,,,,,,,,62831.853071795863798,314159265.358979284763336
337,0,337,336,Sudeste,Sao Paolo South,Itarare,-23.972332999999999,-46.362003999999999,3,3,Right and left,Beach-break,All surfers,10000.000000000000000,337,337,,,,,,,,,,,,,,62831.853071795863798,314159265.358979284763336
338,0,338,337,Sudeste,Sao Paolo South,Santos,-23.971744000000001,-46.347208999999999,3,3,Right and left,Beach-break,All surfers,10000.000000000000000,338,338,,,,,,,,,,,,,,62831.853071795863798,314159265.358979284763336
339,0,339,338,Sudeste,Sao Paolo South,"Praia de Pernambuco (Pernambuco Beach, in Guaruja)",-23.963431000000000,-46.184033999999997,3.5,4,Right and left,Beach-break,All surfers,10000.000000000000000,339,339,,,,,,,,,,,,,,62831.853071795863798,314159265.358979284763336
340,0,340,339,Sudeste,Sao Paulo North,Bonete,-23.917383000000001,-45.347785999999999,3.5,4,Right and left,Beach-break,Experienced surfers,10000.000000000000000,340,340,,,,,,,,,,,,,,62831.853071795863798,314159265.358979284763336
341,0,341,340,Sudeste,Sao Paulo North,Sao Pedro,-23.908522000000001,-46.166581000000001,4,3,Right and left,Sand-bar,All surfers,10000.000000000000000,341,341,,,,,,,,,,,,,,62831.853071795863798,314159265.358979284763336
342,0,342,341,Sudeste,Sao Paolo South,Praia de Iporanga,-23.902191999999999,-46.152724999999997,3.5,2,Left,Reef-rocky,Pros or kamikaze only...,10000.000000000000000,342,342,,,,,,,,,,,,,,62831.853071795863798,314159265.358979284763336
343,0,343,342,Sudeste,Sao Paolo South,Taguaíba,-23.896726000000001,-46.151353999999998,3.5,4,Right and left,Beach-break,All surfers,10000.000000000000000,343,343,,,,,,,,,,,,,,62831.853071795863798,314159265.358979284763336
344,0,344,343,Sudeste,Sao Paolo South,praia branca,-23.863427999999999,-46.130795999999997,3.5,3,Left,Beach-break,All surfers,10000.000000000000000,344,344,,,,,,,,,,,,,,62831.853071795863798,314159265.358979284763336
345,0,345,344,Sudeste,Sao Paulo North,Castelhanos,-23.857582000000001,-45.288905999999997,3.5,3,Right and left,Beach-break,Experienced surfers,10000.000000000000000,345,345,,,,,,,,,,,,,,62831.853071795863798,314159265.358979284763336
346,0,346,345,Sudeste,Sao Paulo North,Enseada - Bertioga,-23.839860000000002,-46.123674000000001,3,4,Right and left,Beach-break,All surfers,10000.000000000000000,346,346,,,,,,,,,,,,,,62831.853071795863798,314159265.358979284763336
347,0,347,346,Sudeste,Sao Paulo North,Santiago,-23.819897999999998,-45.541420000000002,3.5,2,Right and left,Beach-break,Experienced surfers,10000.000000000000000,347,347,,,,,,,,,,,,,,62831.853071795863798,314159265.358979284763336
348,0,348,347,Sudeste,Sao Paulo North,Guaecá,-23.819123000000001,-45.466200000000001,3.5,3,Right and left,Beach-break,All surfers,10000.000000000000000,348,348,,,,,,,,,,,,,,62831.853071795863798,314159265.358979284763336
349,0,349,348,Sudeste,Sao Paulo North,Riviera de São Lourenço,-23.808668999999998,-46.022072000000001,3,3,Right and left,Beach-break,All surfers,10000.000000000000000,349,349,,,,,,,,,,,,,,62831.853071795863798,314159265.358979284763336
350,0,350,349,Sudeste,Sao Paulo North,Paúba,-23.802819000000000,-45.553167999999999,4,2,Right and left,Beach-break,Pros or kamikaze only...,10000.000000000000000,350,350,,,,,,,,,,,,,,62831.853071795863798,314159265.358979284763336
351,0,351,350,Sudeste,Sao Paulo North,Itaguaré,-23.796026000000001,-45.991173000000003,3,4,Right and left,Beach-break,All surfers,10000.000000000000000,351,351,,,,,,,,,,,,,,62831.853071795863798,314159265.358979284763336
352,0,352,351,Sudeste,Sao Paulo North,Maresias,-23.791530000000002,-45.573456000000000,3.5,4,Right and left,Beach-break,All surfers,10000.000000000000000,352,352,,,,,,,,,,,,,,62831.853071795863798,314159265.358979284763336
353,0,353,352,Sudeste,Sao Paulo North,Camburi,-23.778825999999999,-45.649137000000003,3.5,4,Right and left,Beach-break,All surfers,10000.000000000000000,353,353,,,,,,,,,,,,,,62831.853071795863798,314159265.358979284763336
354,0,354,353,Sudeste,Sao Paulo North,Baleia,-23.777600000000000,-45.670217000000001,3.5,3,Right and left,Beach-break,All surfers,10000.000000000000000,354,354,,,,,,,,,,,,,,62831.853071795863798,314159265.358979284763336
355,0,355,354,Sudeste,Sao Paulo North,Guaratuba,-23.772306000000000,-45.922251000000003,3,3,Right and left,Beach-break,Experienced surfers,10000.000000000000000,355,355,,,,,,,,,,,,,,62831.853071795863798,314159265.358979284763336
356,0,356,355,Sudeste,Sao Paulo North,Juquehy,-23.768065000000000,-45.738143999999998,3,4,Right and left,Beach-break,All surfers,10000.000000000000000,356,356,,,,,,,,,,,,,,62831.853071795863798,314159265.358979284763336
357,0,357,356,Sudeste,Sao Paulo North,Massaguaçu,-23.590772999999999,-45.334611000000002,3.5,2,Right and left,Beach-break,Experienced surfers,10000.000000000000000,357,357,,,,,,,,,,,,,,62831.853071795863798,314159265.358979284763336
358,0,358,357,Sudeste,Sao Paulo North,Simão,-23.585149000000001,-45.238287000000000,3.5,3,Right,Beach-break,Experienced surfers,10000.000000000000000,358,358,,,,,,,,,,,,,,62831.853071795863798,314159265.358979284763336
359,0,359,358,Sudeste,Sao Paulo North,Praia do sape,-23.531963000000001,-45.222301000000002,3.5,3,Right and left,Beach-break,All surfers,10000.000000000000000,359,359,,,,,,,,,,,,,,62831.853071795863798,314159265.358979284763336
360,0,360,359,Sudeste,Sao Paulo North,Lagoinha,-23.521339000000001,-45.205221000000002,3.5,2,Right and left,Beach-break,Beginners wave,10000.000000000000000,360,360,,,,,,,,,,,,,,62831.853071795863798,314159265.358979284763336
361,0,361,360,Sudeste,Sao Paulo North,Sununga,-23.511344000000001,-45.129432999999999,3.5,3,Right,Beach-break,Pros or kamikaze only...,10000.000000000000000,361,361,,,,,,,,,,,,,,62831.853071795863798,314159265.358979284763336
362,1,362,361,Sudeste,Sao Paulo North,Toninhas,-23.484739000000001,-45.073771000000001,3,2,Right and left,Beach-break,All surfers,10000.000000000000000,362,362,2306,SDUB,Ubatuba,Nacional,Ubatuba,30.000000000000000,1,SP,4.000000000000000,940.000000000000000,Public,asfalto ou concreto Asfáltico,3555406.000000000000000,62831.853071795863798,314159265.358979284763336
363,1,363,362,Sudeste,Sao Paulo North,Praia Grande (PG),-23.478835000000000,-45.067290999999997,3,3,Right and left,Beach-break,All surfers,10000.000000000000000,363,363,2306,SDUB,Ubatuba,Nacional,Ubatuba,30.000000000000000,1,SP,4.000000000000000,940.000000000000000,Public,asfalto ou concreto Asfáltico,3555406.000000000000000,62831.853071795863798,314159265.358979284763336
364,1,364,363,Sudeste,Sao Paulo North,Praia Grande North,-23.467497999999999,-45.062055999999998,3,3,Left,Beach-break,All surfers,10000.000000000000000,364,364,2306,SDUB,Ubatuba,Nacional,Ubatuba,30.000000000000000,1,SP,4.000000000000000,940.000000000000000,Public,asfalto ou concreto Asfáltico,3555406.000000000000000,62831.853071795863798,314159265.358979284763336
365,1,365,364,Sudeste,Sao Paulo North,Vermelha do Centro,-23.463128000000001,-45.049353000000004,3.5,4,Right and left,Beach-break,All surfers,10000.000000000000000,365,365,2306,SDUB,Ubatuba,Nacional,Ubatuba,30.000000000000000,1,SP,4.000000000000000,940.000000000000000,Public,asfalto ou concreto Asfáltico,3555406.000000000000000,62831.853071795863798,314159265.358979284763336
366,1,366,365,Sudeste,Sao Paulo North,Patiero,-23.456318000000000,-45.021242999999998,3.5,2,NA,Reef-rocky,Experienced surfers,10000.000000000000000,366,366,2306,SDUB,Ubatuba,Nacional,Ubatuba,30.000000000000000,1,SP,4.000000000000000,940.000000000000000,Public,asfalto ou concreto Asfáltico,3555406.000000000000000,62831.853071795863798,314159265.358979284763336
367,1,367,366,Sudeste,Sao Paulo North,Vermelha do Norte,-23.416982000000001,-45.035876999999999,3,3,Right and left,Beach-break,All surfers,10000.000000000000000,367,367,2306,SDUB,Ubatuba,Nacional,Ubatuba,30.000000000000000,1,SP,4.000000000000000,940.000000000000000,Public,asfalto ou concreto Asfáltico,3555406.000000000000000,62831.853071795863798,314159265.358979284763336
368,1,368,367,Sudeste,Sao Paulo North,Itamambuca,-23.402332000000001,-45.001458999999997,3.5,4,Right and left,Beach-break,All surfers,10000.000000000000000,368,368,2306,SDUB,Ubatuba,Nacional,Ubatuba,30.000000000000000,1,SP,4.000000000000000,940.000000000000000,Public,asfalto ou concreto Asfáltico,3555406.000000000000000,62831.853071795863798,314159265.358979284763336
369,0,369,368,Sudeste,Sao Paulo North,Praia do Felix,-23.389334000000002,-44.972405000000002,3.5,3,Right and left,Beach-break,All surfers,10000.000000000000000,369,369,,,,,,,,,,,,,,62831.853071795863798,314159265.358979284763336
370,0,370,369,Sudeste,Sao Paulo North,Brava do Camburi,-23.370963000000000,-44.799858999999998,3,3,Right and left,Beach-break,Experienced surfers,10000.000000000000000,370,370,,,,,,,,,,,,,,62831.853071795863798,314159265.358979284763336
371,0,371,370,Sudeste,Rio De Janeiro City,Ponta do Cepílio,-23.343990000000002,-44.711781000000002,3.5,3,Right and left,Beach-break,Experienced surfers,10000.000000000000000,371,371,,,,,,,,,,,,,,62831.853071795863798,314159265.358979284763336
372,0,372,371,Sudeste,Rio De Janeiro City,Laranjeiras,-23.336050000000000,-44.674294000000003,3.5,3,Right,Beach-break,All surfers,10000.000000000000000,372,372,,,,,,,,,,,,,,62831.853071795863798,314159265.358979284763336
373,0,373,372,Sudeste,Rio De Janeiro City,Martim de Sa,-23.304048999999999,-44.553486999999997,3.5,3,Right and left,Beach-break,All surfers,10000.000000000000000,373,373,,,,,,,,,,,,,,62831.853071795863798,314159265.358979284763336
374,0,374,373,Sudeste,Rio De Janeiro Norte,Aventureiro,-23.180132000000000,-44.304428000000001,3.5,4,Left,Point-break,All surfers,10000.000000000000000,374,374,,,,,,,,,,,,,,62831.853071795863798,314159265.358979284763336
375,0,375,374,Sudeste,Rio De Janeiro City,Lopes Mendes,-23.171453000000000,-44.128990000000002,3.5,4,Right and left,Beach-break,Experienced surfers,10000.000000000000000,375,375,,,,,,,,,,,,,,62831.853071795863798,314159265.358979284763336
376,0,376,375,Sudeste,Rio De Janeiro City,Barra de Guaratiba,-23.064018000000001,-43.569374000000003,4,2,Left,Rivermouth,Experienced surfers,10000.000000000000000,376,376,,,,,,,,,,,,,,62831.853071795863798,314159265.358979284763336
377,0,377,376,Sudeste,Rio De Janeiro City,Laje do Dramin,-23.055999000000000,-44.366816000000000,3.5,2,Left,Reef-rocky,Pros or kamikaze only...,10000.000000000000000,377,377,,,,,,,,,,,,,,62831.853071795863798,314159265.358979284763336
378,0,378,377,Sudeste,Rio De Janeiro City,Grumari,-23.049130999999999,-43.526673000000002,3.5,3,Right and left,Beach-break,Experienced surfers,10000.000000000000000,378,378,,,,,,,,,,,,,,62831.853071795863798,314159265.358979284763336
379,0,379,378,Sudeste,Rio De Janeiro City,Prainha,-23.040759000000001,-43.505259000000002,3.5,4,Right and left,Beach-break,All surfers,10000.000000000000000,379,379,,,,,,,,,,,,,,62831.853071795863798,314159265.358979284763336
380,0,380,379,Sudeste,Rio De Janeiro City,CcB,-23.034576999999999,-43.488737999999998,3.5,4,Right and left,Sand-bar,All surfers,10000.000000000000000,380,380,,,,,,,,,,,,,,62831.853071795863798,314159265.358979284763336
381,0,381,380,Sudeste,Rio De Janeiro City,Macumba (Curvão),-23.034085000000001,-43.472729000000001,3,3,Right and left,Beach-break,All surfers,10000.000000000000000,381,381,,,,,,,,,,,,,,62831.853071795863798,314159265.358979284763336
382,0,382,381,Sudeste,Rio De Janeiro City,Farorinha,-23.033829000000001,-43.470989000000003,3,2,Left,Beach-break,All surfers,10000.000000000000000,382,382,,,,,,,,,,,,,,62831.853071795863798,314159265.358979284763336
383,0,383,382,Sudeste,Rio De Janeiro City,Canto do recreio,-23.033294999999999,-43.467430000000000,3.5,NA,Right and left,Beach-break,All surfers,10000.000000000000000,383,383,,,,,,,,,,,,,,62831.853071795863798,314159265.358979284763336
384,0,384,383,Sudeste,Rio De Janeiro City,Praia da Macumba,-23.032031000000000,-43.475603999999997,4,4,Right and left,Beach-break,All surfers,10000.000000000000000,384,384,,,,,,,,,,,,,,62831.853071795863798,314159265.358979284763336
385,0,385,384,Sudeste,Rio De Janeiro City,posto 11 (Atlântico sul),-23.030000000000001,-43.466442999999998,3.5,3,Right and left,Sand-bar,All surfers,10000.000000000000000,385,385,,,,,,,,,,,,,,62831.853071795863798,314159265.358979284763336
386,0,386,385,Sudeste,Rio De Janeiro City,Mambucaba,-23.029266000000000,-44.519992000000002,3.5,2,Right and left,Sand-bar,All surfers,10000.000000000000000,386,386,,,,,,,,,,,,,,62831.853071795863798,314159265.358979284763336
387,0,387,386,Sudeste,Rio De Janeiro City,Posto 10 - Recreio,-23.026218000000000,-43.458039999999997,3.5,2,Right and left,Beach-break,Experienced surfers,10000.000000000000000,387,387,,,,,,,,,,,,,,62831.853071795863798,314159265.358979284763336
388,1,388,387,Sudeste,Rio De Janeiro City,Recreio Posto 9,-23.023638999999999,-43.448228999999998,3,3,Right and left,Beach-break,Experienced surfers,10000.000000000000000,388,388,2079,SBJR,Rio de Janeiro,Nacional,Jacarepaguá,30.000000000000000,1,RJ,3.000000000000000,900.000000000000000,Public,asfalto ou concreto Asfáltico,3304557.000000000000000,62831.853071795863798,314159265.358979284763336
389,1,389,388,Sudeste,Rio De Janeiro City,Lage Postinho,-23.015481999999999,-43.306539000000001,3.5,2,Right and left,Reef-rocky,Experienced surfers,10000.000000000000000,389,389,2079,SBJR,Rio de Janeiro,Nacional,Jacarepaguá,30.000000000000000,1,RJ,3.000000000000000,900.000000000000000,Public,asfalto ou concreto Asfáltico,3304557.000000000000000,62831.853071795863798,314159265.358979284763336
390,1,390,389,Sudeste,Rio De Janeiro City,Joatinga,-23.015205000000002,-43.291089999999997,3.5,4,Right and left,Beach-break,All surfers,10000.000000000000000,390,390,2079,SBJR,Rio de Janeiro,Nacional,Jacarepaguá,30.000000000000000,1,RJ,3.000000000000000,900.000000000000000,Public,asfalto ou concreto Asfáltico,3304557.000000000000000,62831.853071795863798,314159265.358979284763336
391,1,391,390,Sudeste,Rio De Janeiro City,Tropical (posto 1),-23.014824999999998,-43.301845000000000,3.5,4,Right and left,Beach-break,Experienced surfers,10000.000000000000000,391,391,2079,SBJR,Rio de Janeiro,Nacional,Jacarepaguá,30.000000000000000,1,RJ,3.000000000000000,900.000000000000000,Public,asfalto ou concreto Asfáltico,3304557.000000000000000,62831.853071795863798,314159265.358979284763336
392,1,392,391,Sudeste,Rio De Janeiro City,Barra da Tijuca - Posto 8,-23.010857000000001,-43.361874000000000,3.5,4,Right and left,Sand-bar,All surfers,10000.000000000000000,392,392,2079,SBJR,Rio de Janeiro,Nacional,Jacarepaguá,30.000000000000000,1,RJ,3.000000000000000,900.000000000000000,Public,asfalto ou concreto Asfáltico,3304557.000000000000000,62831.853071795863798,314159265.358979284763336
393,0,393,392,Sudeste,Rio De Janeiro City,Sao Conrado,-22.999800000000000,-43.254353999999999,3.5,NA,Right and left,Beach-break,Experienced surfers,10000.000000000000000,393,393,,,,,,,,,,,,,,62831.853071795863798,314159265.358979284763336
394,0,394,393,Sudeste,Rio De Janeiro City,Laje do sheraton,-22.995671000000002,-43.231243999999997,4,1,Right and left,Reef-rocky,Pros or kamikaze only...,10000.000000000000000,394,394,,,,,,,,,,,,,,62831.853071795863798,314159265.358979284763336
395,0,395,394,Sudeste,Rio De Janeiro City,Pontão do leblon,-22.989962999999999,-43.226480000000002,3.5,3,Right,Point-break,Experienced surfers,10000.000000000000000,395,395,,,,,,,,,,,,,,62831.853071795863798,314159265.358979284763336
396,1,396,395,Sudeste,Rio De Janeiro City,Arpoador,-22.989913000000001,-43.191654999999997,3.5,NA,Right and left,Beach-break,All surfers,10000.000000000000000,396,396,312,SBRJ,Rio de Janeiro,Nacional,Santos Dumont,42.000000000000000,2,RJ,3.000000000000000,1323.000000000000000,Public,asfalto ou concreto Asfáltico,3304557.000000000000000,62831.853071795863798,314159265.358979284763336
397,1,397,396,Sudeste,Rio De Janeiro City,Praia do Diabo,-22.988817000000001,-43.189143999999999,3.5,4,Right and left,Beach-break,All surfers,10000.000000000000000,397,397,312,SBRJ,Rio de Janeiro,Nacional,Santos Dumont,42.000000000000000,2,RJ,3.000000000000000,1323.000000000000000,Public,asfalto ou concreto Asfáltico,3304557.000000000000000,62831.853071795863798,314159265.358979284763336
398,1,398,397,Sudeste,Rio De Janeiro City,Leblon,-22.987947999999999,-43.219527999999997,3,4,Right and left,Beach-break,All surfers,10000.000000000000000,398,398,312,SBRJ,Rio de Janeiro,Nacional,Santos Dumont,42.000000000000000,2,RJ,3.000000000000000,1323.000000000000000,Public,asfalto ou concreto Asfáltico,3304557.000000000000000,62831.853071795863798,314159265.358979284763336
399,1,399,398,Sudeste,Rio De Janeiro City,Ipanema,-22.987552999999998,-43.205409000000003,3,3,Right and left,Beach-break,All surfers,10000.000000000000000,399,399,312,SBRJ,Rio de Janeiro,Nacional,Santos Dumont,42.000000000000000,2,RJ,3.000000000000000,1323.000000000000000,Public,asfalto ou concreto Asfáltico,3304557.000000000000000,62831.853071795863798,314159265.358979284763336
400,1,400,399,Sudeste,Rio De Janeiro City,Shore break expresso escorpiao,-22.986037000000000,-43.182017000000002,3.5,2,Right,Reef-rocky,Pros or kamikaze only...,10000.000000000000000,400,400,312,SBRJ,Rio de Janeiro,Nacional,Santos Dumont,42.000000000000000,2,RJ,3.000000000000000,1323.000000000000000,Public,asfalto ou concreto Asfáltico,3304557.000000000000000,62831.853071795863798,314159265.358979284763336
401,1,401,400,Sudeste,Rio De Janeiro City,Forte de Copacabana,-22.985102999999999,-43.185538999999999,3,2,Right,Point-break,All surfers,10000.000000000000000,401,401,312,SBRJ,Rio de Janeiro,Nacional,Santos Dumont,42.000000000000000,2,RJ,3.000000000000000,1323.000000000000000,Public,asfalto ou concreto Asfáltico,3304557.000000000000000,62831.853071795863798,314159265.358979284763336
402,1,402,401,Sudeste,Rio De Janeiro City,Posto 5 - Copacabana,-22.983917999999999,-43.188457000000000,3.5,3,Right and left,Beach-break,Experienced surfers,10000.000000000000000,402,402,312,SBRJ,Rio de Janeiro,Nacional,Santos Dumont,42.000000000000000,2,RJ,3.000000000000000,1323.000000000000000,Public,asfalto ou concreto Asfáltico,3304557.000000000000000,62831.853071795863798,314159265.358979284763336
403,1,403,402,Sudeste,Rio De Janeiro Norte,Praia Brava - Pontal do Atalaia,-22.982970000000002,-42.021675000000002,3.5,2,Left,Point-break,Experienced surfers,10000.000000000000000,403,403,305,SBCB,Cabo Frio,Nacional,Cabo Frio,30.000000000000000,1,RJ,4.000000000000000,1700.000000000000000,Public,asfalto ou concreto Asfáltico,3300704.000000000000000,62831.853071795863798,314159265.358979284763336
404,0,404,403,Sudeste,Rio De Janeiro City,Shock,-22.975815999999998,-43.040492999999998,5,2,Right,Reef-rocky,Pros or kamikaze only...,10000.000000000000000,404,404,,,,,,,,,,,,,,62831.853071795863798,314159265.358979284763336
405,1,405,404,Sudeste,Rio De Janeiro Norte,Praia Grande - Arraial do Cabo,-22.975325000000002,-42.033842000000000,3.5,3,Right and left,Beach-break,All surfers,10000.000000000000000,405,405,305,SBCB,Cabo Frio,Nacional,Cabo Frio,30.000000000000000,1,RJ,4.000000000000000,1700.000000000000000,Public,asfalto ou concreto Asfáltico,3300704.000000000000000,62831.853071795863798,314159265.358979284763336
406,0,406,405,Sudeste,Rio De Janeiro City,Itacoatiara,-22.972618000000001,-43.033447000000002,3.5,3,Right and left,Beach-break,Experienced surfers,10000.000000000000000,406,406,,,,,,,,,,,,,,62831.853071795863798,314159265.358979284763336
407,0,407,406,Sudeste,Rio De Janeiro City,Canal de Camboinhas,-22.968074000000001,-43.048166999999999,2,3,Right and left,breakwater/jetty,Beginners wave,10000.000000000000000,407,407,,,,,,,,,,,,,,62831.853071795863798,314159265.358979284763336
408,0,408,407,Sudeste,Rio De Janeiro City,Camboinhas,-22.966612000000001,-43.052588000000000,3.5,2,Right and left,Sand-bar,Experienced surfers,10000.000000000000000,408,408,,,,,,,,,,,,,,62831.853071795863798,314159265.358979284763336
409,1,409,408,Sudeste,Rio De Janeiro City,Leme,-22.963639000000001,-43.166666999999997,3,3,Left,Sand-bar,All surfers,10000.000000000000000,409,409,312,SBRJ,Rio de Janeiro,Nacional,Santos Dumont,42.000000000000000,2,RJ,3.000000000000000,1323.000000000000000,Public,asfalto ou concreto Asfáltico,3304557.000000000000000,62831.853071795863798,314159265.358979284763336
410,0,410,409,Sudeste,Rio De Janeiro Norte,Ponta Negra - Maricá - RJ,-22.957750999999998,-42.696787000000000,3,3,Right and left,Beach-break,All surfers,10000.000000000000000,410,410,,,,,,,,,,,,,,62831.853071795863798,314159265.358979284763336
411,1,411,410,Sudeste,Rio De Janeiro City,Piratininga,-22.954699000000002,-43.095675000000000,3,3,Right and left,Beach-break,All surfers,10000.000000000000000,411,411,312,SBRJ,Rio de Janeiro,Nacional,Santos Dumont,42.000000000000000,2,RJ,3.000000000000000,1323.000000000000000,Public,asfalto ou concreto Asfáltico,3304557.000000000000000,62831.853071795863798,314159265.358979284763336
412,0,412,411,Sudeste,Rio De Janeiro Norte,Massambaba,-22.947170000000000,-42.166815000000000,3.5,4,Right and left,Sand-bar,Experienced surfers,10000.000000000000000,412,412,,,,,,,,,,,,,,62831.853071795863798,314159265.358979284763336
413,1,413,412,Sudeste,Rio De Janeiro Norte,Lage de fora,-22.944344999999998,-42.468187999999998,4,2,Left,Reef-rocky,Don't know,10000.000000000000000,413,413,2081,SDSK,Saquarema,Nacional,Saquarema,40.000000000000000,1,RJ,8.000000000000000,905.000000000000000,Public,grama,3305505.000000000000000,62831.853071795863798,314159265.358979284763336
