OBJECTID,Join_Count,TARGET_FID,Name,Lat,Lon,Zone,Surf_Spot,Surfline_n,Quality__0,Frequency_,Direction,Type,Experience,Latitude,Longitude,BUFF_DIST,ORIG_FID,CD_MUN,NM_MUN,SIGLA,CNAE,Units,People,Shape_Leng,Shape_Area,F2010,SLR_employ,F2010_1,F2010_12,Shape_Le_1,Shape_Ar_1
1,2,1,Cardoso,-28.585450000000002,-48.798270000000002, , , ,0.000000000000000,0, , , ,0.000000000000000,0.000000000000000,10000.000000000000000,0,4208807,Jaguaruna,SC,"Sports, recreation and leisure activities",6.000000000000000,18.000000000000000,131659.269345947948750,422680551.955484628677368,17290.000000000000000,0.000520532099479,17290.000000000000000,17290.000000000000000,62831.853071795863798,314159265.358979284763336
2,2,2,Ravena,-28.454780000000000,-48.751339999999999, , , ,0.000000000000000,0, , , ,0.000000000000000,0.000000000000000,10000.000000000000000,1,4209409,Laguna,SC,"Sports, recreation and leisure activities",14.000000000000000,0.000000000000000,139945.681340133887716,430216876.739683747291565,51562.000000000000000,0.000000000000000,51562.000000000000000,51562.000000000000000,62831.853071795863798,314159265.358979284763336
3,2,3,Praia da Vila Imbituba,-28.252472220000001,-48.661850000000001, , , ,0.000000000000000,0, , , ,0.000000000000000,0.000000000000000,10000.000000000000000,2,4207205,Imaruí,SC,"Sports, recreation and leisure activities",1.000000000000000,0.000000000000000,145571.381158472300740,696657379.177068114280701,11672.000000000000000,0.000000000000000,11672.000000000000000,11672.000000000000000,62831.853071795863798,314159265.358979284763336
4,2,4,Praia do Porto Imbituba,-28.220199000000001,-48.663214000000004, , , ,0.000000000000000,0, , , ,0.000000000000000,0.000000000000000,10000.000000000000000,3,4207205,Imaruí,SC,"Sports, recreation and leisure activities",1.000000000000000,0.000000000000000,145571.381158472300740,696657379.177068114280701,11672.000000000000000,0.000000000000000,11672.000000000000000,11672.000000000000000,62831.853071795863798,314159265.358979284763336
5,4,5,Ponta da Pinheira,-27.878140999999999,-48.576442000000000, , , ,0.000000000000000,0, , , ,0.000000000000000,0.000000000000000,10000.000000000000000,4,4205407,Florianópolis,SC,"Sports, recreation and leisure activities",487.000000000000000,2357.000000000000000,221966.202489499555668,856671372.116887092590332,421240.000000000000000,0.002143623040751,421240.000000000000000,421240.000000000000000,62831.853071795863798,314159265.358979284763336
6,1,6,Mocambique,-27.518350000000002,-48.392183330000002, , , ,0.000000000000000,0, , , ,0.000000000000000,0.000000000000000,10000.000000000000000,5,4205407,Florianópolis,SC,"Sports, recreation and leisure activities",487.000000000000000,2357.000000000000000,221966.202489499555668,856671372.116887092590332,421240.000000000000000,0.005595385053651,421240.000000000000000,421240.000000000000000,62831.853071795863798,314159265.358979284763336
7,1,7,Ponta das Canas,-27.394818999999998,-48.435709000000003, , , ,0.000000000000000,0, , , ,0.000000000000000,0.000000000000000,10000.000000000000000,6,4205407,Florianópolis,SC,"Sports, recreation and leisure activities",487.000000000000000,2357.000000000000000,221966.202489499555668,856671372.116887092590332,421240.000000000000000,0.005595385053651,421240.000000000000000,421240.000000000000000,62831.853071795863798,314159265.358979284763336
8,2,8,Itagua&ccedil;u,-26.184728000000000,-48.526327999999999, , , ,0.000000000000000,0, , , ,0.000000000000000,0.000000000000000,10000.000000000000000,7,4208450,Itapoá,SC,"Sports, recreation and leisure activities",10.000000000000000,0.000000000000000,100074.046140589096467,303432678.232376039028168,14763.000000000000000,0.000846660395108,14763.000000000000000,14763.000000000000000,62831.853071795863798,314159265.358979284763336
9,2,9,Ilha Comprida,-24.783999999999999,-47.594999999999999, , , ,0.000000000000000,0, , , ,0.000000000000000,0.000000000000000,10000.000000000000000,8,3520301,Iguape,SP,"Sports, recreation and leisure activities",8.000000000000000,0.000000000000000,296110.762280972092412,2386008746.393126487731934,28841.000000000000000,0.000000000000000,28841.000000000000000,28841.000000000000000,62831.853071795863798,314159265.358979284763336
10,2,10,Iguape,-24.753211000000000,-47.542059000000002, , , ,0.000000000000000,0, , , ,0.000000000000000,0.000000000000000,10000.000000000000000,9,3520301,Iguape,SP,"Sports, recreation and leisure activities",8.000000000000000,0.000000000000000,296110.762280972092412,2386008746.393126487731934,28841.000000000000000,0.000000000000000,28841.000000000000000,28841.000000000000000,62831.853071795863798,314159265.358979284763336
11,2,11,Peruibe,-24.324427000000000,-46.978886000000003, , , ,0.000000000000000,0, , , ,0.000000000000000,0.000000000000000,10000.000000000000000,10,3523305,Itariri,SP,"Sports, recreation and leisure activities",1.000000000000000,0.000000000000000,104328.731159216156811,328649399.644323229789734,15471.000000000000000,0.000552088735717,15471.000000000000000,15471.000000000000000,62831.853071795863798,314159265.358979284763336
12,1,12,Praia dos Pescadores,-24.194862000000001,-46.798881999999999, , , ,0.000000000000000,0, , , ,0.000000000000000,0.000000000000000,10000.000000000000000,11,3522109,Itanhaém,SP,"Sports, recreation and leisure activities",24.000000000000000,97.000000000000000,174121.336961891793180,720348369.871413707733154,87057.000000000000000,0.001114212527425,87057.000000000000000,87057.000000000000000,62831.853071795863798,314159265.358979284763336
13,2,13,Itanhaem,-24.151427000000002,-46.707858000000002, , , ,0.000000000000000,0, , , ,0.000000000000000,0.000000000000000,10000.000000000000000,12,3522109,Itanhaém,SP,"Sports, recreation and leisure activities",24.000000000000000,97.000000000000000,174121.336961891793180,720348369.871413707733154,87057.000000000000000,0.000557106263712,87057.000000000000000,87057.000000000000000,62831.853071795863798,314159265.358979284763336
14,2,14,Praia Grande,-24.028497000000002,-46.438310000000001, , , ,0.000000000000000,0, , , ,0.000000000000000,0.000000000000000,10000.000000000000000,13,3541000,Praia Grande,SP,"Sports, recreation and leisure activities",85.000000000000000,273.000000000000000,87910.935457678569946,178944809.943888038396835,262051.000000000000000,0.001026237720691,262051.000000000000000,262051.000000000000000,62831.853071795863798,314159265.358979284763336
15,2,15,Praia do Forte dos Andradas,-24.028369000000001,-46.288159000000000, , , ,0.000000000000000,0, , , ,0.000000000000000,0.000000000000000,10000.000000000000000,14,3518701,Guarujá,SP,"Sports, recreation and leisure activities",104.000000000000000,581.000000000000000,118586.908537797920872,172964756.707564502954483,290752.000000000000000,0.003193935380208,290752.000000000000000,290752.000000000000000,62831.853071795863798,314159265.358979284763336
16,2,16,Praia do Forte dos Andradas,-24.025659999999998,-46.285460000000000, , , ,0.000000000000000,0, , , ,0.000000000000000,0.000000000000000,10000.000000000000000,15,3518701,Guarujá,SP,"Sports, recreation and leisure activities",104.000000000000000,581.000000000000000,118586.908537797920872,172964756.707564502954483,290752.000000000000000,0.003193935380208,290752.000000000000000,290752.000000000000000,62831.853071795863798,314159265.358979284763336
17,4,17,Praia da Ponta Grossa,-24.024816000000001,-46.314497000000003, , , ,0.000000000000000,0, , , ,0.000000000000000,0.000000000000000,10000.000000000000000,16,3518701,Guarujá,SP,"Sports, recreation and leisure activities",104.000000000000000,581.000000000000000,118586.908537797920872,172964756.707564502954483,290752.000000000000000,0.002110086550449,290752.000000000000000,290752.000000000000000,62831.853071795863798,314159265.358979284763336
18,4,18,Itaipu,-24.019545000000001,-46.386795999999997, , , ,0.000000000000000,0, , , ,0.000000000000000,0.000000000000000,10000.000000000000000,17,3518701,Guarujá,SP,"Sports, recreation and leisure activities",104.000000000000000,581.000000000000000,118586.908537797920872,172964756.707564502954483,290752.000000000000000,0.002110086550449,290752.000000000000000,290752.000000000000000,62831.853071795863798,314159265.358979284763336
19,4,19,Guaiuba,-24.017081999999998,-46.295202000000003, , , ,0.000000000000000,0, , , ,0.000000000000000,0.000000000000000,10000.000000000000000,18,3518701,Guarujá,SP,"Sports, recreation and leisure activities",104.000000000000000,581.000000000000000,118586.908537797920872,172964756.707564502954483,290752.000000000000000,0.002110086550449,290752.000000000000000,290752.000000000000000,62831.853071795863798,314159265.358979284763336
20,4,20,Santos,-24.015000000000001,-46.353999999999999, , , ,0.000000000000000,0, , , ,0.000000000000000,0.000000000000000,10000.000000000000000,19,3518701,Guarujá,SP,"Sports, recreation and leisure activities",104.000000000000000,581.000000000000000,118586.908537797920872,172964756.707564502954483,290752.000000000000000,0.002110086550449,290752.000000000000000,290752.000000000000000,62831.853071795863798,314159265.358979284763336
21,2,21,Morro do Maluf,-23.997560000000000,-46.251593999999997, , , ,0.000000000000000,0, , , ,0.000000000000000,0.000000000000000,10000.000000000000000,20,3518701,Guarujá,SP,"Sports, recreation and leisure activities",104.000000000000000,581.000000000000000,118586.908537797920872,172964756.707564502954483,290752.000000000000000,0.003193935380208,290752.000000000000000,290752.000000000000000,62831.853071795863798,314159265.358979284763336
22,2,22,Praia da Enseada,-23.990651000000000,-46.209406000000001, , , ,0.000000000000000,0, , , ,0.000000000000000,0.000000000000000,10000.000000000000000,21,3518701,Guarujá,SP,"Sports, recreation and leisure activities",104.000000000000000,581.000000000000000,118586.908537797920872,172964756.707564502954483,290752.000000000000000,0.003193935380208,290752.000000000000000,290752.000000000000000,62831.853071795863798,314159265.358979284763336
23,5,23,Embare,-23.980865999999999,-46.317684000000000, , , ,0.000000000000000,0, , , ,0.000000000000000,0.000000000000000,10000.000000000000000,22,3513504,Cubatão,SP,"Sports, recreation and leisure activities",29.000000000000000,90.000000000000000,81265.972325418348191,170453243.701563954353333,118720.000000000000000,0.001839686491033,118720.000000000000000,118720.000000000000000,62831.853071795863798,314159265.358979284763336
24,5,24,Gonzaga,-23.974027000000000,-46.330098000000000, , , ,0.000000000000000,0, , , ,0.000000000000000,0.000000000000000,10000.000000000000000,23,3513504,Cubatão,SP,"Sports, recreation and leisure activities",29.000000000000000,90.000000000000000,81265.972325418348191,170453243.701563954353333,118720.000000000000000,0.001839686491033,118720.000000000000000,118720.000000000000000,62831.853071795863798,314159265.358979284763336
25,3,25,Pereque,-23.927582999999998,-46.178826000000001, , , ,0.000000000000000,0, , , ,0.000000000000000,0.000000000000000,10000.000000000000000,24,3506359,Bertioga,SP,"Sports, recreation and leisure activities",28.000000000000000,0.000000000000000,168097.334876858862117,585455279.529849529266357,47645.000000000000000,0.002129290253472,47645.000000000000000,47645.000000000000000,62831.853071795863798,314159265.358979284763336
26,3,26,Praia Preta,-23.874700000000001,-46.138959000000000, , , ,0.000000000000000,0, , , ,0.000000000000000,0.000000000000000,10000.000000000000000,25,3506359,Bertioga,SP,"Sports, recreation and leisure activities",28.000000000000000,0.000000000000000,168097.334876858862117,585455279.529849529266357,47645.000000000000000,0.002129290253472,47645.000000000000000,47645.000000000000000,62831.853071795863798,314159265.358979284763336
27,3,27,Praia da Bertioga,-23.846986000000001,-46.126967999999998, , , ,0.000000000000000,0, , , ,0.000000000000000,0.000000000000000,10000.000000000000000,26,3506359,Bertioga,SP,"Sports, recreation and leisure activities",28.000000000000000,0.000000000000000,168097.334876858862117,585455279.529849529266357,47645.000000000000000,0.002129290253472,47645.000000000000000,47645.000000000000000,62831.853071795863798,314159265.358979284763336
28,2,28,Maresias,-23.793693260000001,-45.559764340000001, , , ,0.000000000000000,0, , , ,0.000000000000000,0.000000000000000,10000.000000000000000,27,3510500,Caraguatatuba,SP,"Sports, recreation and leisure activities",66.000000000000000,267.000000000000000,206557.241009634482907,576540332.665464520454407,100840.000000000000000,0.003007631542979,100840.000000000000000,100840.000000000000000,62831.853071795863798,314159265.358979284763336
29,2,29,Canto de Moreira,-23.793056000000000,-45.587394000000003, , , ,0.000000000000000,0, , , ,0.000000000000000,0.000000000000000,10000.000000000000000,28,3510500,Caraguatatuba,SP,"Sports, recreation and leisure activities",66.000000000000000,267.000000000000000,206557.241009634482907,576540332.665464520454407,100840.000000000000000,0.003007631542979,100840.000000000000000,100840.000000000000000,62831.853071795863798,314159265.358979284763336
30,1,30,Itaguere,-23.786995000000001,-45.971372000000002, , , ,0.000000000000000,0, , , ,0.000000000000000,0.000000000000000,10000.000000000000000,29,3506359,Bertioga,SP,"Sports, recreation and leisure activities",28.000000000000000,0.000000000000000,168097.334876858862117,585455279.529849529266357,47645.000000000000000,0.000000000000000,47645.000000000000000,47645.000000000000000,62831.853071795863798,314159265.358979284763336
31,2,31,Boicucanga,-23.784431000000001,-45.631354999999999, , , ,0.000000000000000,0, , , ,0.000000000000000,0.000000000000000,10000.000000000000000,30,3510500,Caraguatatuba,SP,"Sports, recreation and leisure activities",66.000000000000000,267.000000000000000,206557.241009634482907,576540332.665464520454407,100840.000000000000000,0.003007631542979,100840.000000000000000,100840.000000000000000,62831.853071795863798,314159265.358979284763336
32,2,32,Praia de Baleia,-23.775839000000001,-45.683985999999997, , , ,0.000000000000000,0, , , ,0.000000000000000,0.000000000000000,10000.000000000000000,31,3510500,Caraguatatuba,SP,"Sports, recreation and leisure activities",66.000000000000000,267.000000000000000,206557.241009634482907,576540332.665464520454407,100840.000000000000000,0.003007631542979,100840.000000000000000,100840.000000000000000,62831.853071795863798,314159265.358979284763336
33,2,33,Barra do Sahy,-23.774384999999999,-45.697569999999999, , , ,0.000000000000000,0, , , ,0.000000000000000,0.000000000000000,10000.000000000000000,32,3510500,Caraguatatuba,SP,"Sports, recreation and leisure activities",66.000000000000000,267.000000000000000,206557.241009634482907,576540332.665464520454407,100840.000000000000000,0.003007631542979,100840.000000000000000,100840.000000000000000,62831.853071795863798,314159265.358979284763336
34,2,34,Praia Preta,-23.773009999999999,-45.715814999999999, , , ,0.000000000000000,0, , , ,0.000000000000000,0.000000000000000,10000.000000000000000,33,3510500,Caraguatatuba,SP,"Sports, recreation and leisure activities",66.000000000000000,267.000000000000000,206557.241009634482907,576540332.665464520454407,100840.000000000000000,0.003007631542979,100840.000000000000000,100840.000000000000000,62831.853071795863798,314159265.358979284763336
35,2,35,Bananas Point,-23.771605000000001,-45.706209999999999, , , ,0.000000000000000,0, , , ,0.000000000000000,0.000000000000000,10000.000000000000000,34,3510500,Caraguatatuba,SP,"Sports, recreation and leisure activities",66.000000000000000,267.000000000000000,206557.241009634482907,576540332.665464520454407,100840.000000000000000,0.003007631542979,100840.000000000000000,100840.000000000000000,62831.853071795863798,314159265.358979284763336
36,3,36,Praia do Juquei,-23.768115000000002,-45.745452999999998, , , ,0.000000000000000,0, , , ,0.000000000000000,0.000000000000000,10000.000000000000000,35,3506359,Bertioga,SP,"Sports, recreation and leisure activities",28.000000000000000,0.000000000000000,168097.334876858862117,585455279.529849529266357,47645.000000000000000,0.002005087695320,47645.000000000000000,47645.000000000000000,62831.853071795863798,314159265.358979284763336
37,3,37,Praia da Boracéia,-23.758372999999999,-45.828777000000002, , , ,0.000000000000000,0, , , ,0.000000000000000,0.000000000000000,10000.000000000000000,36,3506359,Bertioga,SP,"Sports, recreation and leisure activities",28.000000000000000,0.000000000000000,168097.334876858862117,585455279.529849529266357,47645.000000000000000,0.001207780174962,47645.000000000000000,47645.000000000000000,62831.853071795863798,314159265.358979284763336
38,2,38,Praia Dura,-23.496058000000001,-45.171014000000000, , , ,0.000000000000000,0, , , ,0.000000000000000,0.000000000000000,10000.000000000000000,37,3532306,Natividade da Serra,SP,"Sports, recreation and leisure activities",1.000000000000000,0.000000000000000,214867.175817767885746,987417000.919643282890320,6678.000000000000000,0.002265199680207,6678.000000000000000,6678.000000000000000,62831.853071795863798,314159265.358979284763336
39,2,39,Pereque-Acu,-23.424565000000001,-45.062697000000000, , , ,0.000000000000000,0, , , ,0.000000000000000,0.000000000000000,10000.000000000000000,38,3550001,São Luiz do Paraitinga,SP,"Sports, recreation and leisure activities",4.000000000000000,4.000000000000000,194237.188704489584779,729509786.847630500793457,10397.000000000000000,0.002457562861894,10397.000000000000000,10397.000000000000000,62831.853071795863798,314159265.358979284763336
40,2,40,Itamambuca,-23.406683000000001,-45.008741000000001, , , ,0.000000000000000,0, , , ,0.000000000000000,0.000000000000000,10000.000000000000000,39,3550001,São Luiz do Paraitinga,SP,"Sports, recreation and leisure activities",4.000000000000000,4.000000000000000,194237.188704489584779,729509786.847630500793457,10397.000000000000000,0.002457562861894,10397.000000000000000,10397.000000000000000,62831.853071795863798,314159265.358979284763336
41,2,41,Praia da Fazenda,-23.361352000000000,-44.859766000000000, , , ,0.000000000000000,0, , , ,0.000000000000000,0.000000000000000,10000.000000000000000,40,3303807,Paraty,RJ,"Sports, recreation and leisure activities",20.000000000000000,195.000000000000000,473178.113170493510552,1090796513.946255683898926,37533.000000000000000,0.004862913691877,37533.000000000000000,37533.000000000000000,62831.853071795863798,314159265.358979284763336
42,1,42,Aventureiro,-23.184405999999999,-44.315804000000000, , , ,0.000000000000000,0, , , ,0.000000000000000,0.000000000000000,10000.000000000000000,41,3300100,Angra dos Reis,RJ,"Sports, recreation and leisure activities",52.000000000000000,567.000000000000000,632624.495105463312939,957653131.037363290786743,169511.000000000000000,0.003344915669190,169511.000000000000000,169511.000000000000000,62831.853071795863798,314159265.358979284763336
43,1,43,Praia do Leste,-23.179746000000002,-44.274093999999998, , , ,0.000000000000000,0, , , ,0.000000000000000,0.000000000000000,10000.000000000000000,42,3300100,Angra dos Reis,RJ,"Sports, recreation and leisure activities",52.000000000000000,567.000000000000000,632624.495105463312939,957653131.037363290786743,169511.000000000000000,0.003344915669190,169511.000000000000000,169511.000000000000000,62831.853071795863798,314159265.358979284763336
44,1,44,Praia do Sul,-23.178656000000000,-44.296756999999999, , , ,0.000000000000000,0, , , ,0.000000000000000,0.000000000000000,10000.000000000000000,43,3300100,Angra dos Reis,RJ,"Sports, recreation and leisure activities",52.000000000000000,567.000000000000000,632624.495105463312939,957653131.037363290786743,169511.000000000000000,0.003344915669190,169511.000000000000000,169511.000000000000000,62831.853071795863798,314159265.358979284763336
45,1,45,Praia do Meio,-23.066913000000000,-43.549809000000003, , , ,0.000000000000000,0, , , ,0.000000000000000,0.000000000000000,10000.000000000000000,44,3304557,Rio de Janeiro,RJ,"Sports, recreation and leisure activities",2008.000000000000000,24331.000000000000000,434867.198880933225155,1411849963.785689115524292,6320446.000000000000000,0.003849570109451,6320446.000000000000000,6320446.000000000000000,62831.853071795863798,314159265.358979284763336
46,2,46,Restinga a Marambaia,-23.061833000000000,-43.591673000000000, , , ,0.000000000000000,0, , , ,0.000000000000000,0.000000000000000,10000.000000000000000,45,3302007,Itaguaí,RJ,"Sports, recreation and leisure activities",18.000000000000000,145.000000000000000,191291.578600245004054,331976465.076483964920044,109091.000000000000000,0.002589367834240,109091.000000000000000,109091.000000000000000,62831.853071795863798,314159265.358979284763336
47,1,47,Grumari,-23.050469000000000,-43.533907999999997, , , ,0.000000000000000,0, , , ,0.000000000000000,0.000000000000000,10000.000000000000000,46,3304557,Rio de Janeiro,RJ,"Sports, recreation and leisure activities",2008.000000000000000,24331.000000000000000,434867.198880933225155,1411849963.785689115524292,6320446.000000000000000,0.003849570109451,6320446.000000000000000,6320446.000000000000000,62831.853071795863798,314159265.358979284763336
48,1,48,Reserva,-23.022717000000000,-43.440916000000001, , , ,0.000000000000000,0, , , ,0.000000000000000,0.000000000000000,10000.000000000000000,47,3304557,Rio de Janeiro,RJ,"Sports, recreation and leisure activities",2008.000000000000000,24331.000000000000000,434867.198880933225155,1411849963.785689115524292,6320446.000000000000000,0.003849570109451,6320446.000000000000000,6320446.000000000000000,62831.853071795863798,314159265.358979284763336
49,1,49,Barra da Tijuca,-23.020340120000000,-43.372478489999999, , , ,0.000000000000000,0, , , ,0.000000000000000,0.000000000000000,10000.000000000000000,48,3304557,Rio de Janeiro,RJ,"Sports, recreation and leisure activities",2008.000000000000000,24331.000000000000000,434867.198880933225155,1411849963.785689115524292,6320446.000000000000000,0.003849570109451,6320446.000000000000000,6320446.000000000000000,62831.853071795863798,314159265.358979284763336
50,1,50,Barra da Tijuca,-23.014886109999999,-43.372222219999998, , , ,0.000000000000000,0, , , ,0.000000000000000,0.000000000000000,10000.000000000000000,49,3304557,Rio de Janeiro,RJ,"Sports, recreation and leisure activities",2008.000000000000000,24331.000000000000000,434867.198880933225155,1411849963.785689115524292,6320446.000000000000000,0.003849570109451,6320446.000000000000000,6320446.000000000000000,62831.853071795863798,314159265.358979284763336
51,1,51,Sao Conrado,-23.000617999999999,-43.264187000000000, , , ,0.000000000000000,0, , , ,0.000000000000000,0.000000000000000,10000.000000000000000,50,3304557,Rio de Janeiro,RJ,"Sports, recreation and leisure activities",2008.000000000000000,24331.000000000000000,434867.198880933225155,1411849963.785689115524292,6320446.000000000000000,0.003849570109451,6320446.000000000000000,6320446.000000000000000,62831.853071795863798,314159265.358979284763336
52,3,52,Bambui,-22.975255000000001,-42.916570000000000, , , ,0.000000000000000,0, , , ,0.000000000000000,0.000000000000000,10000.000000000000000,51,3302700,Maricá,RJ,"Sports, recreation and leisure activities",31.000000000000000,153.000000000000000,125531.007486177812098,425238300.271389722824097,127461.000000000000000,0.001920575364643,127461.000000000000000,127461.000000000000000,62831.853071795863798,314159265.358979284763336
53,3,53,Itaipuacu,-22.971149000000000,-43.011260000000000, , , ,0.000000000000000,0, , , ,0.000000000000000,0.000000000000000,10000.000000000000000,52,3302700,Maricá,RJ,"Sports, recreation and leisure activities",31.000000000000000,153.000000000000000,125531.007486177812098,425238300.271389722824097,127461.000000000000000,0.001920575364643,127461.000000000000000,127461.000000000000000,62831.853071795863798,314159265.358979284763336
54,1,54,Barra de Marica,-22.962100000000000,-42.809486999999997, , , ,0.000000000000000,0, , , ,0.000000000000000,0.000000000000000,10000.000000000000000,53,3302700,Maricá,RJ,"Sports, recreation and leisure activities",31.000000000000000,153.000000000000000,125531.007486177812098,425238300.271389722824097,127461.000000000000000,0.001200367171135,127461.000000000000000,127461.000000000000000,62831.853071795863798,314159265.358979284763336
55,3,55,Camboinhas,-22.961998000000001,-43.059922999999998, , , ,0.000000000000000,0, , , ,0.000000000000000,0.000000000000000,10000.000000000000000,54,3302700,Maricá,RJ,"Sports, recreation and leisure activities",31.000000000000000,153.000000000000000,125531.007486177812098,425238300.271389722824097,127461.000000000000000,0.002890680241964,127461.000000000000000,127461.000000000000000,62831.853071795863798,314159265.358979284763336
56,3,56,Pirantininga,-22.955044999999998,-43.088653999999998, , , ,0.000000000000000,0, , , ,0.000000000000000,0.000000000000000,10000.000000000000000,55,3302700,Maricá,RJ,"Sports, recreation and leisure activities",31.000000000000000,153.000000000000000,125531.007486177812098,425238300.271389722824097,127461.000000000000000,0.002890680241964,127461.000000000000000,127461.000000000000000,62831.853071795863798,314159265.358979284763336
57,2,57,Jacone,-22.946556000000001,-42.679789000000000, , , ,0.000000000000000,0, , , ,0.000000000000000,0.000000000000000,10000.000000000000000,56,3302700,Maricá,RJ,"Sports, recreation and leisure activities",31.000000000000000,153.000000000000000,125531.007486177812098,425238300.271389722824097,127461.000000000000000,0.001893391549573,127461.000000000000000,127461.000000000000000,62831.853071795863798,314159265.358979284763336
58,4,58,Figueira,-22.944991999999999,-42.188828000000001, , , ,0.000000000000000,0, , , ,0.000000000000000,0.000000000000000,10000.000000000000000,57,3300258,Arraial do Cabo,RJ,"Sports, recreation and leisure activities",10.000000000000000,57.000000000000000,123156.395728925810545,178914052.135263621807098,27715.000000000000000,0.001481209689843,27715.000000000000000,27715.000000000000000,62831.853071795863798,314159265.358979284763336
59,2,59,Praia do Fora,-22.944794000000002,-43.155304000000001, , , ,0.000000000000000,0, , , ,0.000000000000000,0.000000000000000,10000.000000000000000,58,3303302,Niterói,RJ,"Sports, recreation and leisure activities",245.000000000000000,1766.000000000000000,118118.517978922463953,157308567.556245595216751,487562.000000000000000,0.003735836777378,487562.000000000000000,487562.000000000000000,62831.853071795863798,314159265.358979284763336
60,2,60,Laje do Pao de Acucar,-22.938409000000000,-43.151797000000002, , , ,0.000000000000000,0, , , ,0.000000000000000,0.000000000000000,10000.000000000000000,59,3303302,Niterói,RJ,"Sports, recreation and leisure activities",245.000000000000000,1766.000000000000000,118118.517978922463953,157308567.556245595216751,487562.000000000000000,0.003735836777378,487562.000000000000000,487562.000000000000000,62831.853071795863798,314159265.358979284763336
61,1,61,Canal,-22.937418999999998,-42.487813000000003, , , ,0.000000000000000,0, , , ,0.000000000000000,0.000000000000000,10000.000000000000000,60,3305505,Saquarema,RJ,"Sports, recreation and leisure activities",24.000000000000000,192.000000000000000,101218.212265853231656,413907519.591797113418579,74234.000000000000000,0.002586415928011,74234.000000000000000,74234.000000000000000,62831.853071795863798,314159265.358979284763336
62,3,62,Praia Seca,-22.936126000000002,-42.361598000000001, , , ,0.000000000000000,0, , , ,0.000000000000000,0.000000000000000,10000.000000000000000,61,3300209,Araruama,RJ,"Sports, recreation and leisure activities",21.000000000000000,83.000000000000000,156110.824906448193360,748913602.606810092926025,112008.000000000000000,0.001794694150409,112008.000000000000000,112008.000000000000000,62831.853071795863798,314159265.358979284763336
63,3,63,Caravelas,-22.814850000000000,-41.953901999999999, , , ,0.000000000000000,0, , , ,0.000000000000000,0.000000000000000,10000.000000000000000,62,3300233,Armação dos Búzios,RJ,"Sports, recreation and leisure activities",19.000000000000000,109.000000000000000,91457.024319647796801,83305512.195469111204147,27560.000000000000000,0.002330574844413,27560.000000000000000,27560.000000000000000,62831.853071795863798,314159265.358979284763336
64,2,64,Tucuns,-22.799863999999999,-41.929282000000001, , , ,0.000000000000000,0, , , ,0.000000000000000,0.000000000000000,10000.000000000000000,63,3300233,Armação dos Búzios,RJ,"Sports, recreation and leisure activities",19.000000000000000,109.000000000000000,91457.024319647796801,83305512.195469111204147,27560.000000000000000,0.002898422721812,27560.000000000000000,27560.000000000000000,62831.853071795863798,314159265.358979284763336
65,1,65,Praia Brava,-22.754252000000001,-41.872608999999997, , , ,0.000000000000000,0, , , ,0.000000000000000,0.000000000000000,10000.000000000000000,64,3300233,Armação dos Búzios,RJ,"Sports, recreation and leisure activities",19.000000000000000,109.000000000000000,91457.024319647796801,83305512.195469111204147,27560.000000000000000,0.003955007256894,27560.000000000000000,27560.000000000000000,62831.853071795863798,314159265.358979284763336
66,2,66,Marataizes,-21.044882999999999,-40.827455999999998, , , ,0.000000000000000,0, , , ,0.000000000000000,0.000000000000000,10000.000000000000000,65,3202801,Itapemirim,ES,"Sports, recreation and leisure activities",4.000000000000000,0.000000000000000,150977.364551067497814,630263873.303075313568115,30988.000000000000000,0.000366139425893,30988.000000000000000,30988.000000000000000,62831.853071795863798,314159265.358979284763336
67,2,67,Ponta do Ubu,-20.793246000000000,-40.579551000000002, , , ,0.000000000000000,0, , , ,0.000000000000000,0.000000000000000,10000.000000000000000,66,3200409,Anchieta,ES,"Sports, recreation and leisure activities",9.000000000000000,16.000000000000000,152833.116290699108504,467346512.827679276466370,23902.000000000000000,0.001379473309300,23902.000000000000000,23902.000000000000000,62831.853071795863798,314159265.358979284763336
68,2,68,Ponta dos Castelhanos,-20.755085000000001,-40.560755000000000, , , ,0.000000000000000,0, , , ,0.000000000000000,0.000000000000000,10000.000000000000000,67,3200409,Anchieta,ES,"Sports, recreation and leisure activities",9.000000000000000,16.000000000000000,152833.116290699108504,467346512.827679276466370,23902.000000000000000,0.001379473309300,23902.000000000000000,23902.000000000000000,62831.853071795863798,314159265.358979284763336
69,2,69,Maimba,-20.707021999999998,-40.514367999999997, , , ,0.000000000000000,0, , , ,0.000000000000000,0.000000000000000,10000.000000000000000,68,3200409,Anchieta,ES,"Sports, recreation and leisure activities",9.000000000000000,16.000000000000000,152833.116290699108504,467346512.827679276466370,23902.000000000000000,0.001379473309300,23902.000000000000000,23902.000000000000000,62831.853071795863798,314159265.358979284763336
70,1,70,Praia do Morro,-20.659787999999999,-40.493842999999998, , , ,0.000000000000000,0, , , ,0.000000000000000,0.000000000000000,10000.000000000000000,69,3202405,Guarapari,ES,"Sports, recreation and leisure activities",49.000000000000000,220.000000000000000,185509.963740314531606,671656835.974476695060730,105286.000000000000000,0.002089546568395,105286.000000000000000,105286.000000000000000,62831.853071795863798,314159265.358979284763336
71,1,71,Ponta de Bororo,-20.614518000000000,-40.415382000000001, , , ,0.000000000000000,0, , , ,0.000000000000000,0.000000000000000,10000.000000000000000,70,3202405,Guarapari,ES,"Sports, recreation and leisure activities",49.000000000000000,220.000000000000000,185509.963740314531606,671656835.974476695060730,105286.000000000000000,0.002089546568395,105286.000000000000000,105286.000000000000000,62831.853071795863798,314159265.358979284763336
72,2,72,Tropical,-20.559543999999999,-40.391810000000000, , , ,0.000000000000000,0, , , ,0.000000000000000,0.000000000000000,10000.000000000000000,71,3202405,Guarapari,ES,"Sports, recreation and leisure activities",49.000000000000000,220.000000000000000,185509.963740314531606,671656835.974476695060730,105286.000000000000000,0.001903461228315,105286.000000000000000,105286.000000000000000,62831.853071795863798,314159265.358979284763336
73,2,73,Dunas de Ule,-20.542100000000001,-40.379860999999998, , , ,0.000000000000000,0, , , ,0.000000000000000,0.000000000000000,10000.000000000000000,72,3202405,Guarapari,ES,"Sports, recreation and leisure activities",49.000000000000000,220.000000000000000,185509.963740314531606,671656835.974476695060730,105286.000000000000000,0.001903461228315,105286.000000000000000,105286.000000000000000,62831.853071795863798,314159265.358979284763336
74,2,74,Guarapari - Ule,-20.541319000000001,-40.378385999999999, , , ,0.000000000000000,0, , , ,0.000000000000000,0.000000000000000,10000.000000000000000,73,3202405,Guarapari,ES,"Sports, recreation and leisure activities",49.000000000000000,220.000000000000000,185509.963740314531606,671656835.974476695060730,105286.000000000000000,0.001903461228315,105286.000000000000000,105286.000000000000000,62831.853071795863798,314159265.358979284763336
75,2,75,Ponta da Fruta,-20.516836999999999,-40.358133000000002, , , ,0.000000000000000,0, , , ,0.000000000000000,0.000000000000000,10000.000000000000000,74,3202405,Guarapari,ES,"Sports, recreation and leisure activities",49.000000000000000,220.000000000000000,185509.963740314531606,671656835.974476695060730,105286.000000000000000,0.001903461228315,105286.000000000000000,105286.000000000000000,62831.853071795863798,314159265.358979284763336
76,4,76,Coral Dois,-20.448948000000001,-40.330300000000001, , , ,0.000000000000000,0, , , ,0.000000000000000,0.000000000000000,10000.000000000000000,75,3201308,Cariacica,ES,"Sports, recreation and leisure activities",70.000000000000000,242.000000000000000,118311.192013068604865,317314784.362984657287598,348738.000000000000000,0.001125213285963,348738.000000000000000,348738.000000000000000,62831.853071795863798,314159265.358979284763336
77,3,77,Ponta da Belina,-20.445827000000001,-40.329245000000000, , , ,0.000000000000000,0, , , ,0.000000000000000,0.000000000000000,10000.000000000000000,76,3201308,Cariacica,ES,"Sports, recreation and leisure activities",70.000000000000000,242.000000000000000,118311.192013068604865,317314784.362984657287598,348738.000000000000000,0.000803768858485,348738.000000000000000,348738.000000000000000,62831.853071795863798,314159265.358979284763336
78,3,78,Coral Um,-20.437659000000000,-40.326006999999997, , , ,0.000000000000000,0, , , ,0.000000000000000,0.000000000000000,10000.000000000000000,77,3201308,Cariacica,ES,"Sports, recreation and leisure activities",70.000000000000000,242.000000000000000,118311.192013068604865,317314784.362984657287598,348738.000000000000000,0.000803768858485,348738.000000000000000,348738.000000000000000,62831.853071795863798,314159265.358979284763336
79,3,79,Barrinha,-20.422540999999999,-40.321933999999999, , , ,0.000000000000000,0, , , ,0.000000000000000,0.000000000000000,10000.000000000000000,78,3201308,Cariacica,ES,"Sports, recreation and leisure activities",70.000000000000000,242.000000000000000,118311.192013068604865,317314784.362984657287598,348738.000000000000000,0.000803768858485,348738.000000000000000,348738.000000000000000,62831.853071795863798,314159265.358979284763336
80,4,80,Praia de Camburi,-20.279677000000000,-40.248994000000003, , , ,0.000000000000000,0, , , ,0.000000000000000,0.000000000000000,10000.000000000000000,79,3201308,Cariacica,ES,"Sports, recreation and leisure activities",70.000000000000000,242.000000000000000,118311.192013068604865,317314784.362984657287598,348738.000000000000000,0.001677009826013,348738.000000000000000,348738.000000000000000,62831.853071795863798,314159265.358979284763336
81,2,81,Velzyland,-20.244838999999999,-40.216205000000002, , , ,0.000000000000000,0, , , ,0.000000000000000,0.000000000000000,10000.000000000000000,80,3205002,Serra,ES,"Sports, recreation and leisure activities",141.000000000000000,500.000000000000000,134006.678447264479473,619949191.040087342262268,409267.000000000000000,0.002148366364297,409267.000000000000000,409267.000000000000000,62831.853071795863798,314159265.358979284763336
82,2,82,Ponta da Cacao,-20.219573000000000,-40.196268000000003, , , ,0.000000000000000,0, , , ,0.000000000000000,0.000000000000000,10000.000000000000000,81,3205002,Serra,ES,"Sports, recreation and leisure activities",141.000000000000000,500.000000000000000,134006.678447264479473,619949191.040087342262268,409267.000000000000000,0.002148366364297,409267.000000000000000,409267.000000000000000,62831.853071795863798,314159265.358979284763336
83,2,83,"Manguinhos, Brazil",-20.199344000000000,-40.190266999999999, , , ,0.000000000000000,0, , , ,0.000000000000000,0.000000000000000,10000.000000000000000,82,3205002,Serra,ES,"Sports, recreation and leisure activities",141.000000000000000,500.000000000000000,134006.678447264479473,619949191.040087342262268,409267.000000000000000,0.002148366364297,409267.000000000000000,409267.000000000000000,62831.853071795863798,314159265.358979284763336
84,2,84,Praia da Baleia,-20.171105000000001,-40.184866000000000, , , ,0.000000000000000,0, , , ,0.000000000000000,0.000000000000000,10000.000000000000000,83,3205002,Serra,ES,"Sports, recreation and leisure activities",141.000000000000000,500.000000000000000,134006.678447264479473,619949191.040087342262268,409267.000000000000000,0.002148366364297,409267.000000000000000,409267.000000000000000,62831.853071795863798,314159265.358979284763336
85,2,85,Jacaraipe - Solemar,-20.109774999999999,-40.171481000000000, , , ,0.000000000000000,0, , , ,0.000000000000000,0.000000000000000,10000.000000000000000,84,3202207,Fundão,ES,"Sports, recreation and leisure activities",5.000000000000000,8.000000000000000,152639.616042121895589,324078869.887525260448456,17025.000000000000000,0.000845796779900,17025.000000000000000,17025.000000000000000,62831.853071795863798,314159265.358979284763336
86,2,86,Xa,-20.107229000000000,-40.171174999999998, , , ,0.000000000000000,0, , , ,0.000000000000000,0.000000000000000,10000.000000000000000,85,3202207,Fundão,ES,"Sports, recreation and leisure activities",5.000000000000000,8.000000000000000,152639.616042121895589,324078869.887525260448456,17025.000000000000000,0.000845796779900,17025.000000000000000,17025.000000000000000,62831.853071795863798,314159265.358979284763336
87,3,87,Nova Almeida,-20.058461999999999,-40.183000999999997, , , ,0.000000000000000,0, , , ,0.000000000000000,0.000000000000000,10000.000000000000000,86,3200607,Aracruz,ES,"Sports, recreation and leisure activities",35.000000000000000,106.000000000000000,200122.311138328397647,1600527569.834954977035522,81832.000000000000000,0.000995643449122,81832.000000000000000,81832.000000000000000,62831.853071795863798,314159265.358979284763336
88,3,88,Praia Grande,-20.047100000000000,-40.182743000000002, , , ,0.000000000000000,0, , , ,0.000000000000000,0.000000000000000,10000.000000000000000,87,3200607,Aracruz,ES,"Sports, recreation and leisure activities",35.000000000000000,106.000000000000000,200122.311138328397647,1600527569.834954977035522,81832.000000000000000,0.000995643449122,81832.000000000000000,81832.000000000000000,62831.853071795863798,314159265.358979284763336
89,1,89,Regencia,-19.562811000000000,-39.764263999999997, , , ,0.000000000000000,0, , , ,0.000000000000000,0.000000000000000,10000.000000000000000,88,3203205,Linhares,ES,"Sports, recreation and leisure activities",61.000000000000000,221.000000000000000,353386.659464737749659,3579642722.870089530944824,141306.000000000000000,0.001563981713445,141306.000000000000000,141306.000000000000000,62831.853071795863798,314159265.358979284763336
90,1,90,Guriri,-18.910750000000000,-39.738563999999997, , , ,0.000000000000000,0, , , ,0.000000000000000,0.000000000000000,10000.000000000000000,89,3204906,São Mateus,ES,"Sports, recreation and leisure activities",29.000000000000000,122.000000000000000,271616.247045507363509,2173140014.362313270568848,109028.000000000000000,0.001118978610999,109028.000000000000000,109028.000000000000000,62831.853071795863798,314159265.358979284763336
91,1,91,Milionarios,-14.847631000000000,-39.022942000000000, , , ,0.000000000000000,0, , , ,0.000000000000000,0.000000000000000,10000.000000000000000,90,2913606,Ilhéus,BA,"Sports, recreation and leisure activities",33.000000000000000,140.000000000000000,321248.030762370268349,1679261724.877599000930786,184236.000000000000000,0.000759894917389,184236.000000000000000,184236.000000000000000,62831.853071795863798,314159265.358979284763336
92,1,92,Sul,-14.831120000000000,-39.022562999999998, , , ,0.000000000000000,0, , , ,0.000000000000000,0.000000000000000,10000.000000000000000,91,2913606,Ilhéus,BA,"Sports, recreation and leisure activities",33.000000000000000,140.000000000000000,321248.030762370268349,1679261724.877599000930786,184236.000000000000000,0.000759894917389,184236.000000000000000,184236.000000000000000,62831.853071795863798,314159265.358979284763336
93,1,93,Pedra da Cachorra,-14.821026000000000,-39.023632999999997, , , ,0.000000000000000,0, , , ,0.000000000000000,0.000000000000000,10000.000000000000000,92,2913606,Ilhéus,BA,"Sports, recreation and leisure activities",33.000000000000000,140.000000000000000,321248.030762370268349,1679261724.877599000930786,184236.000000000000000,0.000759894917389,184236.000000000000000,184236.000000000000000,62831.853071795863798,314159265.358979284763336
94,1,94,Jardim Atlantico,-14.815026000000000,-39.023400000000002, , , ,0.000000000000000,0, , , ,0.000000000000000,0.000000000000000,10000.000000000000000,93,2913606,Ilhéus,BA,"Sports, recreation and leisure activities",33.000000000000000,140.000000000000000,321248.030762370268349,1679261724.877599000930786,184236.000000000000000,0.000759894917389,184236.000000000000000,184236.000000000000000,62831.853071795863798,314159265.358979284763336
95,1,95,Baduska,-14.809442000000001,-39.023423000000001, , , ,0.000000000000000,0, , , ,0.000000000000000,0.000000000000000,10000.000000000000000,94,2913606,Ilhéus,BA,"Sports, recreation and leisure activities",33.000000000000000,140.000000000000000,321248.030762370268349,1679261724.877599000930786,184236.000000000000000,0.000759894917389,184236.000000000000000,184236.000000000000000,62831.853071795863798,314159265.358979284763336
96,1,96,Norte,-14.660090000000000,-39.063006999999999, , , ,0.000000000000000,0, , , ,0.000000000000000,0.000000000000000,10000.000000000000000,95,2913606,Ilhéus,BA,"Sports, recreation and leisure activities",33.000000000000000,140.000000000000000,321248.030762370268349,1679261724.877599000930786,184236.000000000000000,0.000759894917389,184236.000000000000000,184236.000000000000000,62831.853071795863798,314159265.358979284763336
97,3,97,Havaizinho,-14.468062000000000,-39.023161000000002, , , ,0.000000000000000,0, , , ,0.000000000000000,0.000000000000000,10000.000000000000000,96,2913606,Ilhéus,BA,"Sports, recreation and leisure activities",33.000000000000000,140.000000000000000,321248.030762370268349,1679261724.877599000930786,184236.000000000000000,0.000253298305796,184236.000000000000000,184236.000000000000000,62831.853071795863798,314159265.358979284763336
98,2,98,Sao Jose,-14.316062000000001,-38.990701000000001, , , ,0.000000000000000,0, , , ,0.000000000000000,0.000000000000000,10000.000000000000000,97,2914901,Itacaré,BA,"Sports, recreation and leisure activities",6.000000000000000,0.000000000000000,144416.045188557123765,772626721.470325469970703,24318.000000000000000,0.000000000000000,24318.000000000000000,24318.000000000000000,62831.853071795863798,314159265.358979284763336
99,2,99,Corals,-14.275408000000001,-38.982568999999998, , , ,0.000000000000000,0, , , ,0.000000000000000,0.000000000000000,10000.000000000000000,98,2914901,Itacaré,BA,"Sports, recreation and leisure activities",6.000000000000000,0.000000000000000,144416.045188557123765,772626721.470325469970703,24318.000000000000000,0.000000000000000,24318.000000000000000,24318.000000000000000,62831.853071795863798,314159265.358979284763336
100,1,100,Tony,-13.016731999999999,-38.488781000000003, , , ,0.000000000000000,0, , , ,0.000000000000000,0.000000000000000,10000.000000000000000,99,2927408,Salvador,BA,"Sports, recreation and leisure activities",513.000000000000000,3860.000000000000000,153651.073524797422579,728550712.886666059494019,2675656.000000000000000,0.001442636871107,2675656.000000000000000,2675656.000000000000000,62831.853071795863798,314159265.358979284763336
101,1,101,Meridien,-13.016598000000000,-38.484878999999999, , , ,0.000000000000000,0, , , ,0.000000000000000,0.000000000000000,10000.000000000000000,100,2927408,Salvador,BA,"Sports, recreation and leisure activities",513.000000000000000,3860.000000000000000,153651.073524797422579,728550712.886666059494019,2675656.000000000000000,0.001442636871107,2675656.000000000000000,2675656.000000000000000,62831.853071795863798,314159265.358979284763336
102,1,102,Amaralina,-13.015369000000000,-38.471834000000001, , , ,0.000000000000000,0, , , ,0.000000000000000,0.000000000000000,10000.000000000000000,101,2927408,Salvador,BA,"Sports, recreation and leisure activities",513.000000000000000,3860.000000000000000,153651.073524797422579,728550712.886666059494019,2675656.000000000000000,0.001442636871107,2675656.000000000000000,2675656.000000000000000,62831.853071795863798,314159265.358979284763336
103,1,103,Tubao,-13.010683999999999,-38.461410999999998, , , ,0.000000000000000,0, , , ,0.000000000000000,0.000000000000000,10000.000000000000000,102,2927408,Salvador,BA,"Sports, recreation and leisure activities",513.000000000000000,3860.000000000000000,153651.073524797422579,728550712.886666059494019,2675656.000000000000000,0.001442636871107,2675656.000000000000000,2675656.000000000000000,62831.853071795863798,314159265.358979284763336
104,1,104,Psiu,-12.995919000000001,-38.439390000000003, , , ,0.000000000000000,0, , , ,0.000000000000000,0.000000000000000,10000.000000000000000,103,2927408,Salvador,BA,"Sports, recreation and leisure activities",513.000000000000000,3860.000000000000000,153651.073524797422579,728550712.886666059494019,2675656.000000000000000,0.001442636871107,2675656.000000000000000,2675656.000000000000000,62831.853071795863798,314159265.358979284763336
105,1,105,Alex,-12.973279000000000,-38.406477000000002, , , ,0.000000000000000,0, , , ,0.000000000000000,0.000000000000000,10000.000000000000000,104,2927408,Salvador,BA,"Sports, recreation and leisure activities",513.000000000000000,3860.000000000000000,153651.073524797422579,728550712.886666059494019,2675656.000000000000000,0.001442636871107,2675656.000000000000000,2675656.000000000000000,62831.853071795863798,314159265.358979284763336
106,2,106,Terceira Ponte,-12.963839999999999,-38.396822000000000, , , ,0.000000000000000,0, , , ,0.000000000000000,0.000000000000000,10000.000000000000000,105,2919207,Lauro de Freitas,BA,"Sports, recreation and leisure activities",69.000000000000000,408.000000000000000,44958.372642597612867,60975279.729594029486179,163449.000000000000000,0.001969414171838,163449.000000000000000,163449.000000000000000,62831.853071795863798,314159265.358979284763336
107,2,107,SESC,-12.960485000000000,-38.390998000000003, , , ,0.000000000000000,0, , , ,0.000000000000000,0.000000000000000,10000.000000000000000,106,2919207,Lauro de Freitas,BA,"Sports, recreation and leisure activities",69.000000000000000,408.000000000000000,44958.372642597612867,60975279.729594029486179,163449.000000000000000,0.001969414171838,163449.000000000000000,163449.000000000000000,62831.853071795863798,314159265.358979284763336
108,2,108,Farol,-12.958147000000000,-38.352812999999998, , , ,0.000000000000000,0, , , ,0.000000000000000,0.000000000000000,10000.000000000000000,107,2919207,Lauro de Freitas,BA,"Sports, recreation and leisure activities",69.000000000000000,408.000000000000000,44958.372642597612867,60975279.729594029486179,163449.000000000000000,0.001969414171838,163449.000000000000000,163449.000000000000000,62831.853071795863798,314159265.358979284763336
109,2,109,Pedro do Sal,-12.954224000000000,-38.347234000000000, , , ,0.000000000000000,0, , , ,0.000000000000000,0.000000000000000,10000.000000000000000,108,2919207,Lauro de Freitas,BA,"Sports, recreation and leisure activities",69.000000000000000,408.000000000000000,44958.372642597612867,60975279.729594029486179,163449.000000000000000,0.001969414171838,163449.000000000000000,163449.000000000000000,62831.853071795863798,314159265.358979284763336
110,3,110,Itapoa,-12.952339000000000,-38.369608999999997, , , ,0.000000000000000,0, , , ,0.000000000000000,0.000000000000000,10000.000000000000000,109,2919207,Lauro de Freitas,BA,"Sports, recreation and leisure activities",69.000000000000000,408.000000000000000,44958.372642597612867,60975279.729594029486179,163449.000000000000000,0.001564255111625,163449.000000000000000,163449.000000000000000,62831.853071795863798,314159265.358979284763336
111,2,111,Seper,-12.952040999999999,-38.343243999999999, , , ,0.000000000000000,0, , , ,0.000000000000000,0.000000000000000,10000.000000000000000,110,2919207,Lauro de Freitas,BA,"Sports, recreation and leisure activities",69.000000000000000,408.000000000000000,44958.372642597612867,60975279.729594029486179,163449.000000000000000,0.001969414171838,163449.000000000000000,163449.000000000000000,62831.853071795863798,314159265.358979284763336
112,2,112,Corrente,-12.948985000000000,-38.339199999999998, , , ,0.000000000000000,0, , , ,0.000000000000000,0.000000000000000,10000.000000000000000,111,2919207,Lauro de Freitas,BA,"Sports, recreation and leisure activities",69.000000000000000,408.000000000000000,44958.372642597612867,60975279.729594029486179,163449.000000000000000,0.001969414171838,163449.000000000000000,163449.000000000000000,62831.853071795863798,314159265.358979284763336
113,3,113,Stela Maris,-12.947385000000001,-38.337372000000002, , , ,0.000000000000000,0, , , ,0.000000000000000,0.000000000000000,10000.000000000000000,112,2905701,Camaçari,BA,"Sports, recreation and leisure activities",47.000000000000000,130.000000000000000,213986.614317887433572,823829100.797487497329712,242970.000000000000000,0.001491291274181,242970.000000000000000,242970.000000000000000,62831.853071795863798,314159265.358979284763336
114,3,114,Plator,-12.946393000000000,-38.333083999999999, , , ,0.000000000000000,0, , , ,0.000000000000000,0.000000000000000,10000.000000000000000,113,2905701,Camaçari,BA,"Sports, recreation and leisure activities",47.000000000000000,130.000000000000000,213986.614317887433572,823829100.797487497329712,242970.000000000000000,0.001491291274181,242970.000000000000000,242970.000000000000000,62831.853071795863798,314159265.358979284763336
115,3,115,Aleluia,-12.926800999999999,-38.312618999999998, , , ,0.000000000000000,0, , , ,0.000000000000000,0.000000000000000,10000.000000000000000,114,2905701,Camaçari,BA,"Sports, recreation and leisure activities",47.000000000000000,130.000000000000000,213986.614317887433572,823829100.797487497329712,242970.000000000000000,0.001491291274181,242970.000000000000000,242970.000000000000000,62831.853071795863798,314159265.358979284763336
116,3,116,Ipitanga,-12.920477000000000,-38.309717999999997, , , ,0.000000000000000,0, , , ,0.000000000000000,0.000000000000000,10000.000000000000000,115,2905701,Camaçari,BA,"Sports, recreation and leisure activities",47.000000000000000,130.000000000000000,213986.614317887433572,823829100.797487497329712,242970.000000000000000,0.001491291274181,242970.000000000000000,242970.000000000000000,62831.853071795863798,314159265.358979284763336
117,3,117,Vilas,-12.894546000000000,-38.290790999999999, , , ,0.000000000000000,0, , , ,0.000000000000000,0.000000000000000,10000.000000000000000,116,2905701,Camaçari,BA,"Sports, recreation and leisure activities",47.000000000000000,130.000000000000000,213986.614317887433572,823829100.797487497329712,242970.000000000000000,0.001491291274181,242970.000000000000000,242970.000000000000000,62831.853071795863798,314159265.358979284763336
118,3,118,Busca Vida,-12.863464000000000,-38.255961999999997, , , ,0.000000000000000,0, , , ,0.000000000000000,0.000000000000000,10000.000000000000000,117,2905701,Camaçari,BA,"Sports, recreation and leisure activities",47.000000000000000,130.000000000000000,213986.614317887433572,823829100.797487497329712,242970.000000000000000,0.001491291274181,242970.000000000000000,242970.000000000000000,62831.853071795863798,314159265.358979284763336
119,2,119,Itacimirim,-12.639232000000000,-38.048194000000002, , , ,0.000000000000000,0, , , ,0.000000000000000,0.000000000000000,10000.000000000000000,118,2905701,Camaçari,BA,"Sports, recreation and leisure activities",47.000000000000000,130.000000000000000,213986.614317887433572,823829100.797487497329712,242970.000000000000000,0.000267522739433,242970.000000000000000,242970.000000000000000,62831.853071795863798,314159265.358979284763336
120,2,120,Praia do Forte,-12.583304999999999,-38.005077999999997, , , ,0.000000000000000,0, , , ,0.000000000000000,0.000000000000000,10000.000000000000000,119,2905701,Camaçari,BA,"Sports, recreation and leisure activities",47.000000000000000,130.000000000000000,213986.614317887433572,823829100.797487497329712,242970.000000000000000,0.000267522739433,242970.000000000000000,242970.000000000000000,62831.853071795863798,314159265.358979284763336
121,3,121,Imbassai,-12.342055000000000,-37.846200000000003, , , ,0.000000000000000,0, , , ,0.000000000000000,0.000000000000000,10000.000000000000000,120,2910503,Entre Rios,BA,"Sports, recreation and leisure activities",4.000000000000000,0.000000000000000,241534.607457387377508,941829918.924265027046204,39872.000000000000000,0.000000000000000,39872.000000000000000,39872.000000000000000,62831.853071795863798,314159265.358979284763336
122,2,122,Costa do Sauipe,-12.022171000000000,-37.645508000000000, , , ,0.000000000000000,0, , , ,0.000000000000000,0.000000000000000,10000.000000000000000,121,2908606,Conde,BA,"Sports, recreation and leisure activities",1.000000000000000,0.000000000000000,196040.866086339286994,970494723.223256230354309,23620.000000000000000,0.000091457837937,23620.000000000000000,23620.000000000000000,62831.853071795863798,314159265.358979284763336
123,1,123,Marlin,-11.939802999999999,-37.602476000000003, , , ,0.000000000000000,0, , , ,0.000000000000000,0.000000000000000,10000.000000000000000,122,2908606,Conde,BA,"Sports, recreation and leisure activities",1.000000000000000,0.000000000000000,196040.866086339286994,970494723.223256230354309,23620.000000000000000,0.000000000000000,23620.000000000000000,23620.000000000000000,62831.853071795863798,314159265.358979284763336
124,2,124,Conde,-11.848141000000000,-37.558169999999997, , , ,0.000000000000000,0, , , ,0.000000000000000,0.000000000000000,10000.000000000000000,123,2908606,Conde,BA,"Sports, recreation and leisure activities",1.000000000000000,0.000000000000000,196040.866086339286994,970494723.223256230354309,23620.000000000000000,0.000000000000000,23620.000000000000000,23620.000000000000000,62831.853071795863798,314159265.358979284763336
125,4,125,Mangue Seco,-11.483613999999999,-37.364454000000002, , , ,0.000000000000000,0, , , ,0.000000000000000,0.000000000000000,10000.000000000000000,124,2802106,Estância,SE,"Sports, recreation and leisure activities",10.000000000000000,0.000000000000000,157021.785047923156526,671971348.147604703903198,64409.000000000000000,0.000000000000000,64409.000000000000000,64409.000000000000000,62831.853071795863798,314159265.358979284763336
126,3,126,Mosqueiro,-11.138116000000000,-37.145493000000002, , , ,0.000000000000000,0, , , ,0.000000000000000,0.000000000000000,10000.000000000000000,125,2800308,Aracaju,SE,"Sports, recreation and leisure activities",212.000000000000000,1083.000000000000000,88055.549779936845880,188764170.430754661560059,571149.000000000000000,0.000632059234981,571149.000000000000000,571149.000000000000000,62831.853071795863798,314159265.358979284763336
127,3,127,Aruana,-11.067069000000000,-37.101289000000001, , , ,0.000000000000000,0, , , ,0.000000000000000,0.000000000000000,10000.000000000000000,126,2800308,Aracaju,SE,"Sports, recreation and leisure activities",212.000000000000000,1083.000000000000000,88055.549779936845880,188764170.430754661560059,571149.000000000000000,0.000632059234981,571149.000000000000000,571149.000000000000000,62831.853071795863798,314159265.358979284763336
128,2,128,Hawaiizinho,-11.043927999999999,-37.082977999999997, , , ,0.000000000000000,0, , , ,0.000000000000000,0.000000000000000,10000.000000000000000,127,2800308,Aracaju,SE,"Sports, recreation and leisure activities",212.000000000000000,1083.000000000000000,88055.549779936845880,188764170.430754661560059,571149.000000000000000,0.000948088852471,571149.000000000000000,571149.000000000000000,62831.853071795863798,314159265.358979284763336
129,3,129,Praia do Meio,-10.999541000000001,-37.050151000000000, , , ,0.000000000000000,0, , , ,0.000000000000000,0.000000000000000,10000.000000000000000,128,2800308,Aracaju,SE,"Sports, recreation and leisure activities",212.000000000000000,1083.000000000000000,88055.549779936845880,188764170.430754661560059,571149.000000000000000,0.000845597565111,571149.000000000000000,571149.000000000000000,62831.853071795863798,314159265.358979284763336
130,5,130,Pirambu,-10.746346000000001,-36.855099000000003, , , ,0.000000000000000,0, , , ,0.000000000000000,0.000000000000000,10000.000000000000000,129,2800605,Barra dos Coqueiros,SE,"Sports, recreation and leisure activities",5.000000000000000,16.000000000000000,77581.673438928817632,95520207.604005202651024,24976.000000000000000,0.000128122998078,24976.000000000000000,24976.000000000000000,62831.853071795863798,314159265.358979284763336
131,2,131,Ponta do Mangue,-10.639483000000000,-36.678539000000001, , , ,0.000000000000000,0, , , ,0.000000000000000,0.000000000000000,10000.000000000000000,130,2804904,Pacatuba,SE,"Sports, recreation and leisure activities",0.000000000000000,0.000000000000000,103454.640989495703252,394016248.583871245384216,13137.000000000000000,0.000000000000000,13137.000000000000000,13137.000000000000000,62831.853071795863798,314159265.358979284763336
132,2,132,Pontal de Peba,-10.367584000000001,-36.303941000000002, , , ,0.000000000000000,0, , , ,0.000000000000000,0.000000000000000,10000.000000000000000,131,2702702,Feliz Deserto,AL,"Sports, recreation and leisure activities",0.000000000000000,0.000000000000000,48497.072767830053635,113526028.160550042986870,4345.000000000000000,0.000000000000000,4345.000000000000000,4345.000000000000000,62831.853071795863798,314159265.358979284763336
133,1,133,Mihai,-10.196728000000000,-36.181641999999997, , , ,0.000000000000000,0, , , ,0.000000000000000,0.000000000000000,10000.000000000000000,132,2702306,Coruripe,AL,"Sports, recreation and leisure activities",1.000000000000000,0.000000000000000,152430.715383011614904,924887881.858755707740784,52130.000000000000000,0.000000000000000,52130.000000000000000,52130.000000000000000,62831.853071795863798,314159265.358979284763336
134,1,134,Pontal do Coruripe,-10.160774999999999,-36.150663999999999, , , ,0.000000000000000,0, , , ,0.000000000000000,0.000000000000000,10000.000000000000000,133,2702306,Coruripe,AL,"Sports, recreation and leisure activities",1.000000000000000,0.000000000000000,152430.715383011614904,924887881.858755707740784,52130.000000000000000,0.000000000000000,52130.000000000000000,52130.000000000000000,62831.853071795863798,314159265.358979284763336
135,2,135,Forjos,-10.107661999999999,-36.097672000000003, , , ,0.000000000000000,0, , , ,0.000000000000000,0.000000000000000,10000.000000000000000,134,2702306,Coruripe,AL,"Sports, recreation and leisure activities",1.000000000000000,0.000000000000000,152430.715383011614904,924887881.858755707740784,52130.000000000000000,0.000000000000000,52130.000000000000000,52130.000000000000000,62831.853071795863798,314159265.358979284763336
136,2,136,Poxim,-10.063563000000000,-36.040908999999999, , , ,0.000000000000000,0, , , ,0.000000000000000,0.000000000000000,10000.000000000000000,135,2702306,Coruripe,AL,"Sports, recreation and leisure activities",1.000000000000000,0.000000000000000,152430.715383011614904,924887881.858755707740784,52130.000000000000000,0.000000000000000,52130.000000000000000,52130.000000000000000,62831.853071795863798,314159265.358979284763336
137,3,137,Jacarecica,-9.916383000000000,-35.945963999999996, , , ,0.000000000000000,0, , , ,0.000000000000000,0.000000000000000,10000.000000000000000,136,2700607,Barra de São Miguel,AL,"Sports, recreation and leisure activities",6.000000000000000,0.000000000000000,53443.656837486960285,76361006.650805667042732,7574.000000000000000,0.000000000000000,7574.000000000000000,7574.000000000000000,62831.853071795863798,314159265.358979284763336
138,3,138,Praia do Meio,-9.824446999999999,-35.877803000000000, , , ,0.000000000000000,0, , , ,0.000000000000000,0.000000000000000,10000.000000000000000,137,2700607,Barra de São Miguel,AL,"Sports, recreation and leisure activities",6.000000000000000,0.000000000000000,53443.656837486960285,76361006.650805667042732,7574.000000000000000,0.000261000065250,7574.000000000000000,7574.000000000000000,62831.853071795863798,314159265.358979284763336
139,4,139,Praia do Pontal,-9.682589999999999,-35.758536999999997, , , ,0.000000000000000,0, , , ,0.000000000000000,0.000000000000000,10000.000000000000000,138,2702207,Coqueiro Seco,AL,"Sports, recreation and leisure activities",0.000000000000000,0.000000000000000,36835.205293825041736,40694353.155637159943581,5526.000000000000000,0.000490309779969,5526.000000000000000,5526.000000000000000,62831.853071795863798,314159265.358979284763336
140,3,140,Salgema,-9.679629000000000,-35.718974000000003, , , ,0.000000000000000,0, , , ,0.000000000000000,0.000000000000000,10000.000000000000000,139,2702207,Coqueiro Seco,AL,"Sports, recreation and leisure activities",0.000000000000000,0.000000000000000,36835.205293825041736,40694353.155637159943581,5526.000000000000000,0.000653746373292,5526.000000000000000,5526.000000000000000,62831.853071795863798,314159265.358979284763336
141,3,141,Pier do Emissario,-9.673301000000000,-35.715234000000002, , , ,0.000000000000000,0, , , ,0.000000000000000,0.000000000000000,10000.000000000000000,140,2702207,Coqueiro Seco,AL,"Sports, recreation and leisure activities",0.000000000000000,0.000000000000000,36835.205293825041736,40694353.155637159943581,5526.000000000000000,0.000653746373292,5526.000000000000000,5526.000000000000000,62831.853071795863798,314159265.358979284763336
142,3,142,Praia do Sobral,-9.666869000000000,-35.710735000000000, , , ,0.000000000000000,0, , , ,0.000000000000000,0.000000000000000,10000.000000000000000,141,2702207,Coqueiro Seco,AL,"Sports, recreation and leisure activities",0.000000000000000,0.000000000000000,36835.205293825041736,40694353.155637159943581,5526.000000000000000,0.000653746373292,5526.000000000000000,5526.000000000000000,62831.853071795863798,314159265.358979284763336
143,2,143,"Pico da Barra, Brazil",-9.665630000000000,-35.697186000000002, , , ,0.000000000000000,0, , , ,0.000000000000000,0.000000000000000,10000.000000000000000,142,2702207,Coqueiro Seco,AL,"Sports, recreation and leisure activities",0.000000000000000,0.000000000000000,36835.205293825041736,40694353.155637159943581,5526.000000000000000,0.000589119462063,5526.000000000000000,5526.000000000000000,62831.853071795863798,314159265.358979284763336
144,1,144,Pedra Virada,-9.585521999999999,-35.660038000000000, , , ,0.000000000000000,0, , , ,0.000000000000000,0.000000000000000,10000.000000000000000,143,2704302,Maceió,AL,"Sports, recreation and leisure activities",200.000000000000000,1099.000000000000000,119782.485250709156389,522924682.084742724895477,932748.000000000000000,0.001178238924125,932748.000000000000000,932748.000000000000000,62831.853071795863798,314159265.358979284763336
145,2,145,Praia de Jatiuca,-9.531449000000000,-35.590927999999998, , , ,0.000000000000000,0, , , ,0.000000000000000,0.000000000000000,10000.000000000000000,144,2704302,Maceió,AL,"Sports, recreation and leisure activities",200.000000000000000,1099.000000000000000,119782.485250709156389,522924682.084742724895477,932748.000000000000000,0.000589119462063,932748.000000000000000,932748.000000000000000,62831.853071795863798,314159265.358979284763336
146,3,146,Garca Torta,-9.487114000000000,-35.557476999999999, , , ,0.000000000000000,0, , , ,0.000000000000000,0.000000000000000,10000.000000000000000,145,2700508,Barra de Santo Antônio,AL,"Sports, recreation and leisure activities",0.000000000000000,0.000000000000000,77774.844307329069125,134764461.401209592819214,14230.000000000000000,0.000392746308042,14230.000000000000000,14230.000000000000000,62831.853071795863798,314159265.358979284763336
147,5,147,Mirante da Sirena,-9.430906000000000,-35.503683000000002, , , ,0.000000000000000,0, , , ,0.000000000000000,0.000000000000000,10000.000000000000000,146,2700508,Barra de Santo Antônio,AL,"Sports, recreation and leisure activities",0.000000000000000,0.000000000000000,77774.844307329069125,134764461.401209592819214,14230.000000000000000,0.000235647784825,14230.000000000000000,14230.000000000000000,62831.853071795863798,314159265.358979284763336
148,3,148,Japaratinga,-9.261582000000001,-35.353366000000001, , , ,0.000000000000000,0, , , ,0.000000000000000,0.000000000000000,10000.000000000000000,147,2706505,Passo de Camaragibe,AL,"Sports, recreation and leisure activities",0.000000000000000,0.000000000000000,87789.158344542665873,257608089.290475070476532,14763.000000000000000,0.000000000000000,14763.000000000000000,14763.000000000000000,62831.853071795863798,314159265.358979284763336
149,2,149,Impossivel,-8.615505000000001,-35.020375000000001, , , ,0.000000000000000,0, , , ,0.000000000000000,0.000000000000000,10000.000000000000000,148,2607208,Ipojuca,PE,"Sports, recreation and leisure activities",15.000000000000000,51.000000000000000,125593.788612841060967,532560225.632682740688324,80637.000000000000000,0.000403089258982,80637.000000000000000,80637.000000000000000,62831.853071795863798,314159265.358979284763336
150,2,150,Serrambi,-8.576358000000001,-35.028714999999998, , , ,0.000000000000000,0, , , ,0.000000000000000,0.000000000000000,10000.000000000000000,149,2607208,Ipojuca,PE,"Sports, recreation and leisure activities",15.000000000000000,51.000000000000000,125593.788612841060967,532560225.632682740688324,80637.000000000000000,0.000403089258982,80637.000000000000000,80637.000000000000000,62831.853071795863798,314159265.358979284763336
151,2,151,Porto de Galinhas,-8.488678000000000,-34.999501000000002, , , ,0.000000000000000,0, , , ,0.000000000000000,0.000000000000000,10000.000000000000000,150,2607208,Ipojuca,PE,"Sports, recreation and leisure activities",15.000000000000000,51.000000000000000,125593.788612841060967,532560225.632682740688324,80637.000000000000000,0.000403089258982,80637.000000000000000,80637.000000000000000,62831.853071795863798,314159265.358979284763336
152,1,152,Cupe,-8.479708000000000,-34.996577000000002, , , ,0.000000000000000,0, , , ,0.000000000000000,0.000000000000000,10000.000000000000000,151,2607208,Ipojuca,PE,"Sports, recreation and leisure activities",15.000000000000000,51.000000000000000,125593.788612841060967,532560225.632682740688324,80637.000000000000000,0.000632464005357,80637.000000000000000,80637.000000000000000,62831.853071795863798,314159265.358979284763336
153,2,153,Gaibu,-8.341567000000000,-34.948825999999997, , , ,0.000000000000000,0, , , ,0.000000000000000,0.000000000000000,10000.000000000000000,152,2602902,Cabo de Santo Agostinho,PE,"Sports, recreation and leisure activities",11.000000000000000,37.000000000000000,141250.833539131097496,454136669.403226137161255,185025.000000000000000,0.000416218490991,185025.000000000000000,185025.000000000000000,62831.853071795863798,314159265.358979284763336
154,4,154,Bessa,-7.091138000000000,-34.832765000000002, , , ,0.000000000000000,0, , , ,0.000000000000000,0.000000000000000,10000.000000000000000,153,2501807,Bayeux,PB,"Sports, recreation and leisure activities",9.000000000000000,30.000000000000000,35051.367177720734617,28101307.225109390914440,99716.000000000000000,0.000556889867674,99716.000000000000000,99716.000000000000000,62831.853071795863798,314159265.358979284763336
155,2,155,Saji,-6.466880000000000,-34.970449000000002, , , ,0.000000000000000,0, , , ,0.000000000000000,0.000000000000000,10000.000000000000000,154,2401404,Baía Formosa,RN,"Sports, recreation and leisure activities",1.000000000000000,0.000000000000000,79494.148925711779157,250307574.272380918264389,8573.000000000000000,0.000000000000000,8573.000000000000000,8573.000000000000000,62831.853071795863798,314159265.358979284763336
156,2,156,Farol,-6.408908000000000,-34.979016999999999, , , ,0.000000000000000,0, , , ,0.000000000000000,0.000000000000000,10000.000000000000000,155,2401404,Baía Formosa,RN,"Sports, recreation and leisure activities",1.000000000000000,0.000000000000000,79494.148925711779157,250307574.272380918264389,8573.000000000000000,0.000000000000000,8573.000000000000000,8573.000000000000000,62831.853071795863798,314159265.358979284763336
157,2,157,Xilauzinho,-6.395101000000000,-34.983204999999998, , , ,0.000000000000000,0, , , ,0.000000000000000,0.000000000000000,10000.000000000000000,156,2401404,Baía Formosa,RN,"Sports, recreation and leisure activities",1.000000000000000,0.000000000000000,79494.148925711779157,250307574.272380918264389,8573.000000000000000,0.000113209988356,8573.000000000000000,8573.000000000000000,62831.853071795863798,314159265.358979284763336
158,3,158,Mar Aberto,-6.379758000000000,-34.989437000000002, , , ,0.000000000000000,0, , , ,0.000000000000000,0.000000000000000,10000.000000000000000,157,2401404,Baía Formosa,RN,"Sports, recreation and leisure activities",1.000000000000000,0.000000000000000,79494.148925711779157,250307574.272380918264389,8573.000000000000000,0.000075473325570,8573.000000000000000,8573.000000000000000,62831.853071795863798,314159265.358979284763336
159,3,159,Pontal,-6.368680000000000,-34.993423999999997, , , ,0.000000000000000,0, , , ,0.000000000000000,0.000000000000000,10000.000000000000000,158,2401404,Baía Formosa,RN,"Sports, recreation and leisure activities",1.000000000000000,0.000000000000000,79494.148925711779157,250307574.272380918264389,8573.000000000000000,0.000075473325570,8573.000000000000000,8573.000000000000000,62831.853071795863798,314159265.358979284763336
160,4,160,Mar da Frente,-6.365217000000000,-35.006211999999998, , , ,0.000000000000000,0, , , ,0.000000000000000,0.000000000000000,10000.000000000000000,159,2401404,Baía Formosa,RN,"Sports, recreation and leisure activities",1.000000000000000,0.000000000000000,79494.148925711779157,250307574.272380918264389,8573.000000000000000,0.000825160110559,8573.000000000000000,8573.000000000000000,62831.853071795863798,314159265.358979284763336
161,4,161,Lajinha,-6.278960000000000,-35.033028000000002, , , ,0.000000000000000,0, , , ,0.000000000000000,0.000000000000000,10000.000000000000000,160,2401404,Baía Formosa,RN,"Sports, recreation and leisure activities",1.000000000000000,0.000000000000000,79494.148925711779157,250307574.272380918264389,8573.000000000000000,0.000825160110559,8573.000000000000000,8573.000000000000000,62831.853071795863798,314159265.358979284763336
162,5,162,Afogados,-6.244350000000000,-35.036464000000002, , , ,0.000000000000000,0, , , ,0.000000000000000,0.000000000000000,10000.000000000000000,161,2401404,Baía Formosa,RN,"Sports, recreation and leisure activities",1.000000000000000,0.000000000000000,79494.148925711779157,250307574.272380918264389,8573.000000000000000,0.000660128088447,8573.000000000000000,8573.000000000000000,62831.853071795863798,314159265.358979284763336
163,5,163,Sororoca,-6.238074000000000,-35.035608000000003, , , ,0.000000000000000,0, , , ,0.000000000000000,0.000000000000000,10000.000000000000000,162,2401404,Baía Formosa,RN,"Sports, recreation and leisure activities",1.000000000000000,0.000000000000000,79494.148925711779157,250307574.272380918264389,8573.000000000000000,0.000660128088447,8573.000000000000000,8573.000000000000000,62831.853071795863798,314159265.358979284763336
164,6,164,Abacateiro,-6.233891000000000,-35.036746999999998, , , ,0.000000000000000,0, , , ,0.000000000000000,0.000000000000000,10000.000000000000000,163,2401206,Arês,RN,"Sports, recreation and leisure activities",1.000000000000000,0.000000000000000,54325.074377766373800,116614536.749661073088646,12924.000000000000000,0.000550106740373,12924.000000000000000,12924.000000000000000,62831.853071795863798,314159265.358979284763336
165,6,165,Tibau do Sul,-6.180279000000000,-35.089708999999999, , , ,0.000000000000000,0, , , ,0.000000000000000,0.000000000000000,10000.000000000000000,164,2401206,Arês,RN,"Sports, recreation and leisure activities",1.000000000000000,0.000000000000000,54325.074377766373800,116614536.749661073088646,12924.000000000000000,0.000951709694290,12924.000000000000000,12924.000000000000000,62831.853071795863798,314159265.358979284763336
166,3,166,Tabatinga,-6.049479000000000,-35.108238000000000, , , ,0.000000000000000,0, , , ,0.000000000000000,0.000000000000000,10000.000000000000000,165,2403251,Parnamirim,RN,"Sports, recreation and leisure activities",73.000000000000000,257.000000000000000,65690.132019416298135,125176217.949197560548782,202456.000000000000000,0.001123888413706,202456.000000000000000,202456.000000000000000,62831.853071795863798,314159265.358979284763336
167,2,167,Xoxoline,-6.005800000000000,-35.105258999999997, , , ,0.000000000000000,0, , , ,0.000000000000000,0.000000000000000,10000.000000000000000,166,2403251,Parnamirim,RN,"Sports, recreation and leisure activities",73.000000000000000,257.000000000000000,65690.132019416298135,125176217.949197560548782,202456.000000000000000,0.001685832620559,202456.000000000000000,202456.000000000000000,62831.853071795863798,314159265.358979284763336
168,2,168,Pirangi Reef,-5.980259000000000,-35.107796000000000, , , ,0.000000000000000,0, , , ,0.000000000000000,0.000000000000000,10000.000000000000000,167,2403251,Parnamirim,RN,"Sports, recreation and leisure activities",73.000000000000000,257.000000000000000,65690.132019416298135,125176217.949197560548782,202456.000000000000000,0.001685832620559,202456.000000000000000,202456.000000000000000,62831.853071795863798,314159265.358979284763336
169,4,169,Cotovelo,-5.949906000000000,-35.151975000000000, , , ,0.000000000000000,0, , , ,0.000000000000000,0.000000000000000,10000.000000000000000,168,2403251,Parnamirim,RN,"Sports, recreation and leisure activities",73.000000000000000,257.000000000000000,65690.132019416298135,125176217.949197560548782,202456.000000000000000,0.001246965385912,202456.000000000000000,202456.000000000000000,62831.853071795863798,314159265.358979284763336
170,4,170,Miami,-5.794834000000000,-35.181663999999998, , , ,0.000000000000000,0, , , ,0.000000000000000,0.000000000000000,10000.000000000000000,169,2403251,Parnamirim,RN,"Sports, recreation and leisure activities",73.000000000000000,257.000000000000000,65690.132019416298135,125176217.949197560548782,202456.000000000000000,0.001433681684007,202456.000000000000000,202456.000000000000000,62831.853071795863798,314159265.358979284763336
171,4,171,Areia Preta,-5.792249000000000,-35.184387000000001, , , ,0.000000000000000,0, , , ,0.000000000000000,0.000000000000000,10000.000000000000000,170,2403251,Parnamirim,RN,"Sports, recreation and leisure activities",73.000000000000000,257.000000000000000,65690.132019416298135,125176217.949197560548782,202456.000000000000000,0.001433681684007,202456.000000000000000,202456.000000000000000,62831.853071795863798,314159265.358979284763336
172,3,172,Praia dos Artistas,-5.781239000000000,-35.192050000000002, , , ,0.000000000000000,0, , , ,0.000000000000000,0.000000000000000,10000.000000000000000,171,2403608,Extremoz,RN,"Sports, recreation and leisure activities",12.000000000000000,70.000000000000000,61673.803257308638422,141850185.824242979288101,24569.000000000000000,0.001488438370262,24569.000000000000000,24569.000000000000000,62831.853071795863798,314159265.358979284763336
173,4,173,Genipabu,-5.694407000000000,-35.201922000000003, , , ,0.000000000000000,0, , , ,0.000000000000000,0.000000000000000,10000.000000000000000,172,2402600,Ceará-Mirim,RN,"Sports, recreation and leisure activities",5.000000000000000,21.000000000000000,126497.440711386050680,730864241.129628062248230,68141.000000000000000,0.001193374902643,68141.000000000000000,68141.000000000000000,62831.853071795863798,314159265.358979284763336
174,1,174,Touros Area,-5.197434000000000,-35.457929999999998, , , ,0.000000000000000,0, , , ,0.000000000000000,0.000000000000000,10000.000000000000000,173,2414407,Touros,RN,"Sports, recreation and leisure activities",0.000000000000000,0.000000000000000,154948.977050850895466,759438682.075217366218567,31089.000000000000000,0.000000000000000,31089.000000000000000,31089.000000000000000,62831.853071795863798,314159265.358979284763336
175,2,175,Urca da Concei&ccedil;&atilde;o,-5.069617000000000,-35.800230999999997, , , ,0.000000000000000,0, , , ,0.000000000000000,0.000000000000000,10000.000000000000000,174,2409506,Pedra Grande,RN,"Sports, recreation and leisure activities",0.000000000000000,0.000000000000000,63051.723359043149685,222678072.382682025432587,3521.000000000000000,0.000000000000000,3521.000000000000000,3521.000000000000000,62831.853071795863798,314159265.358979284763336
176,3,176,Cocoa das Lavadeiras,-5.066515000000000,-35.862005000000003, , , ,0.000000000000000,0, , , ,0.000000000000000,0.000000000000000,10000.000000000000000,175,2409506,Pedra Grande,RN,"Sports, recreation and leisure activities",0.000000000000000,0.000000000000000,63051.723359043149685,222678072.382682025432587,3521.000000000000000,0.000000000000000,3521.000000000000000,3521.000000000000000,62831.853071795863798,314159265.358979284763336
177,1,177,Baia das Ratas,-3.813000000000000,-32.393000000000001, , , ,0.000000000000000,0, , , ,0.000000000000000,0.000000000000000,10000.000000000000000,176,2605459,Fernando de Noronha,PE,"Sports, recreation and leisure activities",11.000000000000000,0.000000000000000,52995.913725357975636,18670763.281643267720938,2630.000000000000000,0.000000000000000,2630.000000000000000,2630.000000000000000,62831.853071795863798,314159265.358979284763336
178,1,178,Volta da Jurema,-3.724294000000000,-38.496071999999998, , , ,0.000000000000000,0, , , ,0.000000000000000,0.000000000000000,10000.000000000000000,177,2304400,Fortaleza,CE,"Sports, recreation and leisure activities",632.000000000000000,5030.000000000000000,113167.554767321198597,313331963.268373012542725,2452185.000000000000000,0.002051231860565,2452185.000000000000000,2452185.000000000000000,62831.853071795863798,314159265.358979284763336
179,2,179,Portao,-3.719326000000000,-38.510655000000000, , , ,0.000000000000000,0, , , ,0.000000000000000,0.000000000000000,10000.000000000000000,178,2303709,Caucaia,CE,"Sports, recreation and leisure activities",36.000000000000000,126.000000000000000,172262.484931130922632,1227077195.795379161834717,325441.000000000000000,0.001219199406243,325441.000000000000000,325441.000000000000000,62831.853071795863798,314159265.358979284763336
180,2,180,Barra do Ceara,-3.692659000000000,-38.584716000000000, , , ,0.000000000000000,0, , , ,0.000000000000000,0.000000000000000,10000.000000000000000,179,2303709,Caucaia,CE,"Sports, recreation and leisure activities",36.000000000000000,126.000000000000000,172262.484931130922632,1227077195.795379161834717,325441.000000000000000,0.001219199406243,325441.000000000000000,325441.000000000000000,62831.853071795863798,314159265.358979284763336
181,2,181,Praia do Pecem,-3.546170000000000,-38.806919000000001, , , ,0.000000000000000,0, , , ,0.000000000000000,0.000000000000000,10000.000000000000000,180,2303709,Caucaia,CE,"Sports, recreation and leisure activities",36.000000000000000,126.000000000000000,172262.484931130922632,1227077195.795379161834717,325441.000000000000000,0.000193583475960,325441.000000000000000,325441.000000000000000,62831.853071795863798,314159265.358979284763336
182,2,182,Tabinha,-3.500935000000000,-38.911282000000000, , , ,0.000000000000000,0, , , ,0.000000000000000,0.000000000000000,10000.000000000000000,181,2310209,Paracuru,CE,"Sports, recreation and leisure activities",2.000000000000000,0.000000000000000,88089.084687890950590,305484382.163070201873779,31636.000000000000000,0.000000000000000,31636.000000000000000,31636.000000000000000,62831.853071795863798,314159265.358979284763336
183,2,183,Pedra do Meio,-3.410858000000000,-39.040807000000001, , , ,0.000000000000000,0, , , ,0.000000000000000,0.000000000000000,10000.000000000000000,182,2310209,Paracuru,CE,"Sports, recreation and leisure activities",2.000000000000000,0.000000000000000,88089.084687890950590,305484382.163070201873779,31636.000000000000000,0.000049931759928,31636.000000000000000,31636.000000000000000,62831.853071795863798,314159265.358979284763336
184,2,184,Havaizinho,-3.403507000000000,-39.022171000000000, , , ,0.000000000000000,0, , , ,0.000000000000000,0.000000000000000,10000.000000000000000,183,2310209,Paracuru,CE,"Sports, recreation and leisure activities",2.000000000000000,0.000000000000000,88089.084687890950590,305484382.163070201873779,31636.000000000000000,0.000049931759928,31636.000000000000000,31636.000000000000000,62831.853071795863798,314159265.358979284763336
185,2,185,Curral,-3.403353000000000,-39.025868000000003, , , ,0.000000000000000,0, , , ,0.000000000000000,0.000000000000000,10000.000000000000000,184,2310209,Paracuru,CE,"Sports, recreation and leisure activities",2.000000000000000,0.000000000000000,88089.084687890950590,305484382.163070201873779,31636.000000000000000,0.000049931759928,31636.000000000000000,31636.000000000000000,62831.853071795863798,314159265.358979284763336
186,2,186,Outside,-3.398539000000000,-39.013306000000000, , , ,0.000000000000000,0, , , ,0.000000000000000,0.000000000000000,10000.000000000000000,185,2310209,Paracuru,CE,"Sports, recreation and leisure activities",2.000000000000000,0.000000000000000,88089.084687890950590,305484382.163070201873779,31636.000000000000000,0.000049931759928,31636.000000000000000,31636.000000000000000,62831.853071795863798,314159265.358979284763336
187,1,187,Atins,-2.555789000000000,-42.727836000000003, , , ,0.000000000000000,0, , , ,0.000000000000000,0.000000000000000,10000.000000000000000,186,2101707,Barreirinhas,MA,"Sports, recreation and leisure activities",5.000000000000000,9.000000000000000,246434.975330356712220,2313202113.029103755950928,54930.000000000000000,0.000163844893501,54930.000000000000000,54930.000000000000000,62831.853071795863798,314159265.358979284763336
188,1,188,Ponta d'Areia,-2.497384000000000,-44.311779000000001, , , ,0.000000000000000,0, , , ,0.000000000000000,0.000000000000000,10000.000000000000000,187,2111300,São Luís,MA,"Sports, recreation and leisure activities",212.000000000000000,1070.000000000000000,146014.124332727777073,583582643.532891988754272,1014837.000000000000000,0.001054356512425,1014837.000000000000000,1014837.000000000000000,62831.853071795863798,314159265.358979284763336
189,2,189,S&atilde;o Marcos,-2.485445000000000,-44.297899999999998, , , ,0.000000000000000,0, , , ,0.000000000000000,0.000000000000000,10000.000000000000000,188,2111201,São José de Ribamar,MA,"Sports, recreation and leisure activities",13.000000000000000,52.000000000000000,126760.001724854897475,180506883.566643714904785,163045.000000000000000,0.000686643434538,163045.000000000000000,163045.000000000000000,62831.853071795863798,314159265.358979284763336
190,4,190,Calhau,-2.480673000000000,-44.249679999999998, , , ,0.000000000000000,0, , , ,0.000000000000000,0.000000000000000,10000.000000000000000,189,2107506,Paço do Lumiar,MA,"Sports, recreation and leisure activities",11.000000000000000,0.000000000000000,61634.526663709904824,127280533.085188269615173,105121.000000000000000,0.000343321717269,105121.000000000000000,105121.000000000000000,62831.853071795863798,314159265.358979284763336
191,4,191,Olho D'Agu,-2.477097000000000,-44.230155000000003, , , ,0.000000000000000,0, , , ,0.000000000000000,0.000000000000000,10000.000000000000000,190,2107506,Paço do Lumiar,MA,"Sports, recreation and leisure activities",11.000000000000000,0.000000000000000,61634.526663709904824,127280533.085188269615173,105121.000000000000000,0.000343321717269,105121.000000000000000,105121.000000000000000,62831.853071795863798,314159265.358979284763336
192,4,192,Ponta do Farol,-2.456442000000000,-44.173347999999997, , , ,0.000000000000000,0, , , ,0.000000000000000,0.000000000000000,10000.000000000000000,191,2107506,Paço do Lumiar,MA,"Sports, recreation and leisure activities",11.000000000000000,0.000000000000000,61634.526663709904824,127280533.085188269615173,105121.000000000000000,0.000343321717269,105121.000000000000000,105121.000000000000000,62831.853071795863798,314159265.358979284763336
193,2,193, ,0.000000000000000,0.000000000000000,Rio Grande Do Sul,Hermenegildo, ,3.000000000000000,3,Right and left,Beach-break,All surfers,-33.668354000000001,-53.262405000000001,10000.000000000000000,192,4305439,Chuí,RS,"Sports, recreation and leisure activities",2.000000000000000,0.000000000000000,79372.929205494350754,291128891.023273289203644,5917.000000000000000,0.000193610842207,5917.000000000000000,5917.000000000000000,62831.853071795863798,314159265.358979284763336
194,1,194, ,0.000000000000000,0.000000000000000,Rio Grande Do Sul,Navio, ,3.000000000000000,2,Right and left,Beach-break,All surfers,-32.290560999999997,-52.258674999999997,10000.000000000000000,193,4315602,Rio Grande,RS,"Sports, recreation and leisure activities",76.000000000000000,206.000000000000000,491488.821954794111662,3757875699.276828765869141,197228.000000000000000,0.001044476443507,197228.000000000000000,197228.000000000000000,62831.853071795863798,314159265.358979284763336
195,3,195, ,0.000000000000000,0.000000000000000,Rio Grande Do Sul,Tres Marias, ,5.000000000000000,2,Right and left,Sand-bar,Pros or kamikaze only...,-32.192610999999999,-52.085065999999998,10000.000000000000000,194,4300002,Lagoa dos Patos,RS, ,0.000000000000000,0.000000000000000,1528000.321357266744599,13857047036.402599334716797,0.000000000000000,0.000348158814502,0.000000000000000,0.000000000000000,62831.853071795863798,314159265.358979284763336
196,3,196, ,0.000000000000000,0.000000000000000,Rio Grande Do Sul,Praia do Cassino, ,3.000000000000000,2,Right and left,Sand-bar,All surfers,-32.178336999999999,-52.142142999999997,10000.000000000000000,195,4300002,Lagoa dos Patos,RS, ,0.000000000000000,0.000000000000000,1528000.321357266744599,13857047036.402599334716797,0.000000000000000,0.000348158814502,0.000000000000000,0.000000000000000,62831.853071795863798,314159265.358979284763336
197,3,197, ,0.000000000000000,0.000000000000000,Rio Grande Do Sul,Sao Jose do Norte, ,3.000000000000000,0,Right and left,Beach-break,All surfers,-32.008076000000003,-52.018889999999999,10000.000000000000000,196,4300002,Lagoa dos Patos,RS, ,0.000000000000000,0.000000000000000,1528000.321357266744599,13857047036.402599334716797,0.000000000000000,0.000348158814502,0.000000000000000,0.000000000000000,62831.853071795863798,314159265.358979284763336
198,1,198, ,0.000000000000000,0.000000000000000,Rio Grande Do Sul,Quintão, ,3.500000000000000,3,Right and left,Sand-bar,Experienced surfers,-30.410782000000001,-50.292664000000002,10000.000000000000000,197,4313656,Palmares do Sul,RS,"Sports, recreation and leisure activities",1.000000000000000,0.000000000000000,248398.631580877205124,1271221703.249929189682007,10969.000000000000000,0.000000000000000,10969.000000000000000,10969.000000000000000,62831.853071795863798,314159265.358979284763336
199,4,199, ,0.000000000000000,0.000000000000000,Rio Grande Do Sul,Nova Tramandaí, ,3.000000000000000,3,Right and left,Beach-break,All surfers,-30.045256999999999,-50.150033999999998,10000.000000000000000,198,4305454,Cidreira,RS,"Sports, recreation and leisure activities",5.000000000000000,23.000000000000000,103019.974817121983506,324413456.624682009220123,12668.000000000000000,0.001316073375227,12668.000000000000000,12668.000000000000000,62831.853071795863798,314159265.358979284763336
200,4,200, ,0.000000000000000,0.000000000000000,Rio Grande Do Sul,Oasis Sul, ,3.000000000000000,3,Right and left,Beach-break,All surfers,-30.039822999999998,-50.147266000000002,10000.000000000000000,199,4305454,Cidreira,RS,"Sports, recreation and leisure activities",5.000000000000000,23.000000000000000,103019.974817121983506,324413456.624682009220123,12668.000000000000000,0.001316073375227,12668.000000000000000,12668.000000000000000,62831.853071795863798,314159265.358979284763336
201,4,201, ,0.000000000000000,0.000000000000000,Rio Grande Do Sul,Tramandai - Malvina, ,3.500000000000000,3,Right and left,Beach-break,All surfers,-30.005490000000002,-50.129156000000002,10000.000000000000000,200,4305454,Cidreira,RS,"Sports, recreation and leisure activities",5.000000000000000,23.000000000000000,103019.974817121983506,324413456.624682009220123,12668.000000000000000,0.001316073375227,12668.000000000000000,12668.000000000000000,62831.853071795863798,314159265.358979284763336
202,3,202, ,0.000000000000000,0.000000000000000,Rio Grande Do Sul,Tramandai,"Tramandai Pier, Northside",3.000000000000000,3,Right and left,Beach-break,All surfers,-29.993077000000000,-50.125508000000004,10000.000000000000000,201,4310330,Imbé,RS,"Sports, recreation and leisure activities",7.000000000000000,10.000000000000000,42749.975873384151782,52794933.968034110963345,17670.000000000000000,0.001149565047613,17670.000000000000000,17670.000000000000000,62831.853071795863798,314159265.358979284763336
203,4,203, ,0.000000000000000,0.000000000000000,Rio Grande Do Sul,Rainha do Mar, ,3.500000000000000,5,Right and left,Beach-break,All surfers,-29.859477999999999,-50.064568999999999,10000.000000000000000,202,4310330,Imbé,RS,"Sports, recreation and leisure activities",7.000000000000000,10.000000000000000,42749.975873384151782,52794933.968034110963345,17670.000000000000000,0.001313934312239,17670.000000000000000,17670.000000000000000,62831.853071795863798,314159265.358979284763336
204,4,204, ,0.000000000000000,0.000000000000000,Rio Grande Do Sul,Xangri-lá, ,3.000000000000000,3,Right and left,Beach-break,All surfers,-29.785982000000001,-50.024636000000001,10000.000000000000000,203,4304630,Capão da Canoa,RS,"Sports, recreation and leisure activities",38.000000000000000,309.000000000000000,59863.241038747539278,129967087.603439241647720,42040.000000000000000,0.003009987253437,42040.000000000000000,42040.000000000000000,62831.853071795863798,314159265.358979284763336
205,4,205, ,0.000000000000000,0.000000000000000,Rio Grande Do Sul,Atlântida - Pier, ,3.000000000000000,3,Right and left,Sand-bar,All surfers,-29.784716000000000,-50.022554000000000,10000.000000000000000,204,4304630,Capão da Canoa,RS,"Sports, recreation and leisure activities",38.000000000000000,309.000000000000000,59863.241038747539278,129967087.603439241647720,42040.000000000000000,0.003009987253437,42040.000000000000000,42040.000000000000000,62831.853071795863798,314159265.358979284763336
206,3,206, ,0.000000000000000,0.000000000000000,Rio Grande Do Sul,Capao da Canoa, ,3.000000000000000,3,Right and left,Sand-bar,All surfers,-29.758676999999999,-50.010967000000001,10000.000000000000000,205,4304630,Capão da Canoa,RS,"Sports, recreation and leisure activities",38.000000000000000,309.000000000000000,59863.241038747539278,129967087.603439241647720,42040.000000000000000,0.003581431854792,42040.000000000000000,42040.000000000000000,62831.853071795863798,314159265.358979284763336
207,3,207, ,0.000000000000000,0.000000000000000,Rio Grande Do Sul,Capao Novo, ,3.000000000000000,3,Right and left,Beach-break,All surfers,-29.686972000000001,-49.972558999999997,10000.000000000000000,206,4304630,Capão da Canoa,RS,"Sports, recreation and leisure activities",38.000000000000000,309.000000000000000,59863.241038747539278,129967087.603439241647720,42040.000000000000000,0.002643144363505,42040.000000000000000,42040.000000000000000,62831.853071795863798,314159265.358979284763336
208,4,208, ,0.000000000000000,0.000000000000000,Rio Grande Do Sul,Curumim, ,3.000000000000000,4,Right and left,Beach-break,Experienced surfers,-29.625605000000000,-49.935744999999997,10000.000000000000000,207,4301057,Arroio do Sal,RS,"Sports, recreation and leisure activities",5.000000000000000,0.000000000000000,64791.747628894678201,156920521.264817804098129,7740.000000000000000,0.001959880791394,7740.000000000000000,7740.000000000000000,62831.853071795863798,314159265.358979284763336
209,5,209, ,0.000000000000000,0.000000000000000,Rio Grande Do Sul,Itapeva, ,3.000000000000000,3,Right and left,Beach-break,All surfers,-29.372975000000000,-49.784109999999998,10000.000000000000000,208,4212254,Passo de Torres,SC,"Sports, recreation and leisure activities",6.000000000000000,8.000000000000000,63372.230533415247919,121391128.995290577411652,6627.000000000000000,0.000841390198656,6627.000000000000000,6627.000000000000000,62831.853071795863798,314159265.358979284763336
210,3,210, ,0.000000000000000,0.000000000000000,Rio Grande Do Sul,Guarita, ,3.000000000000000,2,Right and left,Beach-break,All surfers,-29.357804999999999,-49.733997000000002,10000.000000000000000,209,4212254,Passo de Torres,SC,"Sports, recreation and leisure activities",6.000000000000000,8.000000000000000,63372.230533415247919,121391128.995290577411652,6627.000000000000000,0.001239190182974,6627.000000000000000,6627.000000000000000,62831.853071795863798,314159265.358979284763336
211,3,211, ,0.000000000000000,0.000000000000000,Rio Grande Do Sul,Cal, ,3.500000000000000,3,Right and left,Beach-break,All surfers,-29.349421000000000,-49.729849999999999,10000.000000000000000,210,4212254,Passo de Torres,SC,"Sports, recreation and leisure activities",6.000000000000000,8.000000000000000,63372.230533415247919,121391128.995290577411652,6627.000000000000000,0.001239190182974,6627.000000000000000,6627.000000000000000,62831.853071795863798,314159265.358979284763336
212,2,212, ,0.000000000000000,0.000000000000000,Rio Grande Do Sul,Ilha dos Lobos, ,5.000000000000000,2,Left,Reef-rocky,Pros or kamikaze only...,-29.346876999999999,-49.704411999999998,10000.000000000000000,211,4212254,Passo de Torres,SC,"Sports, recreation and leisure activities",6.000000000000000,8.000000000000000,63372.230533415247919,121391128.995290577411652,6627.000000000000000,0.001858785274461,6627.000000000000000,6627.000000000000000,62831.853071795863798,314159265.358979284763336
213,2,213, ,0.000000000000000,0.000000000000000,Rio Grande Do Sul,Prainha, ,3.500000000000000,3,Right and left,Beach-break,Experienced surfers,-29.342434999999998,-49.724497000000000,10000.000000000000000,212,4212254,Passo de Torres,SC,"Sports, recreation and leisure activities",6.000000000000000,8.000000000000000,63372.230533415247919,121391128.995290577411652,6627.000000000000000,0.001858785274461,6627.000000000000000,6627.000000000000000,62831.853071795863798,314159265.358979284763336
214,2,214, ,0.000000000000000,0.000000000000000,Rio Grande Do Sul,Saraiva, ,3.500000000000000,3,Right and left,Beach-break,Experienced surfers,-29.340395999999998,-49.723241000000002,10000.000000000000000,213,4212254,Passo de Torres,SC,"Sports, recreation and leisure activities",6.000000000000000,8.000000000000000,63372.230533415247919,121391128.995290577411652,6627.000000000000000,0.001858785274461,6627.000000000000000,6627.000000000000000,62831.853071795863798,314159265.358979284763336
215,3,215, ,0.000000000000000,0.000000000000000,Rio Grande Do Sul,Molhes, ,3.500000000000000,3,Right and left,Beach-break,All surfers,-29.327311000000002,-49.712007999999997,10000.000000000000000,214,4212254,Passo de Torres,SC,"Sports, recreation and leisure activities",6.000000000000000,8.000000000000000,63372.230533415247919,121391128.995290577411652,6627.000000000000000,0.001239190182974,6627.000000000000000,6627.000000000000000,62831.853071795863798,314159265.358979284763336
216,3,216, ,0.000000000000000,0.000000000000000,Rio Grande Do Sul,Passo de Torres, ,3.500000000000000,2,Right and left,Rivermouth,Experienced surfers,-29.324159000000002,-49.712415999999997,10000.000000000000000,215,4212254,Passo de Torres,SC,"Sports, recreation and leisure activities",6.000000000000000,8.000000000000000,63372.230533415247919,121391128.995290577411652,6627.000000000000000,0.001239190182974,6627.000000000000000,6627.000000000000000,62831.853071795863798,314159265.358979284763336
217,3,217, ,0.000000000000000,0.000000000000000,Santa Catarina South,Gaivota, ,3.000000000000000,2,Right and left,Beach-break,Experienced surfers,-29.164828000000000,-49.582157000000002,10000.000000000000000,216,4202073,Balneário Gaivota,SC,"Sports, recreation and leisure activities",4.000000000000000,5.000000000000000,69167.521725159109337,191984046.987511366605759,8234.000000000000000,0.000578168969472,8234.000000000000000,8234.000000000000000,62831.853071795863798,314159265.358979284763336
218,3,218, ,0.000000000000000,0.000000000000000,Santa Catarina South,Arroio do Silva, ,3.500000000000000,2,Right and left,Beach-break,Experienced surfers,-28.943866000000000,-49.385604999999998,10000.000000000000000,217,4201406,Araranguá,SC,"Sports, recreation and leisure activities",26.000000000000000,0.000000000000000,120646.034336722921580,393022276.997496306896210,61310.000000000000000,0.000382502260241,61310.000000000000000,61310.000000000000000,62831.853071795863798,314159265.358979284763336
219,4,219, ,0.000000000000000,0.000000000000000,Santa Catarina South,Morro dos Conventos, ,3.500000000000000,3,Right and left,Beach-break,All surfers,-28.937256000000001,-49.329642999999997,10000.000000000000000,218,4201406,Araranguá,SC,"Sports, recreation and leisure activities",26.000000000000000,0.000000000000000,120646.034336722921580,393022276.997496306896210,61310.000000000000000,0.000550334278510,61310.000000000000000,61310.000000000000000,62831.853071795863798,314159265.358979284763336
220,3,220, ,0.000000000000000,0.000000000000000,Santa Catarina South,Rincão, ,3.500000000000000,4,Right and left,Beach-break,Experienced surfers,-28.833846999999999,-49.216003000000001,10000.000000000000000,219,4207007,Içara,SC,"Sports, recreation and leisure activities",34.000000000000000,62.000000000000000,86167.860902328524389,298920792.630317211151123,58833.000000000000000,0.000698298177425,58833.000000000000000,58833.000000000000000,62831.853071795863798,314159265.358979284763336
221,3,221, ,0.000000000000000,0.000000000000000,Santa Catarina South,Jaguaruna, ,3.500000000000000,3,Right and left,Beach-break,All surfers,-28.635157000000000,-48.948211999999998,10000.000000000000000,220,4208807,Jaguaruna,SC,"Sports, recreation and leisure activities",6.000000000000000,18.000000000000000,131659.269345947948750,422680551.955484628677368,17290.000000000000000,0.001265757794298,17290.000000000000000,17290.000000000000000,62831.853071795863798,314159265.358979284763336
222,3,222, ,0.000000000000000,0.000000000000000,Santa Catarina South,Camacho, ,3.000000000000000,2, ,Beach-break,All surfers,-28.615946000000001,-48.859506000000003,10000.000000000000000,221,4208807,Jaguaruna,SC,"Sports, recreation and leisure activities",6.000000000000000,18.000000000000000,131659.269345947948750,422680551.955484628677368,17290.000000000000000,0.001265757794298,17290.000000000000000,17290.000000000000000,62831.853071795863798,314159265.358979284763336
