OBJECTID,id,region,zone,name,lat,long,quality,frequency,direction,type,experience,BUFF_DIST,ORIG_FID,Shape_Leng,Shape_Area,SUM_Area_S,oceanic_pa
1,0,Sul,NA,Cardoso,-28.585450000000002,-48.798270000000002,NA,NA,NA,NA,NA,10000.000000000000000,1,62831.853071795863798,314159265.358979284763336,23.964125707427900,0.076280181264254
2,1,Sul,NA,Ravena,-28.454780000000000,-48.751339999999999,NA,NA,NA,NA,NA,10000.000000000000000,2,62831.853071795863798,314159265.358979284763336,82.703962862086797,0.263254890055793
3,2,Sul,NA,Praia da Vila Imbituba,-28.252472220000001,-48.661850000000001,NA,NA,NA,NA,NA,10000.000000000000000,3,62831.853071795863798,314159265.358979284763336,29.002145607435398,0.092316696673885
4,3,Sul,NA,Praia do Porto Imbituba,-28.220199000000001,-48.663214000000004,NA,NA,NA,NA,NA,10000.000000000000000,4,62831.853071795863798,314159265.358979284763336,21.981302352121499,0.069968658498753
5,4,Sul,NA,Ponta da Pinheira,-27.878140999999999,-48.576442000000000,NA,NA,NA,NA,NA,10000.000000000000000,5,62831.853071795863798,314159265.358979284763336,13.783201452239000,0.043873292855105
6,5,Sul,NA,Mocambique,-27.518350000000002,-48.392183330000002,NA,NA,NA,NA,NA,10000.000000000000000,6,62831.853071795863798,314159265.358979284763336,125.797407204101006,0.400425583693534
7,6,Sul,NA,Ponta das Canas,-27.394818999999998,-48.435709000000003,NA,NA,NA,NA,NA,10000.000000000000000,7,62831.853071795863798,314159265.358979284763336,153.715506984450002,0.489291655329040
8,7,Sul,NA,Itagua&ccedil;u,-26.184728000000000,-48.526327999999999,NA,NA,NA,NA,NA,10000.000000000000000,8,62831.853071795863798,314159265.358979284763336,138.710002495207988,0.441527651068030
9,8,Sul,NA,Caioba,-25.838000000000001,-48.534999999999997,NA,NA,NA,NA,NA,10000.000000000000000,9,62831.853071795863798,314159265.358979284763336,122.788442579095005,0.390847751820367
10,9,Sudeste,NA,Ilha Comprida,-24.783999999999999,-47.594999999999999,NA,NA,NA,NA,NA,10000.000000000000000,10,62831.853071795863798,314159265.358979284763336,0.000000000000000,0.000000000000000
11,10,Sudeste,NA,Iguape,-24.753211000000000,-47.542059000000002,NA,NA,NA,NA,NA,10000.000000000000000,11,62831.853071795863798,314159265.358979284763336,0.000000000000000,0.000000000000000
12,11,Sudeste,NA,Peruibe,-24.324427000000000,-46.978886000000003,NA,NA,NA,NA,NA,10000.000000000000000,12,62831.853071795863798,314159265.358979284763336,0.000000000000000,0.000000000000000
13,12,Sudeste,NA,Praia dos Pescadores,-24.194862000000001,-46.798881999999999,NA,NA,NA,NA,NA,10000.000000000000000,13,62831.853071795863798,314159265.358979284763336,0.000000000000000,0.000000000000000
14,13,Sudeste,NA,Itanhaem,-24.151427000000002,-46.707858000000002,NA,NA,NA,NA,NA,10000.000000000000000,14,62831.853071795863798,314159265.358979284763336,0.000000000000000,0.000000000000000
15,14,Sudeste,NA,Praia Grande,-24.028497000000002,-46.438310000000001,NA,NA,NA,NA,NA,10000.000000000000000,15,62831.853071795863798,314159265.358979284763336,12.710466799058500,0.040458672401512
16,15,Sudeste,NA,Praia do Forte dos Andradas,-24.028369000000001,-46.288159000000000,NA,NA,NA,NA,NA,10000.000000000000000,16,62831.853071795863798,314159265.358979284763336,59.797759861906101,0.190342181356890
17,16,Sudeste,NA,Praia do Forte dos Andradas,-24.025659999999998,-46.285460000000000,NA,NA,NA,NA,NA,10000.000000000000000,17,62831.853071795863798,314159265.358979284763336,54.068656030288103,0.172105877471116
18,17,Sudeste,NA,Praia da Ponta Grossa,-24.024816000000001,-46.314497000000003,NA,NA,NA,NA,NA,10000.000000000000000,18,62831.853071795863798,314159265.358979284763336,68.970016512463900,0.219538381061766
19,18,Sudeste,NA,Itaipu,-24.019545000000001,-46.386795999999997,NA,NA,NA,NA,NA,10000.000000000000000,19,62831.853071795863798,314159265.358979284763336,54.559433957789203,0.173668072133559
20,19,Sudeste,NA,Guaiuba,-24.017081999999998,-46.295202000000003,NA,NA,NA,NA,NA,10000.000000000000000,20,62831.853071795863798,314159265.358979284763336,51.484899099056200,0.163881523724045
21,20,Sudeste,NA,Santos,-24.015000000000001,-46.353999999999999,NA,NA,NA,NA,NA,10000.000000000000000,21,62831.853071795863798,314159265.358979284763336,59.936542738147601,0.190783940972297
22,21,Sudeste,NA,Morro do Maluf,-23.997560000000000,-46.251593999999997,NA,NA,NA,NA,NA,10000.000000000000000,22,62831.853071795863798,314159265.358979284763336,1.888538018703770,0.006011403217874
23,22,Sudeste,NA,Praia da Enseada,-23.990651000000000,-46.209406000000001,NA,NA,NA,NA,NA,10000.000000000000000,23,62831.853071795863798,314159265.358979284763336,0.000000000000000,0.000000000000000
24,23,Sudeste,NA,Embare,-23.980865999999999,-46.317684000000000,NA,NA,NA,NA,NA,10000.000000000000000,24,62831.853071795863798,314159265.358979284763336,29.029817904992701,0.092404780332744
25,24,Sudeste,NA,Gonzaga,-23.974027000000000,-46.330098000000000,NA,NA,NA,NA,NA,10000.000000000000000,25,62831.853071795863798,314159265.358979284763336,27.400758037639498,0.087219321723106
26,25,Sudeste,NA,Pereque,-23.927582999999998,-46.178826000000001,NA,NA,NA,NA,NA,10000.000000000000000,26,62831.853071795863798,314159265.358979284763336,0.000000000000000,0.000000000000000
27,26,Sudeste,NA,Praia Preta,-23.874700000000001,-46.138959000000000,NA,NA,NA,NA,NA,10000.000000000000000,27,62831.853071795863798,314159265.358979284763336,0.000000000000000,0.000000000000000
28,27,Sudeste,NA,Praia da Bertioga,-23.846986000000001,-46.126967999999998,NA,NA,NA,NA,NA,10000.000000000000000,28,62831.853071795863798,314159265.358979284763336,0.000000000000000,0.000000000000000
29,28,Sudeste,NA,Maresias,-23.793693260000001,-45.559764340000001,NA,NA,NA,NA,NA,10000.000000000000000,29,62831.853071795863798,314159265.358979284763336,0.000000000000000,0.000000000000000
30,29,Sudeste,NA,Canto de Moreira,-23.793056000000000,-45.587394000000003,NA,NA,NA,NA,NA,10000.000000000000000,30,62831.853071795863798,314159265.358979284763336,0.000000000000000,0.000000000000000
31,30,Sudeste,NA,Itaguere,-23.786995000000001,-45.971372000000002,NA,NA,NA,NA,NA,10000.000000000000000,31,62831.853071795863798,314159265.358979284763336,0.000000000000000,0.000000000000000
32,31,Sudeste,NA,Boicucanga,-23.784431000000001,-45.631354999999999,NA,NA,NA,NA,NA,10000.000000000000000,32,62831.853071795863798,314159265.358979284763336,0.000000000000000,0.000000000000000
33,32,Sudeste,NA,Praia de Baleia,-23.775839000000001,-45.683985999999997,NA,NA,NA,NA,NA,10000.000000000000000,33,62831.853071795863798,314159265.358979284763336,0.000000000000000,0.000000000000000
34,33,Sudeste,NA,Barra do Sahy,-23.774384999999999,-45.697569999999999,NA,NA,NA,NA,NA,10000.000000000000000,34,62831.853071795863798,314159265.358979284763336,0.000000000000000,0.000000000000000
35,34,Sudeste,NA,Praia Preta,-23.773009999999999,-45.715814999999999,NA,NA,NA,NA,NA,10000.000000000000000,35,62831.853071795863798,314159265.358979284763336,0.000000000000000,0.000000000000000
36,35,Sudeste,NA,Bananas Point,-23.771605000000001,-45.706209999999999,NA,NA,NA,NA,NA,10000.000000000000000,36,62831.853071795863798,314159265.358979284763336,0.000000000000000,0.000000000000000
37,36,Sudeste,NA,Praia do Juquei,-23.768115000000002,-45.745452999999998,NA,NA,NA,NA,NA,10000.000000000000000,37,62831.853071795863798,314159265.358979284763336,0.000000000000000,0.000000000000000
38,37,Sudeste,NA,Barra do Una,-23.763818000000001,-45.762779999999999,NA,NA,NA,NA,NA,10000.000000000000000,38,62831.853071795863798,314159265.358979284763336,0.000000000000000,0.000000000000000
39,38,Sudeste,NA,Praia da Boracéia,-23.758372999999999,-45.828777000000002,NA,NA,NA,NA,NA,10000.000000000000000,39,62831.853071795863798,314159265.358979284763336,0.000000000000000,0.000000000000000
40,39,Sudeste,NA,Praia Dura,-23.496058000000001,-45.171014000000000,NA,NA,NA,NA,NA,10000.000000000000000,40,62831.853071795863798,314159265.358979284763336,0.000000000000000,0.000000000000000
41,40,Sudeste,NA,Pereque-Acu,-23.424565000000001,-45.062697000000000,NA,NA,NA,NA,NA,10000.000000000000000,41,62831.853071795863798,314159265.358979284763336,0.000000000000000,0.000000000000000
42,41,Sudeste,NA,Itamambuca,-23.406683000000001,-45.008741000000001,NA,NA,NA,NA,NA,10000.000000000000000,42,62831.853071795863798,314159265.358979284763336,0.000000000000000,0.000000000000000
43,42,Sudeste,NA,Praia da Fazenda,-23.361352000000000,-44.859766000000000,NA,NA,NA,NA,NA,10000.000000000000000,43,62831.853071795863798,314159265.358979284763336,24.334206019421899,0.077458183484151
44,43,Sudeste,NA,Aventureiro,-23.184405999999999,-44.315804000000000,NA,NA,NA,NA,NA,10000.000000000000000,44,62831.853071795863798,314159265.358979284763336,144.163969171165007,0.458888166186771
45,44,Sudeste,NA,Praia do Leste,-23.179746000000002,-44.274093999999998,NA,NA,NA,NA,NA,10000.000000000000000,45,62831.853071795863798,314159265.358979284763336,103.456520795105007,0.329312333592609
46,45,Sudeste,NA,Praia do Sul,-23.178656000000000,-44.296756999999999,NA,NA,NA,NA,NA,10000.000000000000000,46,62831.853071795863798,314159265.358979284763336,123.720904077374996,0.393815868954250
47,46,Sudeste,NA,Praia do Meio,-23.066913000000000,-43.549809000000003,NA,NA,NA,NA,NA,10000.000000000000000,47,62831.853071795863798,314159265.358979284763336,146.922423179233988,0.467668598000287
48,47,Sudeste,NA,Restinga a Marambaia,-23.061833000000000,-43.591673000000000,NA,NA,NA,NA,NA,10000.000000000000000,48,62831.853071795863798,314159265.358979284763336,143.122302690032996,0.455572438796265
49,48,Sudeste,NA,Grumari,-23.050469000000000,-43.533907999999997,NA,NA,NA,NA,NA,10000.000000000000000,49,62831.853071795863798,314159265.358979284763336,120.192738771061002,0.382585369983346
50,49,Sudeste,NA,Reserva,-23.022717000000000,-43.440916000000001,NA,NA,NA,NA,NA,10000.000000000000000,50,62831.853071795863798,314159265.358979284763336,116.255705559174004,0.370053404047570
51,50,Sudeste,NA,Barra da Tijuca,-23.020340120000000,-43.372478489999999,NA,NA,NA,NA,NA,10000.000000000000000,51,62831.853071795863798,314159265.358979284763336,132.301242143233992,0.421127933285870
52,51,Sudeste,NA,Barra da Tijuca,-23.014886109999999,-43.372222219999998,NA,NA,NA,NA,NA,10000.000000000000000,52,62831.853071795863798,314159265.358979284763336,122.090167581838998,0.388625073471351
53,52,Sudeste,NA,Sao Conrado,-23.000617999999999,-43.264187000000000,NA,NA,NA,NA,NA,10000.000000000000000,53,62831.853071795863798,314159265.358979284763336,121.117781073914998,0.385529871084712
54,53,Sudeste,NA,Bambui,-22.975255000000001,-42.916570000000000,NA,NA,NA,NA,NA,10000.000000000000000,54,62831.853071795863798,314159265.358979284763336,131.566403176356999,0.418788868206770
55,54,Sudeste,NA,Itaipuacu,-22.971149000000000,-43.011260000000000,NA,NA,NA,NA,NA,10000.000000000000000,55,62831.853071795863798,314159265.358979284763336,86.704275253768600,0.275988279876752
56,55,Sudeste,NA,Barra de Marica,-22.962100000000000,-42.809486999999997,NA,NA,NA,NA,NA,10000.000000000000000,56,62831.853071795863798,314159265.358979284763336,121.197414611588997,0.385783352507846
57,56,Sudeste,NA,Camboinhas,-22.961998000000001,-43.059922999999998,NA,NA,NA,NA,NA,10000.000000000000000,57,62831.853071795863798,314159265.358979284763336,60.835455990588201,0.193645270723032
58,57,Sudeste,NA,Pirantininga,-22.955044999999998,-43.088653999999998,NA,NA,NA,NA,NA,10000.000000000000000,58,62831.853071795863798,314159265.358979284763336,70.550991173731603,0.224570779706642
59,58,Sudeste,NA,Jacone,-22.946556000000001,-42.679789000000000,NA,NA,NA,NA,NA,10000.000000000000000,59,62831.853071795863798,314159265.358979284763336,120.864134713701006,0.384722489644206
60,59,Sudeste,NA,Figueira,-22.944991999999999,-42.188828000000001,NA,NA,NA,NA,NA,10000.000000000000000,60,62831.853071795863798,314159265.358979284763336,0.000000000000000,0.000000000000000
61,60,Sudeste,NA,Praia do Fora,-22.944794000000002,-43.155304000000001,NA,NA,NA,NA,NA,10000.000000000000000,61,62831.853071795863798,314159265.358979284763336,112.886751822614997,0.359329691243144
62,61,Sudeste,NA,Laje do Pao de Acucar,-22.938409000000000,-43.151797000000002,NA,NA,NA,NA,NA,10000.000000000000000,62,62831.853071795863798,314159265.358979284763336,110.708126617521003,0.352394911832438
63,62,Sudeste,NA,Canal,-22.937418999999998,-42.487813000000003,NA,NA,NA,NA,NA,10000.000000000000000,63,62831.853071795863798,314159265.358979284763336,130.220639508782995,0.414505169408212
64,63,Sudeste,NA,Praia Seca,-22.936126000000002,-42.361598000000001,NA,NA,NA,NA,NA,10000.000000000000000,64,62831.853071795863798,314159265.358979284763336,115.256936030266004,0.366874221896865
65,64,Sudeste,NA,Caravelas,-22.814850000000000,-41.953901999999999,NA,NA,NA,NA,NA,10000.000000000000000,65,62831.853071795863798,314159265.358979284763336,47.736942689975699,0.151951407944083
66,65,Sudeste,NA,Tucuns,-22.799863999999999,-41.929282000000001,NA,NA,NA,NA,NA,10000.000000000000000,66,62831.853071795863798,314159265.358979284763336,88.181559568520299,0.280690621897649
67,66,Sudeste,NA,Praia Brava,-22.754252000000001,-41.872608999999997,NA,NA,NA,NA,NA,10000.000000000000000,67,62831.853071795863798,314159265.358979284763336,148.945525314945996,0.474108332105854
68,67,Sudeste,NA,Marataizes,-21.044882999999999,-40.827455999999998,NA,NA,NA,NA,NA,10000.000000000000000,68,62831.853071795863798,314159265.358979284763336,122.867213586234996,0.391098487723540
69,68,Sudeste,NA,Ponta do Ubu,-20.793246000000000,-40.579551000000002,NA,NA,NA,NA,NA,10000.000000000000000,69,62831.853071795863798,314159265.358979284763336,142.314130724642013,0.452999947533060
70,69,Sudeste,NA,Ponta dos Castelhanos,-20.755085000000001,-40.560755000000000,NA,NA,NA,NA,NA,10000.000000000000000,70,62831.853071795863798,314159265.358979284763336,113.739322548779995,0.362043508151237
71,70,Sudeste,NA,Maimba,-20.707021999999998,-40.514367999999997,NA,NA,NA,NA,NA,10000.000000000000000,71,62831.853071795863798,314159265.358979284763336,127.374170803487004,0.405444578112127
72,71,Sudeste,NA,Praia do Morro,-20.659787999999999,-40.493842999999998,NA,NA,NA,NA,NA,10000.000000000000000,72,62831.853071795863798,314159265.358979284763336,82.833621800360405,0.263667607274639
73,72,Sudeste,NA,Ponta de Bororo,-20.614518000000000,-40.415382000000001,NA,NA,NA,NA,NA,10000.000000000000000,73,62831.853071795863798,314159265.358979284763336,93.055732578716800,0.296205596458806
74,73,Sudeste,NA,Tropical,-20.559543999999999,-40.391810000000000,NA,NA,NA,NA,NA,10000.000000000000000,74,62831.853071795863798,314159265.358979284763336,65.369216038384806,0.208076677171019
75,74,Sudeste,NA,Dunas de Ule,-20.542100000000001,-40.379860999999998,NA,NA,NA,NA,NA,10000.000000000000000,75,62831.853071795863798,314159265.358979284763336,78.494936911712301,0.249857144343710
76,75,Sudeste,NA,Guarapari - Ule,-20.541319000000001,-40.378385999999999,NA,NA,NA,NA,NA,10000.000000000000000,76,62831.853071795863798,314159265.358979284763336,80.886112968693496,0.257468494129141
77,76,Sudeste,NA,Ponta da Fruta,-20.516836999999999,-40.358133000000002,NA,NA,NA,NA,NA,10000.000000000000000,77,62831.853071795863798,314159265.358979284763336,108.579337252051999,0.345618764826121
78,77,Sudeste,NA,Coral Dois,-20.448948000000001,-40.330300000000001,NA,NA,NA,NA,NA,10000.000000000000000,78,62831.853071795863798,314159265.358979284763336,132.110970553289008,0.420522280004476
79,78,Sudeste,NA,Ponta da Belina,-20.445827000000001,-40.329245000000000,NA,NA,NA,NA,NA,10000.000000000000000,79,62831.853071795863798,314159265.358979284763336,131.716226913604999,0.419265771974280
80,79,Sudeste,NA,Coral Um,-20.437659000000000,-40.326006999999997,NA,NA,NA,NA,NA,10000.000000000000000,80,62831.853071795863798,314159265.358979284763336,131.047341680546992,0.417136644150233
81,80,Sudeste,NA,"Barrao, Brazil",-20.427381000000000,-40.320982000000001,NA,NA,NA,NA,NA,10000.000000000000000,81,62831.853071795863798,314159265.358979284763336,131.334507300534000,0.418050720708372
82,81,Sudeste,NA,Barrinha,-20.422540999999999,-40.321933999999999,NA,NA,NA,NA,NA,10000.000000000000000,82,62831.853071795863798,314159265.358979284763336,125.522171693036000,0.399549481851526
83,82,Sudeste,NA,Praia de Camburi,-20.279677000000000,-40.248994000000003,NA,NA,NA,NA,NA,10000.000000000000000,83,62831.853071795863798,314159265.358979284763336,61.866930459991600,0.196928555932604
84,83,Sudeste,NA,Velzyland,-20.244838999999999,-40.216205000000002,NA,NA,NA,NA,NA,10000.000000000000000,84,62831.853071795863798,314159265.358979284763336,67.231761573849198,0.214005343745077
85,84,Sudeste,NA,Ponta da Cacao,-20.219573000000000,-40.196268000000003,NA,NA,NA,NA,NA,10000.000000000000000,85,62831.853071795863798,314159265.358979284763336,72.886154257543296,0.232003834660928
86,85,Sudeste,NA,"Manguinhos, Brazil",-20.199344000000000,-40.190266999999999,NA,NA,NA,NA,NA,10000.000000000000000,86,62831.853071795863798,314159265.358979284763336,76.494993827726404,0.243491127789334
87,86,Sudeste,NA,Praia da Baleia,-20.171105000000001,-40.184866000000000,NA,NA,NA,NA,NA,10000.000000000000000,87,62831.853071795863798,314159265.358979284763336,70.328904210917301,0.223863854948078
88,87,Sudeste,NA,Jacaraipe - Solemar,-20.109774999999999,-40.171481000000000,NA,NA,NA,NA,NA,10000.000000000000000,88,62831.853071795863798,314159265.358979284763336,15.208164301957400,0.048409090480205
89,88,Sudeste,NA,Xa,-20.107229000000000,-40.171174999999998,NA,NA,NA,NA,NA,10000.000000000000000,89,62831.853071795863798,314159265.358979284763336,14.193341136398701,0.045178808016948
90,89,Sudeste,NA,Nova Almeida,-20.058461999999999,-40.183000999999997,NA,NA,NA,NA,NA,10000.000000000000000,90,62831.853071795863798,314159265.358979284763336,1.069830470236460,0.003405376152169
91,90,Sudeste,NA,Praia Grande,-20.047100000000000,-40.182743000000002,NA,NA,NA,NA,NA,10000.000000000000000,91,62831.853071795863798,314159265.358979284763336,0.021375446779329,0.000068040160315
92,91,Sudeste,NA,Regencia,-19.562811000000000,-39.764263999999997,NA,NA,NA,NA,NA,10000.000000000000000,92,62831.853071795863798,314159265.358979284763336,149.199182880776988,0.474915749214947
93,92,Sudeste,NA,Guriri,-18.910750000000000,-39.738563999999997,NA,NA,NA,NA,NA,10000.000000000000000,93,62831.853071795863798,314159265.358979284763336,137.204034246343014,0.436734005249104
94,93,Nordeste,NA,Milionarios,-14.847631000000000,-39.022942000000000,NA,NA,NA,NA,NA,10000.000000000000000,94,62831.853071795863798,314159265.358979284763336,54.253394711309397,0.172693918956412
95,94,Nordeste,NA,Sul,-14.831120000000000,-39.022562999999998,NA,NA,NA,NA,NA,10000.000000000000000,95,62831.853071795863798,314159265.358979284763336,62.025625463871400,0.197433697818834
96,95,Nordeste,NA,Pedra da Cachorra,-14.821026000000000,-39.023632999999997,NA,NA,NA,NA,NA,10000.000000000000000,96,62831.853071795863798,314159265.358979284763336,60.039894506260403,0.191112919867746
97,96,Nordeste,NA,Jardim Atlantico,-14.815026000000000,-39.023400000000002,NA,NA,NA,NA,NA,10000.000000000000000,97,62831.853071795863798,314159265.358979284763336,57.446377829569698,0.182857499886014
98,97,Nordeste,NA,Baduska,-14.809442000000001,-39.023423000000001,NA,NA,NA,NA,NA,10000.000000000000000,98,62831.853071795863798,314159265.358979284763336,54.865858749457203,0.174643452539157
99,98,Nordeste,NA,Norte,-14.660090000000000,-39.063006999999999,NA,NA,NA,NA,NA,10000.000000000000000,99,62831.853071795863798,314159265.358979284763336,5.927814882453800,0.018868820805525
100,99,Nordeste,NA,Havaizinho,-14.468062000000000,-39.023161000000002,NA,NA,NA,NA,NA,10000.000000000000000,100,62831.853071795863798,314159265.358979284763336,19.073084375854400,0.060711513168521
101,100,Nordeste,NA,Sao Jose,-14.316062000000001,-38.990701000000001,NA,NA,NA,NA,NA,10000.000000000000000,101,62831.853071795863798,314159265.358979284763336,96.117654028718206,0.305951995141343
102,101,Nordeste,NA,Corals,-14.275408000000001,-38.982568999999998,NA,NA,NA,NA,NA,10000.000000000000000,102,62831.853071795863798,314159265.358979284763336,141.599150829130991,0.450724095841421
103,102,Nordeste,NA,Tony,-13.016731999999999,-38.488781000000003,NA,NA,NA,NA,NA,10000.000000000000000,103,62831.853071795863798,314159265.358979284763336,172.064147075250986,0.547697190718342
104,103,Nordeste,NA,Meridien,-13.016598000000000,-38.484878999999999,NA,NA,NA,NA,NA,10000.000000000000000,104,62831.853071795863798,314159265.358979284763336,175.257367883921006,0.557861528240017
105,104,Nordeste,NA,Amaralina,-13.015369000000000,-38.471834000000001,NA,NA,NA,NA,NA,10000.000000000000000,105,62831.853071795863798,314159265.358979284763336,184.560359724621009,0.587473870979836
106,105,Nordeste,NA,Tubao,-13.010683999999999,-38.461410999999998,NA,NA,NA,NA,NA,10000.000000000000000,106,62831.853071795863798,314159265.358979284763336,185.708815421136990,0.591129519000288
107,106,Nordeste,NA,Psiu,-12.995919000000001,-38.439390000000003,NA,NA,NA,NA,NA,10000.000000000000000,107,62831.853071795863798,314159265.358979284763336,179.682198574228011,0.571946201774159
108,107,Nordeste,NA,Alex,-12.973279000000000,-38.406477000000002,NA,NA,NA,NA,NA,10000.000000000000000,108,62831.853071795863798,314159265.358979284763336,160.220731455030005,0.509998427937344
109,108,Nordeste,NA,Terceira Ponte,-12.963839999999999,-38.396822000000000,NA,NA,NA,NA,NA,10000.000000000000000,109,62831.853071795863798,314159265.358979284763336,149.637494226277994,0.476310937559942
110,109,Nordeste,NA,SESC,-12.960485000000000,-38.390998000000003,NA,NA,NA,NA,NA,10000.000000000000000,110,62831.853071795863798,314159265.358979284763336,147.822060891192990,0.470532233777291
111,110,Nordeste,NA,Farol,-12.958147000000000,-38.352812999999998,NA,NA,NA,NA,NA,10000.000000000000000,111,62831.853071795863798,314159265.358979284763336,171.085894549484010,0.544583316216983
112,111,Nordeste,NA,Pedro do Sal,-12.954224000000000,-38.347234000000000,NA,NA,NA,NA,NA,10000.000000000000000,112,62831.853071795863798,314159265.358979284763336,166.398151475869014,0.529661766574771
113,112,Nordeste,NA,Itapoa,-12.952339000000000,-38.369608999999997,NA,NA,NA,NA,NA,10000.000000000000000,113,62831.853071795863798,314159265.358979284763336,149.730125594456013,0.476605792362560
114,113,Nordeste,NA,Seper,-12.952040999999999,-38.343243999999999,NA,NA,NA,NA,NA,10000.000000000000000,114,62831.853071795863798,314159265.358979284763336,163.218875324371993,0.519541816275472
115,114,Nordeste,NA,Corrente,-12.948985000000000,-38.339199999999998,NA,NA,NA,NA,NA,10000.000000000000000,115,62831.853071795863798,314159265.358979284763336,157.556365247506989,0.501517486894658
116,115,Nordeste,NA,Stela Maris,-12.947385000000001,-38.337372000000002,NA,NA,NA,NA,NA,10000.000000000000000,116,62831.853071795863798,314159265.358979284763336,154.439878458342008,0.491597401343134
117,116,Nordeste,NA,Plator,-12.946393000000000,-38.333083999999999,NA,NA,NA,NA,NA,10000.000000000000000,117,62831.853071795863798,314159265.358979284763336,152.666361058927009,0.485952120127606
118,117,Nordeste,NA,Aleluia,-12.926800999999999,-38.312618999999998,NA,NA,NA,NA,NA,10000.000000000000000,118,62831.853071795863798,314159265.358979284763336,109.957360216037003,0.350005148154369
119,118,Nordeste,NA,Ipitanga,-12.920477000000000,-38.309717999999997,NA,NA,NA,NA,NA,10000.000000000000000,119,62831.853071795863798,314159265.358979284763336,96.567407485681201,0.307383604858310
120,119,Nordeste,NA,Vilas,-12.894546000000000,-38.290790999999999,NA,NA,NA,NA,NA,10000.000000000000000,120,62831.853071795863798,314159265.358979284763336,42.981439092049200,0.136814169854057
121,120,Nordeste,NA,Busca Vida,-12.863464000000000,-38.255961999999997,NA,NA,NA,NA,NA,10000.000000000000000,121,62831.853071795863798,314159265.358979284763336,9.723782851662300,0.030951762127885
122,121,Nordeste,NA,Itacimirim,-12.639232000000000,-38.048194000000002,NA,NA,NA,NA,NA,10000.000000000000000,122,62831.853071795863798,314159265.358979284763336,0.272267431280042,0.000866654150623
123,122,Nordeste,NA,Praia do Forte,-12.583304999999999,-38.005077999999997,NA,NA,NA,NA,NA,10000.000000000000000,123,62831.853071795863798,314159265.358979284763336,8.124004673106411,0.025859510028531
124,123,Nordeste,NA,Imbassai,-12.342055000000000,-37.846200000000003,NA,NA,NA,NA,NA,10000.000000000000000,124,62831.853071795863798,314159265.358979284763336,0.000000000000000,0.000000000000000
125,124,Nordeste,NA,Costa do Sauipe,-12.022171000000000,-37.645508000000000,NA,NA,NA,NA,NA,10000.000000000000000,125,62831.853071795863798,314159265.358979284763336,68.372797257923594,0.217637373132371
126,125,Nordeste,NA,Marlin,-11.939802999999999,-37.602476000000003,NA,NA,NA,NA,NA,10000.000000000000000,126,62831.853071795863798,314159265.358979284763336,78.865475973874098,0.251036606810744
127,126,Nordeste,NA,Conde,-11.848141000000000,-37.558169999999997,NA,NA,NA,NA,NA,10000.000000000000000,127,62831.853071795863798,314159265.358979284763336,36.881460454304900,0.117397334795018
128,127,Nordeste,NA,Mangue Seco,-11.483613999999999,-37.364454000000002,NA,NA,NA,NA,NA,10000.000000000000000,128,62831.853071795863798,314159265.358979284763336,12.491266753743300,0.039760936986754
129,128,Nordeste,NA,Mosqueiro,-11.138116000000000,-37.145493000000002,NA,NA,NA,NA,NA,10000.000000000000000,129,62831.853071795863798,314159265.358979284763336,79.905104588157400,0.254345847469603
130,129,Nordeste,NA,Aruana,-11.067069000000000,-37.101289000000001,NA,NA,NA,NA,NA,10000.000000000000000,130,62831.853071795863798,314159265.358979284763336,53.920687607452301,0.171634879352799
131,130,Nordeste,NA,Hawaiizinho,-11.043927999999999,-37.082977999999997,NA,NA,NA,NA,NA,10000.000000000000000,131,62831.853071795863798,314159265.358979284763336,58.765133498226596,0.187055229553958
132,131,Nordeste,NA,Praia do Meio,-10.999541000000001,-37.050151000000000,NA,NA,NA,NA,NA,10000.000000000000000,132,62831.853071795863798,314159265.358979284763336,97.507424338112997,0.310375771431394
133,132,Nordeste,NA,Pirambu,-10.746346000000001,-36.855099000000003,NA,NA,NA,NA,NA,10000.000000000000000,133,62831.853071795863798,314159265.358979284763336,120.635764028023004,0.383995563174547
134,133,Nordeste,NA,Ponta do Mangue,-10.639483000000000,-36.678539000000001,NA,NA,NA,NA,NA,10000.000000000000000,134,62831.853071795863798,314159265.358979284763336,163.810949688490012,0.521426447510020
135,134,Nordeste,NA,Pontal de Peba,-10.367584000000001,-36.303941000000002,NA,NA,NA,NA,NA,10000.000000000000000,135,62831.853071795863798,314159265.358979284763336,168.594756568315006,0.536653777744443
136,135,Nordeste,NA,Mihai,-10.196728000000000,-36.181641999999997,NA,NA,NA,NA,NA,10000.000000000000000,136,62831.853071795863798,314159265.358979284763336,140.321796875999013,0.446658151927043
137,136,Nordeste,NA,Pontal do Coruripe,-10.160774999999999,-36.150663999999999,NA,NA,NA,NA,NA,10000.000000000000000,137,62831.853071795863798,314159265.358979284763336,144.438081752289008,0.459760693631762
138,137,Nordeste,NA,Forjos,-10.107661999999999,-36.097672000000003,NA,NA,NA,NA,NA,10000.000000000000000,138,62831.853071795863798,314159265.358979284763336,142.446214261550011,0.453420382489059
139,138,Nordeste,NA,Poxim,-10.063563000000000,-36.040908999999999,NA,NA,NA,NA,NA,10000.000000000000000,139,62831.853071795863798,314159265.358979284763336,122.402421215154007,0.389619007656161
140,139,Nordeste,NA,Jacarecica,-9.916383000000000,-35.945963999999996,NA,NA,NA,NA,NA,10000.000000000000000,140,62831.853071795863798,314159265.358979284763336,119.634114404369001,0.380807213397533
141,140,Nordeste,NA,Praia do Meio,-9.824446999999999,-35.877803000000000,NA,NA,NA,NA,NA,10000.000000000000000,141,62831.853071795863798,314159265.358979284763336,158.608894641195008,0.504867792009757
142,141,Nordeste,NA,Praia do Pontal,-9.682589999999999,-35.758536999999997,NA,NA,NA,NA,NA,10000.000000000000000,142,62831.853071795863798,314159265.358979284763336,70.464324087448404,0.224294909802935
143,142,Nordeste,NA,Salgema,-9.679629000000000,-35.718974000000003,NA,NA,NA,NA,NA,10000.000000000000000,143,62831.853071795863798,314159265.358979284763336,133.783497842417006,0.425846099714892
144,143,Nordeste,NA,Pier do Emissario,-9.673301000000000,-35.715234000000002,NA,NA,NA,NA,NA,10000.000000000000000,144,62831.853071795863798,314159265.358979284763336,136.708588550320002,0.435156952617991
145,144,Nordeste,NA,Praia do Sobral,-9.666869000000000,-35.710735000000000,NA,NA,NA,NA,NA,10000.000000000000000,145,62831.853071795863798,314159265.358979284763336,141.141228704058989,0.449266484446294
146,145,Nordeste,NA,"Pico da Barra, Brazil",-9.665630000000000,-35.697186000000002,NA,NA,NA,NA,NA,10000.000000000000000,146,62831.853071795863798,314159265.358979284763336,167.497329571003007,0.533160559118349
147,146,Nordeste,NA,Pedra Virada,-9.585521999999999,-35.660038000000000,NA,NA,NA,NA,NA,10000.000000000000000,147,62831.853071795863798,314159265.358979284763336,128.437241633285993,0.408828437660513
148,147,Nordeste,NA,Praia de Jatiuca,-9.531449000000000,-35.590927999999998,NA,NA,NA,NA,NA,10000.000000000000000,148,62831.853071795863798,314159265.358979284763336,53.110542793375501,0.169056108317187
149,148,Nordeste,NA,Garca Torta,-9.487114000000000,-35.557476999999999,NA,NA,NA,NA,NA,10000.000000000000000,149,62831.853071795863798,314159265.358979284763336,2.225166881682440,0.007082926168483
150,149,Nordeste,NA,Mirante da Sirena,-9.430906000000000,-35.503683000000002,NA,NA,NA,NA,NA,10000.000000000000000,150,62831.853071795863798,314159265.358979284763336,0.000000000000000,0.000000000000000
151,150,Nordeste,NA,Japaratinga,-9.261582000000001,-35.353366000000001,NA,NA,NA,NA,NA,10000.000000000000000,151,62831.853071795863798,314159265.358979284763336,0.000000000000000,0.000000000000000
152,151,Nordeste,NA,Impossivel,-8.615505000000001,-35.020375000000001,NA,NA,NA,NA,NA,10000.000000000000000,152,62831.853071795863798,314159265.358979284763336,154.282976412229999,0.491097966618734
153,152,Nordeste,NA,Serrambi,-8.576358000000001,-35.028714999999998,NA,NA,NA,NA,NA,10000.000000000000000,153,62831.853071795863798,314159265.358979284763336,122.024105348779003,0.388414790852488
154,153,Nordeste,NA,Porto de Galinhas,-8.488678000000000,-34.999501000000002,NA,NA,NA,NA,NA,10000.000000000000000,154,62831.853071795863798,314159265.358979284763336,71.864277495769102,0.228751099903586
155,154,Nordeste,NA,Cupe,-8.479708000000000,-34.996577000000002,NA,NA,NA,NA,NA,10000.000000000000000,155,62831.853071795863798,314159265.358979284763336,61.651625684276297,0.196243219546077
156,155,Nordeste,NA,Gaibu,-8.341567000000000,-34.948825999999997,NA,NA,NA,NA,NA,10000.000000000000000,156,62831.853071795863798,314159265.358979284763336,54.648059394854101,0.173950175661411
157,156,Nordeste,NA,Bessa,-7.091138000000000,-34.832765000000002,NA,NA,NA,NA,NA,10000.000000000000000,157,62831.853071795863798,314159265.358979284763336,130.339735165409991,0.414884262657271
158,157,Nordeste,NA,Saji,-6.466880000000000,-34.970449000000002,NA,NA,NA,NA,NA,10000.000000000000000,158,62831.853071795863798,314159265.358979284763336,168.956664534732994,0.537805766580438
159,158,Nordeste,NA,Farol,-6.408908000000000,-34.979016999999999,NA,NA,NA,NA,NA,10000.000000000000000,159,62831.853071795863798,314159265.358979284763336,171.989026148899001,0.547458073383171
160,159,Nordeste,NA,Xilauzinho,-6.395101000000000,-34.983204999999998,NA,NA,NA,NA,NA,10000.000000000000000,160,62831.853071795863798,314159265.358979284763336,174.252197036013001,0.554661970058088
161,160,Nordeste,NA,Mar Aberto,-6.379758000000000,-34.989437000000002,NA,NA,NA,NA,NA,10000.000000000000000,161,62831.853071795863798,314159265.358979284763336,179.377493662769012,0.570976295917297
162,161,Nordeste,NA,Pontal,-6.368680000000000,-34.993423999999997,NA,NA,NA,NA,NA,10000.000000000000000,162,62831.853071795863798,314159265.358979284763336,186.322614859373999,0.593083303293537
163,162,Nordeste,NA,Mar da Frente,-6.365217000000000,-35.006211999999998,NA,NA,NA,NA,NA,10000.000000000000000,163,62831.853071795863798,314159265.358979284763336,172.111959857262008,0.547849383530343
164,163,Nordeste,NA,Lajinha,-6.278960000000000,-35.033028000000002,NA,NA,NA,NA,NA,10000.000000000000000,164,62831.853071795863798,314159265.358979284763336,259.261152785867978,0.825253880351481
165,164,Nordeste,NA,Afogados,-6.244350000000000,-35.036464000000002,NA,NA,NA,NA,NA,10000.000000000000000,165,62831.853071795863798,314159265.358979284763336,273.941138389989021,0.871981725819756
166,165,Nordeste,NA,Sororoca,-6.238074000000000,-35.035608000000003,NA,NA,NA,NA,NA,10000.000000000000000,166,62831.853071795863798,314159265.358979284763336,274.005317917876994,0.872186015601929
167,166,Nordeste,NA,Abacateiro,-6.233891000000000,-35.036746999999998,NA,NA,NA,NA,NA,10000.000000000000000,167,62831.853071795863798,314159265.358979284763336,272.812358527745005,0.868388707924981
168,167,Nordeste,NA,Tibau do Sul,-6.180279000000000,-35.089708999999999,NA,NA,NA,NA,NA,10000.000000000000000,168,62831.853071795863798,314159265.358979284763336,207.745071374902011,0.661273100245886
169,168,Nordeste,NA,Tabatinga,-6.049479000000000,-35.108238000000000,NA,NA,NA,NA,NA,10000.000000000000000,169,62831.853071795863798,314159265.358979284763336,156.531304494472010,0.498254617178357
170,169,Nordeste,NA,Xoxoline,-6.005800000000000,-35.105258999999997,NA,NA,NA,NA,NA,10000.000000000000000,170,62831.853071795863798,314159265.358979284763336,189.155072194138995,0.602099295012032
171,170,Nordeste,NA,Pirangi Reef,-5.980259000000000,-35.107796000000000,NA,NA,NA,NA,NA,10000.000000000000000,171,62831.853071795863798,314159265.358979284763336,200.732594256068012,0.638951692310261
172,171,Nordeste,NA,Cotovelo,-5.949906000000000,-35.151975000000000,NA,NA,NA,NA,NA,10000.000000000000000,172,62831.853071795863798,314159265.358979284763336,129.692598539763992,0.412824362800724
173,172,Nordeste,NA,Miami,-5.794834000000000,-35.181663999999998,NA,NA,NA,NA,NA,10000.000000000000000,173,62831.853071795863798,314159265.358979284763336,164.255540799379986,0.522841624969077
174,173,Nordeste,NA,Areia Preta,-5.792249000000000,-35.184387000000001,NA,NA,NA,NA,NA,10000.000000000000000,174,62831.853071795863798,314159265.358979284763336,159.626927388517004,0.508108290889071
175,174,Nordeste,NA,Praia dos Artistas,-5.781239000000000,-35.192050000000002,NA,NA,NA,NA,NA,10000.000000000000000,175,62831.853071795863798,314159265.358979284763336,146.500254895674004,0.466324794617384
176,175,Nordeste,NA,Genipabu,-5.694407000000000,-35.201922000000003,NA,NA,NA,NA,NA,10000.000000000000000,176,62831.853071795863798,314159265.358979284763336,166.954472937432001,0.531432592785888
177,176,Nordeste,NA,Touros Area,-5.197434000000000,-35.457929999999998,NA,NA,NA,NA,NA,10000.000000000000000,177,62831.853071795863798,314159265.358979284763336,142.578025683942997,0.453839951277655
178,177,Nordeste,NA,Urca da Concei&ccedil;&atilde;o,-5.069617000000000,-35.800230999999997,NA,NA,NA,NA,NA,10000.000000000000000,178,62831.853071795863798,314159265.358979284763336,28.551539532702002,0.090882372990264
179,178,Nordeste,NA,Cocoa das Lavadeiras,-5.066515000000000,-35.862005000000003,NA,NA,NA,NA,NA,10000.000000000000000,179,62831.853071795863798,314159265.358979284763336,79.662878557530505,0.253574818067207
180,179,Nordeste,NA,Baia das Ratas,-3.813000000000000,-32.393000000000001,NA,NA,NA,NA,NA,10000.000000000000000,180,62831.853071795863798,314159265.358979284763336,41.166656755717000,0.131037538264795
181,180,Nordeste,NA,Volta da Jurema,-3.724294000000000,-38.496071999999998,NA,NA,NA,NA,NA,10000.000000000000000,181,62831.853071795863798,314159265.358979284763336,2.682422197366740,0.008538415043407
182,181,Nordeste,NA,Portao,-3.719326000000000,-38.510655000000000,NA,NA,NA,NA,NA,10000.000000000000000,182,62831.853071795863798,314159265.358979284763336,0.000000000000000,0.000000000000000
183,182,Nordeste,NA,Barra do Ceara,-3.692659000000000,-38.584716000000000,NA,NA,NA,NA,NA,10000.000000000000000,183,62831.853071795863798,314159265.358979284763336,0.000000000000000,0.000000000000000
184,183,Nordeste,NA,Praia do Pecem,-3.546170000000000,-38.806919000000001,NA,NA,NA,NA,NA,10000.000000000000000,184,62831.853071795863798,314159265.358979284763336,66.449856123876401,0.211516461397204
185,184,Nordeste,NA,Tabinha,-3.500935000000000,-38.911282000000000,NA,NA,NA,NA,NA,10000.000000000000000,185,62831.853071795863798,314159265.358979284763336,0.000000000000000,0.000000000000000
186,185,Nordeste,NA,Pedra do Meio,-3.410858000000000,-39.040807000000001,NA,NA,NA,NA,NA,10000.000000000000000,186,62831.853071795863798,314159265.358979284763336,9.680108251568910,0.030812741558037
187,186,Nordeste,NA,Havaizinho,-3.403507000000000,-39.022171000000000,NA,NA,NA,NA,NA,10000.000000000000000,187,62831.853071795863798,314159265.358979284763336,20.760080327363500,0.066081388061694
188,187,Nordeste,NA,Curral,-3.403353000000000,-39.025868000000003,NA,NA,NA,NA,NA,10000.000000000000000,188,62831.853071795863798,314159265.358979284763336,18.997888772008000,0.060472158127502
189,188,Nordeste,NA,Outside,-3.398539000000000,-39.013306000000000,NA,NA,NA,NA,NA,10000.000000000000000,189,62831.853071795863798,314159265.358979284763336,33.709514094159097,0.107300715946227
190,189,Nordeste,NA,Atins,-2.555789000000000,-42.727836000000003,NA,NA,NA,NA,NA,10000.000000000000000,190,62831.853071795863798,314159265.358979284763336,0.000000000000000,0.000000000000000
191,190,Nordeste,NA,Ponta d'Areia,-2.497384000000000,-44.311779000000001,NA,NA,NA,NA,NA,10000.000000000000000,191,62831.853071795863798,314159265.358979284763336,0.000000000000000,0.000000000000000
192,191,Nordeste,NA,S&atilde;o Marcos,-2.485445000000000,-44.297899999999998,NA,NA,NA,NA,NA,10000.000000000000000,192,62831.853071795863798,314159265.358979284763336,0.000000000000000,0.000000000000000
193,192,Nordeste,NA,Calhau,-2.480673000000000,-44.249679999999998,NA,NA,NA,NA,NA,10000.000000000000000,193,62831.853071795863798,314159265.358979284763336,0.000000000000000,0.000000000000000
194,193,Nordeste,NA,Olho D'Agu,-2.477097000000000,-44.230155000000003,NA,NA,NA,NA,NA,10000.000000000000000,194,62831.853071795863798,314159265.358979284763336,0.000000000000000,0.000000000000000
195,194,Nordeste,NA,Ponta do Farol,-2.456442000000000,-44.173347999999997,NA,NA,NA,NA,NA,10000.000000000000000,195,62831.853071795863798,314159265.358979284763336,0.000000000000000,0.000000000000000
196,195,Sul,Rio Grande Do Sul,Hermenegildo,-33.668354000000001,-53.262405000000001,3,3,Right and left,Beach-break,All surfers,10000.000000000000000,196,62831.853071795863798,314159265.358979284763336,90.365003479942501,0.287640739726984
197,196,Sul,Rio Grande Do Sul,Navio,-32.290560999999997,-52.258674999999997,3,2,Right and left,Beach-break,All surfers,10000.000000000000000,197,62831.853071795863798,314159265.358979284763336,93.807601411509907,0.298598869284722
198,197,Sul,Rio Grande Do Sul,Tres Marias,-32.192610999999999,-52.085065999999998,5,2,Right and left,Sand-bar,Pros or kamikaze only...,10000.000000000000000,198,62831.853071795863798,314159265.358979284763336,153.914019335158002,0.489923539766640
199,198,Sul,Rio Grande Do Sul,Praia do Cassino,-32.178336999999999,-52.142142999999997,3,2,Right and left,Sand-bar,All surfers,10000.000000000000000,199,62831.853071795863798,314159265.358979284763336,86.306533521529005,0.274722228621554
200,199,Sul,Rio Grande Do Sul,Sao Jose do Norte,-32.008076000000003,-52.018889999999999,3,NA,Right and left,Beach-break,All surfers,10000.000000000000000,200,62831.853071795863798,314159265.358979284763336,18.453017662491298,0.058737779518951
201,200,Sul,Rio Grande Do Sul,Quintão,-30.410782000000001,-50.292664000000002,3.5,3,Right and left,Sand-bar,Experienced surfers,10000.000000000000000,201,62831.853071795863798,314159265.358979284763336,103.673386802069999,0.330002639532550
202,201,Sul,Rio Grande Do Sul,Nova Tramandaí,-30.045256999999999,-50.150033999999998,3,3,Right and left,Beach-break,All surfers,10000.000000000000000,202,62831.853071795863798,314159265.358979284763336,101.891295068568994,0.324330065363953
203,202,Sul,Rio Grande Do Sul,Oasis Sul,-30.039822999999998,-50.147266000000002,3,3,Right and left,Beach-break,All surfers,10000.000000000000000,203,62831.853071795863798,314159265.358979284763336,102.528328390620004,0.326357805406326
204,203,Sul,Rio Grande Do Sul,Tramandai - Malvina,-30.005490000000002,-50.129156000000002,3.5,3,Right and left,Beach-break,All surfers,10000.000000000000000,204,62831.853071795863798,314159265.358979284763336,107.157328292982996,0.341092369726985
205,204,Sul,Rio Grande Do Sul,Tramandai,-29.993077000000000,-50.125508000000004,3,3,Right and left,Beach-break,All surfers,10000.000000000000000,205,62831.853071795863798,314159265.358979284763336,104.276568230067994,0.331922625649493
206,205,Sul,Rio Grande Do Sul,Rainha do Mar,-29.859477999999999,-50.064568999999999,3.5,5,Right and left,Beach-break,All surfers,10000.000000000000000,206,62831.853071795863798,314159265.358979284763336,101.029834316039995,0.321587950623060
207,206,Sul,Rio Grande Do Sul,Xangri-lá,-29.785982000000001,-50.024636000000001,3,3,Right and left,Beach-break,All surfers,10000.000000000000000,207,62831.853071795863798,314159265.358979284763336,115.191203446546993,0.366664988584443
208,207,Sul,Rio Grande Do Sul,Atlântida - Pier,-29.784716000000000,-50.022554000000000,3,3,Right and left,Sand-bar,All surfers,10000.000000000000000,208,62831.853071795863798,314159265.358979284763336,116.173329558568000,0.369791193093798
209,208,Sul,Rio Grande Do Sul,Capao da Canoa,-29.758676999999999,-50.010967000000001,3,3,Right and left,Sand-bar,All surfers,10000.000000000000000,209,62831.853071795863798,314159265.358979284763336,112.653109418235005,0.358585984371685
210,209,Sul,Rio Grande Do Sul,Capao Novo,-29.686972000000001,-49.972558999999997,3,3,Right and left,Beach-break,All surfers,10000.000000000000000,210,62831.853071795863798,314159265.358979284763336,114.801046408063002,0.365423080159306
211,210,Sul,Rio Grande Do Sul,Curumim,-29.625605000000000,-49.935744999999997,3,4,Right and left,Beach-break,Experienced surfers,10000.000000000000000,211,62831.853071795863798,314159265.358979284763336,153.004920683411001,0.487029788882965
212,211,Sul,Rio Grande Do Sul,Itapeva,-29.372975000000000,-49.784109999999998,3,3,Right and left,Beach-break,All surfers,10000.000000000000000,212,62831.853071795863798,314159265.358979284763336,57.816772854554699,0.184036503868474
213,212,Sul,Rio Grande Do Sul,Guarita,-29.357804999999999,-49.733997000000002,3,2,Right and left,Beach-break,All surfers,10000.000000000000000,213,62831.853071795863798,314159265.358979284763336,108.764905664465999,0.346209447428469
214,213,Sul,Rio Grande Do Sul,Cal,-29.349421000000000,-49.729849999999999,3.5,3,Right and left,Beach-break,All surfers,10000.000000000000000,214,62831.853071795863798,314159265.358979284763336,106.104010861698001,0.337739556210308
215,214,Sul,Rio Grande Do Sul,Ilha dos Lobos,-29.346876999999999,-49.704411999999998,5,2,Left,Reef-rocky,Pros or kamikaze only...,10000.000000000000000,215,62831.853071795863798,314159265.358979284763336,137.918035966262011,0.439006743311129
216,215,Sul,Rio Grande Do Sul,Prainha,-29.342434999999998,-49.724497000000000,3.5,3,Right and left,Beach-break,Experienced surfers,10000.000000000000000,216,62831.853071795863798,314159265.358979284763336,106.466058258263999,0.338891988866249
217,216,Sul,Rio Grande Do Sul,Saraiva,-29.340395999999998,-49.723241000000002,3.5,3,Right and left,Beach-break,Experienced surfers,10000.000000000000000,217,62831.853071795863798,314159265.358979284763336,106.144989079389006,0.337869993928401
218,217,Sul,Rio Grande Do Sul,Molhes,-29.327311000000002,-49.712007999999997,3.5,3,Right and left,Beach-break,All surfers,10000.000000000000000,218,62831.853071795863798,314159265.358979284763336,108.239078521256999,0.344535687647397
219,218,Sul,Rio Grande Do Sul,Passo de Torres,-29.324159000000002,-49.712415999999997,3.5,2,Right and left,Rivermouth,Experienced surfers,10000.000000000000000,219,62831.853071795863798,314159265.358979284763336,104.502070177638004,0.332640420642145
220,219,Sul,Santa Catarina South,Gaivota,-29.164828000000000,-49.582157000000002,3,2,Right and left,Beach-break,Experienced surfers,10000.000000000000000,220,62831.853071795863798,314159265.358979284763336,103.464478943580005,0.329337665165962
221,220,Sul,Santa Catarina South,Arroio do Silva,-28.943866000000000,-49.385604999999998,3.5,2,Right and left,Beach-break,Experienced surfers,10000.000000000000000,221,62831.853071795863798,314159265.358979284763336,82.718907144613297,0.263302459184494
222,221,Sul,Santa Catarina South,Morro dos Conventos,-28.937256000000001,-49.329642999999997,3.5,3,Right and left,Beach-break,All surfers,10000.000000000000000,222,62831.853071795863798,314159265.358979284763336,137.490270429882997,0.437645123319147
223,222,Sul,Santa Catarina South,Rincão,-28.833846999999999,-49.216003000000001,3.5,4,Right and left,Beach-break,Experienced surfers,10000.000000000000000,223,62831.853071795863798,314159265.358979284763336,93.955993065941698,0.299071214591050
224,223,Sul,Santa Catarina South,Jaguaruna,-28.635157000000000,-48.948211999999998,3.5,3,Right and left,Beach-break,All surfers,10000.000000000000000,224,62831.853071795863798,314159265.358979284763336,0.000000000000000,0.000000000000000
225,224,Sul,Santa Catarina South,Camacho,-28.615946000000001,-48.859506000000003,3,2,NA,Beach-break,All surfers,10000.000000000000000,225,62831.853071795863798,314159265.358979284763336,8.639034665586349,0.027498901411406
226,225,Sul,Santa Catarina South,Cigana,-28.613534999999999,-48.845387000000002,3,3,Right and left,Beach-break,Experienced surfers,10000.000000000000000,226,62831.853071795863798,314159265.358979284763336,12.259356881783800,0.039022744937271
227,226,Sul,Santa Catarina South,Cardozo,-28.607516000000000,-48.822994999999999,3.5,4,Right and left,Beach-break,All surfers,10000.000000000000000,227,62831.853071795863798,314159265.358979284763336,21.422065014893899,0.068188550767126
228,227,Sul,Santa Catarina South,Cemiterio,-28.604341999999999,-48.811998000000003,5,1,Right,Point-break,Pros or kamikaze only...,10000.000000000000000,228,62831.853071795863798,314159265.358979284763336,27.756275101036600,0.088350967682970
229,228,Sul,Santa Catarina South,Prainha do Farol,-28.600442000000001,-48.816654999999997,3,1,Right,Beach-break,All surfers,10000.000000000000000,229,62831.853071795863798,314159265.358979284763336,19.017429159275000,0.060534357111971
230,229,Sul,Santa Catarina South,Ipoa,-28.536688999999999,-48.765521000000000,3,4,Right and left,Beach-break,All surfers,10000.000000000000000,230,62831.853071795863798,314159265.358979284763336,57.867772323455803,0.184198840219887
231,230,Sul,Santa Catarina South,Teresa,-28.524982000000001,-48.762453000000001,3,3,Right and left,Beach-break,All surfers,10000.000000000000000,231,62831.853071795863798,314159265.358979284763336,62.065706373599902,0.197561279316972
232,231,Sul,Santa Catarina South,Praia de Cima,-28.497350000000001,-48.748752000000003,3.5,2,Right and left,Beach-break,All surfers,10000.000000000000000,232,62831.853071795863798,314159265.358979284763336,70.165736271864702,0.223344475266991
233,232,Sul,Santa Catarina South,Laguna,-28.473973000000001,-48.762645999999997,3.5,3,Right and left,Beach-break,All surfers,10000.000000000000000,233,62831.853071795863798,314159265.358979284763336,81.232008158904705,0.258569512715417
234,233,Sul,Santa Catarina South,Cavalinho,-28.419032000000001,-48.744278000000001,3.5,3,Right,Point-break,Experienced surfers,10000.000000000000000,234,62831.853071795863798,314159265.358979284763336,87.251543292649302,0.277730288148433
235,234,Sul,Santa Catarina South,Itapirubá,-28.342309000000000,-48.707799999999999,3.5,4,Right and left,Beach-break,All surfers,10000.000000000000000,235,62831.853071795863798,314159265.358979284763336,61.714371439755602,0.196442945488928
236,235,Sul,Santa Catarina South,Itapirubá Norte,-28.336776000000000,-48.704709999999999,3.5,3,Right and left,Beach-break,All surfers,10000.000000000000000,236,62831.853071795863798,314159265.358979284763336,59.927858472909797,0.190756298097503
237,236,Sul,Santa Catarina South,Castelinho,-28.256232000000001,-48.672694999999997,4,4,Right and left,Beach-break,Experienced surfers,10000.000000000000000,237,62831.853071795863798,314159265.358979284763336,37.319572414344201,0.118791888476376
238,237,Sul,Santa Catarina South,Praia da Vila,-28.241149000000000,-48.653877000000001,4,4,Right and left,Sand-bar,Experienced surfers,10000.000000000000000,238,62831.853071795863798,314159265.358979284763336,21.793815128600301,0.069371868130953
239,238,Sul,Santa Catarina South,Ribanceira,-28.191742000000001,-48.661344000000000,3,2,Right and left,Sand-bar,All surfers,10000.000000000000000,239,62831.853071795863798,314159265.358979284763336,19.548605684367601,0.062225144504429
240,239,Sul,Santa Catarina South,Ibiraquera,-28.153732000000002,-48.645895000000003,4,4,Right and left,Point-break,Experienced surfers,10000.000000000000000,240,62831.853071795863798,314159265.358979284763336,11.785969777549800,0.037515906984575
241,240,Sul,Santa Catarina South,Rosa Sul,-28.135401999999999,-48.642691999999997,3.5,4,Right and left,Beach-break,All surfers,10000.000000000000000,241,62831.853071795863798,314159265.358979284763336,4.319295200525910,0.013748743636736
242,241,Sul,Santa Catarina South,Rosa Norte,-28.124375000000001,-48.637675999999999,3.5,2,Right and left,Beach-break,All surfers,10000.000000000000000,242,62831.853071795863798,314159265.358979284763336,1.254660834044270,0.003993709472839
243,242,Sul,Santa Catarina South,Vermelha,-28.114457999999999,-48.635573000000001,3.5,2,Left,Beach-break,Experienced surfers,10000.000000000000000,243,62831.853071795863798,314159265.358979284763336,0.002411750689840,0.000007676840876
244,243,Sul,Santa Catarina South,Ouvidor,-28.105449000000000,-48.635272999999998,2,2,Right and left,Beach-break,Beginners wave,10000.000000000000000,244,62831.853071795863798,314159265.358979284763336,0.000000000000000,0.000000000000000
245,244,Sul,Santa Catarina South,Barrinha,-28.085384000000001,-48.630896000000000,3.5,3,Right and left,Beach-break,NA,10000.000000000000000,245,62831.853071795863798,314159265.358979284763336,0.000000000000000,0.000000000000000
246,245,Sul,Santa Catarina South,Ferrugem,-28.077736000000002,-48.626604000000000,3.5,4,Right and left,Sand-bar,All surfers,10000.000000000000000,246,62831.853071795863798,314159265.358979284763336,0.000000000000000,0.000000000000000
247,246,Sul,Santa Catarina South,Praia do Silveira,-28.039069000000001,-48.606862999999997,4,4,Right,Point-break,Pros or kamikaze only...,10000.000000000000000,247,62831.853071795863798,314159265.358979284763336,0.000000000000000,0.000000000000000
248,247,Sul,Santa Catarina South,Garopaba Centro,-28.021577000000001,-48.619447999999998,3,2,Right and left,Beach-break,All surfers,10000.000000000000000,248,62831.853071795863798,314159265.358979284763336,0.000000000000000,0.000000000000000
249,248,Sul,Santa Catarina South,Siriu,-27.976248999999999,-48.627999000000003,3.5,3,Right and left,Beach-break,All surfers,10000.000000000000000,249,62831.853071795863798,314159265.358979284763336,0.000000000000000,0.000000000000000
250,249,Sul,Santa Catarina South,Gamboa,-27.958926999999999,-48.624662000000001,3.5,1,Right and left,Beach-break,All surfers,10000.000000000000000,250,62831.853071795863798,314159265.358979284763336,0.000000000000000,0.000000000000000
251,250,Sul,Santa Catarina South,Guarda do embau,-27.905540999999999,-48.586779000000000,4,3,Left,Rivermouth,Experienced surfers,10000.000000000000000,251,62831.853071795863798,314159265.358979284763336,1.773030728289710,0.005643732093223
252,251,Sul,Santa Catarina South,Costão da Pinheira,-27.881077000000001,-48.586542999999999,3.5,1,Right,Point-break,Experienced surfers,10000.000000000000000,252,62831.853071795863798,314159265.358979284763336,13.158579787127101,0.041885060343808
253,252,Sul,Florianopolis,Naufragados,-27.834740000000000,-48.566747999999997,5,3,Right,Beach-break,Pros or kamikaze only...,10000.000000000000000,253,62831.853071795863798,314159265.358979284763336,34.013772048831399,0.108269199095449
254,253,Sul,Santa Catarina South,Solidao - Caladinho,-27.793519000000000,-48.533456000000001,3.5,3,Right,Point-break,Experienced surfers,10000.000000000000000,254,62831.853071795863798,314159265.358979284763336,54.231915420482899,0.172625548250229
255,254,Sul,Santa Catarina South,Praia dos Açores,-27.784758000000000,-48.525989000000003,3,3,Right and left,Beach-break,All surfers,10000.000000000000000,255,62831.853071795863798,314159265.358979284763336,60.650766264797497,0.193057385067074
256,255,Sul,Florianopolis,Lagoinha do Leste,-27.773575999999998,-48.486528000000000,3.5,4,Right and left,Beach-break,All surfers,10000.000000000000000,256,62831.853071795863798,314159265.358979284763336,79.503815348923297,0.253068504148929
257,256,Sul,Florianopolis,Matadeiro,-27.755140000000001,-48.498522999999999,3.5,4,Right and left,Beach-break,Experienced surfers,10000.000000000000000,257,62831.853071795863798,314159265.358979284763336,77.384064525645499,0.246321127715974
258,257,Sul,Florianopolis,Armação,-27.741619000000000,-48.508114999999997,3,2,Right and left,Beach-break,All surfers,10000.000000000000000,258,62831.853071795863798,314159265.358979284763336,77.996461802073199,0.248270448789563
259,258,Sul,Florianopolis,Caldeirao,-27.723690000000001,-48.504595999999999,3.5,3,Left,Beach-break,Experienced surfers,10000.000000000000000,259,62831.853071795863798,314159265.358979284763336,83.431292223363201,0.265570051317853
260,259,Sul,Florianopolis,Morro das Pedras,-27.715522000000000,-48.502257000000000,3,4,Right and left,Sand-bar,Experienced surfers,10000.000000000000000,260,62831.853071795863798,314159265.358979284763336,85.423156117746501,0.271910351013001
261,260,Sul,Florianopolis,Campeche Rights,-27.693864000000001,-48.482686999999999,4,2,Right,Sand-bar,Experienced surfers,10000.000000000000000,261,62831.853071795863798,314159265.358979284763336,102.099668411680000,0.324993338315247
262,261,Sul,Florianopolis,Riozinho,-27.685523000000000,-48.479598000000003,5,3,Right and left,Beach-break,Experienced surfers,10000.000000000000000,262,62831.853071795863798,314159265.358979284763336,104.142302175897001,0.331495243525277
263,262,Sul,Florianopolis,Joaquina,-27.629588999999999,-48.448768000000001,4,4,Left,Sand-bar,Experienced surfers,10000.000000000000000,263,62831.853071795863798,314159265.358979284763336,106.923661306515996,0.340348584608313
264,263,Sul,Florianopolis,Praia Mole,-27.602475999999999,-48.432583999999999,3.5,3,Right and left,Sand-bar,All surfers,10000.000000000000000,264,62831.853071795863798,314159265.358979284763336,115.784808302710999,0.368554491526480
265,264,Sul,Florianopolis,Galheta,-27.593482000000002,-48.425224000000000,3.5,4,Right and left,Beach-break,All surfers,10000.000000000000000,265,62831.853071795863798,314159265.358979284763336,121.738614898475006,0.387506046525059
266,265,Sul,Florianopolis,Barra da Lagoa,-27.572818000000002,-48.424376000000002,3,3,Right and left,Beach-break,Beginners wave,10000.000000000000000,266,62831.853071795863798,314159265.358979284763336,109.010435119085002,0.346990991956015
267,266,Sul,Florianopolis,Mocambique,-27.525323000000000,-48.410567999999998,3.5,4,Right and left,Beach-break,All surfers,10000.000000000000000,267,62831.853071795863798,314159265.358979284763336,99.251075178186795,0.315925984435875
268,267,Sul,Santa Catarina South,Ponta das Aranhas,-27.482099999999999,-48.380892000000003,3.5,4,Right and left,Beach-break,All surfers,10000.000000000000000,268,62831.853071795863798,314159265.358979284763336,134.024026580927995,0.426611726468686
269,268,Sul,Florianopolis,Santinho,-27.457940000000001,-48.372630999999998,3.5,4,Right and left,Beach-break,Experienced surfers,10000.000000000000000,269,62831.853071795863798,314159265.358979284763336,144.799887581222009,0.460912357354045
270,269,Sul,Florianopolis,Canasvieiras,-27.430966000000002,-48.479661999999998,3.5,1,Right,Sand-bar,All surfers,10000.000000000000000,270,62831.853071795863798,314159265.358979284763336,95.018583676182004,0.302453545553105
271,270,Sul,Florianopolis,Praia do Forte,-27.430747000000000,-48.519658999999997,3.5,1,Right,Point-break,All surfers,10000.000000000000000,271,62831.853071795863798,314159265.358979284763336,105.290075163596001,0.335148718416070
272,271,Sul,Florianopolis,Ingleses,-27.429832999999999,-48.390569999999997,3,2,Right and left,Beach-break,All surfers,10000.000000000000000,272,62831.853071795863798,314159265.358979284763336,137.652444531730993,0.438161339518159
273,272,Sul,Florianopolis,Praia Brava,-27.400804000000001,-48.413401000000000,3.5,3,Right and left,Beach-break,Experienced surfers,10000.000000000000000,273,62831.853071795863798,314159265.358979284763336,151.355047244717014,0.481778078618082
274,273,Sul,Santa Catarina South,Praia Brava,-27.396440999999999,-48.414130000000000,3,4,Right and left,Sand-bar,All surfers,10000.000000000000000,274,62831.853071795863798,314159265.358979284763336,156.529413473364997,0.498248597871224
275,274,Sul,Florianopolis,Lambe lambe,-27.387601000000000,-48.433185000000002,4,1,Right,Point-break,Experienced surfers,10000.000000000000000,275,62831.853071795863798,314159265.358979284763336,164.501087318629999,0.523623223815030
276,275,Sul,Florianopolis,Ponta Do Rapa,-27.380837000000000,-48.420524999999998,4,1,Right,Reef-rocky,Pros or kamikaze only...,10000.000000000000000,276,62831.853071795863798,314159265.358979284763336,174.120824444735007,0.554243798112315
277,276,Sul,Santa Catarina North,Tingua,-27.368165999999999,-48.532501000000003,3.5,1,Left,Beach-break,Experienced surfers,10000.000000000000000,277,62831.853071795863798,314159265.358979284763336,125.073296267540002,0.398120666995522
278,277,Sul,Santa Catarina North,Palmas,-27.321984000000000,-48.535451999999999,3.5,2,Right and left,Beach-break,Experienced surfers,10000.000000000000000,278,62831.853071795863798,314159265.358979284763336,154.829838661937004,0.492838683223359
279,278,Sul,Santa Catarina North,Mariscal,-27.166504000000000,-48.494833000000000,3.5,3,Right and left,Beach-break,All surfers,10000.000000000000000,279,62831.853071795863798,314159265.358979284763336,219.068131164864013,0.697315518975837
280,279,Sul,Santa Catarina North,Quatro Ilhas,-27.156195000000000,-48.482923999999997,3.5,3,Right,Point-break,Experienced surfers,10000.000000000000000,280,62831.853071795863798,314159265.358979284763336,214.245383890710997,0.681964237616548
281,280,Sul,Santa Catarina North,Bombinhas,-27.148367000000000,-48.489531999999997,2,2,Right and left,Beach-break,Beginners wave,10000.000000000000000,281,62831.853071795863798,314159265.358979284763336,219.257255320360002,0.697917519859942
282,281,Sul,Santa Catarina North,Bombas,-27.140118000000001,-48.506784000000003,3,2,Right and left,Beach-break,All surfers,10000.000000000000000,282,62831.853071795863798,314159265.358979284763336,223.214058250248002,0.710512414762585
283,282,Sul,Santa Catarina North,Meia Praia,-27.104825000000002,-48.609009000000000,3,3,Right and left,Sand-bar,All surfers,10000.000000000000000,283,62831.853071795863798,314159265.358979284763336,185.217550887838001,0.589565775423482
284,283,Sul,Santa Catarina North,Itapema,-27.095541000000001,-48.609738000000000,3,3,Right and left,Beach-break,All surfers,10000.000000000000000,284,62831.853071795863798,314159265.358979284763336,178.410457764020009,0.567898125048633
285,284,Sul,Santa Catarina North,Ponta do Cabeço,-27.093436000000001,-48.601959999999998,4,2,Left,Reef-rocky,Experienced surfers,10000.000000000000000,285,62831.853071795863798,314159265.358979284763336,186.905310441711009,0.594938080938472
286,285,Sul,Santa Catarina North,Mocó,-27.080182000000001,-48.588451999999997,4,2,Left,Reef-rocky,Experienced surfers,10000.000000000000000,286,62831.853071795863798,314159265.358979284763336,194.206144382561007,0.618177357146059
287,286,Sul,Santa Catarina North,Estaleirinho,-27.049112000000001,-48.586779000000000,3,4,Right and left,Beach-break,Pros or kamikaze only...,10000.000000000000000,287,62831.853071795863798,314159265.358979284763336,183.106875612493013,0.582847287356822
288,287,Sul,Santa Catarina North,Estaleiro (reef),-27.025050000000000,-48.574064999999997,3.5,2,Left,Reef-rocky,Experienced surfers,10000.000000000000000,288,62831.853071795863798,314159265.358979284763336,193.434800603073001,0.615722093639485
289,288,Sul,Santa Catarina North,Balneário Camboriú,-26.987711999999998,-48.629950999999998,3,3,Right and left,Beach-break,All surfers,10000.000000000000000,289,62831.853071795863798,314159265.358979284763336,105.487467749209998,0.335777038530674
290,289,Sul,Santa Catarina North,Parcel,-26.976469000000002,-48.623170999999999,4,1,Right and left,Reef-rocky,Pros or kamikaze only...,10000.000000000000000,290,62831.853071795863798,314159265.358979284763336,121.003822921864000,0.385167131020621
291,290,Sul,Santa Catarina North,Praia dos Amores,-26.957191000000002,-48.629221999999999,3,2,Right and left,Beach-break,Experienced surfers,10000.000000000000000,291,62831.853071795863798,314159265.358979284763336,116.449742438727995,0.370671042618033
292,291,Sul,Santa Catarina North,Praia Brava,-26.941659999999999,-48.628234999999997,3,3,Right and left,Beach-break,Experienced surfers,10000.000000000000000,292,62831.853071795863798,314159265.358979284763336,121.036348106212003,0.385270661897901
293,292,Sul,Santa Catarina North,Morcego,-26.931052000000001,-48.625214999999997,3.5,NA,Left,Point-break,Pros or kamikaze only...,10000.000000000000000,293,62831.853071795863798,314159265.358979284763336,128.025388304382005,0.407517467798035
294,293,Sul,Santa Catarina North,Atalaia,-26.915163000000000,-48.639361000000001,3.5,2,Left,breakwater/jetty,All surfers,10000.000000000000000,294,62831.853071795863798,314159265.358979284763336,105.116060523767999,0.334594812614091
295,294,Sul,Santa Catarina North,Pracinha,-26.901883999999999,-48.641613999999997,3.5,4,Right and left,Beach-break,All surfers,10000.000000000000000,295,62831.853071795863798,314159265.358979284763336,100.110880576458001,0.318662830020514
296,295,Sul,Santa Catarina North,Navegantes,-26.897577999999999,-48.638705999999999,3.5,3,Right and left,Beach-break,All surfers,10000.000000000000000,296,62831.853071795863798,314159265.358979284763336,103.728813327021001,0.330179067641038
297,296,Sul,Santa Catarina North,Garrincha,-26.858702999999998,-48.634619000000001,3,2,Right and left,Sand-bar,Experienced surfers,10000.000000000000000,297,62831.853071795863798,314159265.358979284763336,98.970892612989303,0.315034135631488
298,297,Sul,Santa Catarina North,Gravatá (1 e 2),-26.831883000000001,-48.621969000000000,3,3,Right and left,Beach-break,All surfers,10000.000000000000000,298,62831.853071795863798,314159265.358979284763336,123.497782801412995,0.393105651874683
299,298,Sul,Santa Catarina North,Gravatá,-26.831730000000000,-48.623427999999997,3,3,Right and left,Beach-break,All surfers,10000.000000000000000,299,62831.853071795863798,314159265.358979284763336,121.266667364227999,0.386003790865951
300,299,Sul,Santa Catarina North,Quilombo,-26.766992999999999,-48.639414000000002,3.5,2,Left,Beach-break,All surfers,10000.000000000000000,300,62831.853071795863798,314159265.358979284763336,123.305143912068999,0.392492463245267
301,300,Sul,Santa Catarina North,Quilombo (reef),-26.765743000000001,-48.640143999999999,3.5,2,Right,Point-break,All surfers,10000.000000000000000,301,62831.853071795863798,314159265.358979284763336,122.749525977280996,0.390723876429426
302,301,Sul,Santa Catarina North,molhe de Piçarras,-26.757026000000000,-48.673434999999998,3,1,Right,Point-break,All surfers,10000.000000000000000,302,62831.853071795863798,314159265.358979284763336,81.119601244836105,0.258211710395183
303,302,Sul,Santa Catarina North,Laje do Jacques,-26.726915999999999,-48.673060000000000,4,2,Right and left,Reef-rocky,Experienced surfers,10000.000000000000000,303,62831.853071795863798,314159265.358979284763336,108.253250988926993,0.344580800013107
304,303,Sul,Santa Catarina North,Syphodys,-26.701371000000002,-48.680247999999999,3,2,Right and left,Beach-break,Experienced surfers,10000.000000000000000,304,62831.853071795863798,314159265.358979284763336,110.663241675470999,0.352252038624485
305,304,Sul,Santa Catarina North,ilha do grants,-26.696031999999999,-48.674990999999999,3.5,1,Left,Reef-rocky,Pros or kamikaze only...,10000.000000000000000,305,62831.853071795863798,314159265.358979284763336,121.757195082123999,0.387565189086485
306,305,Sul,Santa Catarina North,barra de Itajuba,-26.691344999999998,-48.684164000000003,3,1,Right,Point-break,All surfers,10000.000000000000000,306,62831.853071795863798,314159265.358979284763336,107.503869501284001,0.342195444652708
307,306,Sul,Santa Catarina North,Praia do Sol,-26.679962000000000,-48.688166000000002,2,3,Right and left,Point-break,All surfers,10000.000000000000000,307,62831.853071795863798,314159265.358979284763336,101.085276341485994,0.321764428071155
308,307,Sul,Santa Catarina North,Praia do Tabuleiro,-26.643014000000001,-48.682051000000001,3,2,Right and left,Beach-break,Beginners wave,10000.000000000000000,308,62831.853071795863798,314159265.358979284763336,107.144900670986999,0.341052811377555
309,308,Sul,Santa Catarina North,Canoas,-26.639403000000001,-48.682501000000002,2,3,Right and left,Beach-break,Beginners wave,10000.000000000000000,309,62831.853071795863798,314159265.358979284763336,105.299940883283000,0.335180121977177
310,309,Sul,Santa Catarina North,Barrinha,-26.623905000000001,-48.679991000000001,3.5,3,Right and left,Beach-break,All surfers,10000.000000000000000,310,62831.853071795863798,314159265.358979284763336,104.484787710399999,0.332585408840350
311,310,Sul,Santa Catarina North,Foz do Itapocu,-26.580708000000001,-48.663769000000002,3,3,Left,breakwater/jetty,All surfers,10000.000000000000000,311,62831.853071795863798,314159265.358979284763336,109.893207505340996,0.349800943733968
312,311,Sul,Santa Catarina South,Foz do Itapocu,-26.566918999999999,-48.657525000000000,3.5,4,Right and left,Beach-break,All surfers,10000.000000000000000,312,62831.853071795863798,314159265.358979284763336,111.312331138776997,0.354318154556366
313,312,Sul,Santa Catarina North,Praia do Bispo,-26.469248000000000,-48.607056000000000,3,4,Right and left,Beach-break,All surfers,10000.000000000000000,313,62831.853071795863798,314159265.358979284763336,119.182166058229996,0.379368617131329
314,313,Sul,Santa Catarina North,Picama,-26.458086999999999,-48.596874000000000,3,3,Right and left,Sand-bar,Experienced surfers,10000.000000000000000,314,62831.853071795863798,314159265.358979284763336,127.579001878689994,0.406096575674475
315,314,Sul,Santa Catarina North,"Praia Grande, São Francisco do Sul",-26.235880000000002,-48.502600000000001,3,3,Right and left,Beach-break,All surfers,10000.000000000000000,315,62831.853071795863798,314159265.358979284763336,145.515248288436993,0.463189421206985
316,315,Sul,Santa Catarina South,Praia da Saudade,-26.230606000000002,-48.498888000000001,3.5,4,Right and left,Beach-break,All surfers,10000.000000000000000,316,62831.853071795863798,314159265.358979284763336,151.711428376472014,0.482912474992952
317,316,Sul,Santa Catarina South,Sao Francisco do Sul,-26.219557999999999,-48.502107000000002,3,1,Right,Sand-bar,Beginners wave,10000.000000000000000,317,62831.853071795863798,314159265.358979284763336,150.121484098616008,0.477851525171723
318,317,Sul,Santa Catarina South,Píer da Petrobras,-26.217386999999999,-48.500518999999997,3.5,2,Right,Point-break,All surfers,10000.000000000000000,318,62831.853071795863798,314159265.358979284763336,153.075408530718988,0.487254158669505
319,318,Sul,Santa Catarina North,Sumidouro,-26.169526000000001,-48.552478999999998,3.5,1,Right and left,Beach-break,Experienced surfers,10000.000000000000000,319,62831.853071795863798,314159265.358979284763336,115.952320551127997,0.369087699573760
320,319,Sul,Santa Catarina North,Praia do Forte,-26.163305999999999,-48.533220000000000,3.5,1,Right,Point-break,All surfers,10000.000000000000000,320,62831.853071795863798,314159265.358979284763336,149.266675048932996,0.475130583458588
321,320,Sul,Santa Catarina North,Terceira Pedra,-26.067008999999999,-48.607646000000003,3.5,3,Right,Point-break,All surfers,10000.000000000000000,321,62831.853071795863798,314159265.358979284763336,102.541089445558001,0.326398425105775
322,321,Sul,Santa Catarina North,Barra do sai mirim,-26.007832000000001,-48.604061000000002,3,3,Right and left,Beach-break,All surfers,10000.000000000000000,322,62831.853071795863798,314159265.358979284763336,103.811389493765006,0.330441915743415
323,322,Sul,Parana,Barrinha,-25.976699000000000,-48.590727000000001,3,2,Right,Beach-break,Experienced surfers,10000.000000000000000,323,62831.853071795863798,314159265.358979284763336,116.745503782138002,0.371612480213617
324,323,Sul,Parana,Guaratuba Praia Brava,-25.897758000000000,-48.564290999999997,3,3,Right and left,Beach-break,All surfers,10000.000000000000000,324,62831.853071795863798,314159265.358979284763336,116.892092803794995,0.372079087561611
325,324,Sul,Parana,Praia Brava Guaratuba,-25.892817000000001,-48.561458999999999,3.5,3,Right and left,Beach-break,All surfers,10000.000000000000000,325,62831.853071795863798,314159265.358979284763336,118.065767422505004,0.375815009904595
326,325,Sul,Parana,Direitas de Guaratuba,-25.890046000000002,-48.560288999999997,4,2,Right,Point-break,Experienced surfers,10000.000000000000000,326,62831.853071795863798,314159265.358979284763336,117.997549265507004,0.375597864766698
327,326,Sul,Parana,Pico de Matinhos,-25.817817999999999,-48.529701000000003,3.5,3,Right,Point-break,Experienced surfers,10000.000000000000000,327,62831.853071795863798,314159265.358979284763336,116.833515940412994,0.371892631614450
328,327,Sul,Parana,Ilha do Mel,-25.548327000000000,-48.295383000000001,3.5,3,Right and left,Beach-break,All surfers,10000.000000000000000,328,62831.853071795863798,314159265.358979284763336,140.914309058378990,0.448544176780402
329,328,Sul,Parana,Farolete,-25.515314000000000,-48.286113999999998,3.5,4,Left,Point-break,Experienced surfers,10000.000000000000000,329,62831.853071795863798,314159265.358979284763336,108.175591431352998,0.344333601963783
330,329,Sudeste,Sao Paolo South,"Guarau, Peruibe SP",-24.369537000000001,-47.011699999999998,3,4,Right and left,Beach-break,All surfers,10000.000000000000000,330,62831.853071795863798,314159265.358979284763336,0.000000000000000,0.000000000000000
331,330,Sudeste,Sao Paolo South,Pier de Mongaguá,-24.095718000000002,-46.618552000000001,3.5,4,Right and left,Beach-break,All surfers,10000.000000000000000,331,62831.853071795863798,314159265.358979284763336,0.000000000000000,0.000000000000000
333,332,Sudeste,Sao Paolo South,Tombo,-24.014990000000001,-46.272697000000001,3.5,4,Right and left,Beach-break,All surfers,10000.000000000000000,333,62831.853071795863798,314159265.358979284763336,28.284053101128400,0.090030937234365
334,333,Sudeste,Sao Paulo North,Astúrias,-24.007738000000000,-46.266475000000000,3,2,Right and left,Beach-break,All surfers,10000.000000000000000,334,62831.853071795863798,314159265.358979284763336,15.662669246719400,0.049855824652576
335,334,Sudeste,Sao Paolo South,Pitangueiras Beach,-24.000935999999999,-46.260767000000001,3.5,4,Right and left,Beach-break,Experienced surfers,10000.000000000000000,335,62831.853071795863798,314159265.358979284763336,7.563187646714190,0.024074373990122
336,335,Sudeste,Sao Paulo North,porta do sol,-23.981331999999998,-46.373762999999997,3.5,2,Right and left,Point-break,Experienced surfers,10000.000000000000000,336,62831.853071795863798,314159265.358979284763336,31.228112928008201,0.099402170718489
337,336,Sudeste,Sao Paolo South,Itarare,-23.972332999999999,-46.362003999999999,3,3,Right and left,Beach-break,All surfers,10000.000000000000000,337,62831.853071795863798,314159265.358979284763336,27.348225862885801,0.087052106617438
338,337,Sudeste,Sao Paolo South,Santos,-23.971744000000001,-46.347208999999999,3,3,Right and left,Beach-break,All surfers,10000.000000000000000,338,62831.853071795863798,314159265.358979284763336,27.490590010777002,0.087505265774557
339,338,Sudeste,Sao Paolo South,"Praia de Pernambuco (Pernambuco Beach, in Guaruja)",-23.963431000000000,-46.184033999999997,3.5,4,Right and left,Beach-break,All surfers,10000.000000000000000,339,62831.853071795863798,314159265.358979284763336,0.000000000000000,0.000000000000000
340,339,Sudeste,Sao Paulo North,Bonete,-23.917383000000001,-45.347785999999999,3.5,4,Right and left,Beach-break,Experienced surfers,10000.000000000000000,340,62831.853071795863798,314159265.358979284763336,0.000000000000000,0.000000000000000
341,340,Sudeste,Sao Paulo North,Sao Pedro,-23.908522000000001,-46.166581000000001,4,3,Right and left,Sand-bar,All surfers,10000.000000000000000,341,62831.853071795863798,314159265.358979284763336,0.000000000000000,0.000000000000000
342,341,Sudeste,Sao Paolo South,Praia de Iporanga,-23.902191999999999,-46.152724999999997,3.5,2,Left,Reef-rocky,Pros or kamikaze only...,10000.000000000000000,342,62831.853071795863798,314159265.358979284763336,0.000000000000000,0.000000000000000
343,342,Sudeste,Sao Paolo South,Taguaíba,-23.896726000000001,-46.151353999999998,3.5,4,Right and left,Beach-break,All surfers,10000.000000000000000,343,62831.853071795863798,314159265.358979284763336,0.000000000000000,0.000000000000000
344,343,Sudeste,Sao Paolo South,praia branca,-23.863427999999999,-46.130795999999997,3.5,3,Left,Beach-break,All surfers,10000.000000000000000,344,62831.853071795863798,314159265.358979284763336,0.000000000000000,0.000000000000000
345,344,Sudeste,Sao Paulo North,Castelhanos,-23.857582000000001,-45.288905999999997,3.5,3,Right and left,Beach-break,Experienced surfers,10000.000000000000000,345,62831.853071795863798,314159265.358979284763336,0.000000000000000,0.000000000000000
346,345,Sudeste,Sao Paulo North,Enseada - Bertioga,-23.839860000000002,-46.123674000000001,3,4,Right and left,Beach-break,All surfers,10000.000000000000000,346,62831.853071795863798,314159265.358979284763336,0.000000000000000,0.000000000000000
347,346,Sudeste,Sao Paulo North,Santiago,-23.819897999999998,-45.541420000000002,3.5,2,Right and left,Beach-break,Experienced surfers,10000.000000000000000,347,62831.853071795863798,314159265.358979284763336,0.208653533779880,0.000664164825893
348,347,Sudeste,Sao Paulo North,Guaecá,-23.819123000000001,-45.466200000000001,3.5,3,Right and left,Beach-break,All surfers,10000.000000000000000,348,62831.853071795863798,314159265.358979284763336,8.304858664638200,0.026435186163135
349,348,Sudeste,Sao Paulo North,Riviera de São Lourenço,-23.808668999999998,-46.022072000000001,3,3,Right and left,Beach-break,All surfers,10000.000000000000000,349,62831.853071795863798,314159265.358979284763336,0.000000000000000,0.000000000000000
350,349,Sudeste,Sao Paulo North,Paúba,-23.802819000000000,-45.553167999999999,4,2,Right and left,Beach-break,Pros or kamikaze only...,10000.000000000000000,350,62831.853071795863798,314159265.358979284763336,0.000000000000000,0.000000000000000
351,350,Sudeste,Sao Paulo North,Itaguaré,-23.796026000000001,-45.991173000000003,3,4,Right and left,Beach-break,All surfers,10000.000000000000000,351,62831.853071795863798,314159265.358979284763336,0.000000000000000,0.000000000000000
352,351,Sudeste,Sao Paulo North,Maresias,-23.791530000000002,-45.573456000000000,3.5,4,Right and left,Beach-break,All surfers,10000.000000000000000,352,62831.853071795863798,314159265.358979284763336,0.000000000000000,0.000000000000000
353,352,Sudeste,Sao Paulo North,Camburi,-23.778825999999999,-45.649137000000003,3.5,4,Right and left,Beach-break,All surfers,10000.000000000000000,353,62831.853071795863798,314159265.358979284763336,0.000000000000000,0.000000000000000
354,353,Sudeste,Sao Paulo North,Baleia,-23.777600000000000,-45.670217000000001,3.5,3,Right and left,Beach-break,All surfers,10000.000000000000000,354,62831.853071795863798,314159265.358979284763336,0.000000000000000,0.000000000000000
355,354,Sudeste,Sao Paulo North,Guaratuba,-23.772306000000000,-45.922251000000003,3,3,Right and left,Beach-break,Experienced surfers,10000.000000000000000,355,62831.853071795863798,314159265.358979284763336,0.000000000000000,0.000000000000000
356,355,Sudeste,Sao Paulo North,Juquehy,-23.768065000000000,-45.738143999999998,3,4,Right and left,Beach-break,All surfers,10000.000000000000000,356,62831.853071795863798,314159265.358979284763336,0.000000000000000,0.000000000000000
357,356,Sudeste,Sao Paulo North,Massaguaçu,-23.590772999999999,-45.334611000000002,3.5,2,Right and left,Beach-break,Experienced surfers,10000.000000000000000,357,62831.853071795863798,314159265.358979284763336,45.789825099647601,0.145753540158445
358,357,Sudeste,Sao Paulo North,Simão,-23.585149000000001,-45.238287000000000,3.5,3,Right,Beach-break,Experienced surfers,10000.000000000000000,358,62831.853071795863798,314159265.358979284763336,28.605040880667101,0.091052673070078
359,358,Sudeste,Sao Paulo North,Praia do sape,-23.531963000000001,-45.222301000000002,3.5,3,Right and left,Beach-break,All surfers,10000.000000000000000,359,62831.853071795863798,314159265.358979284763336,0.000000000000000,0.000000000000000
360,359,Sudeste,Sao Paulo North,Lagoinha,-23.521339000000001,-45.205221000000002,3.5,2,Right and left,Beach-break,Beginners wave,10000.000000000000000,360,62831.853071795863798,314159265.358979284763336,0.000000000000000,0.000000000000000
361,360,Sudeste,Sao Paulo North,Sununga,-23.511344000000001,-45.129432999999999,3.5,3,Right,Beach-break,Pros or kamikaze only...,10000.000000000000000,361,62831.853071795863798,314159265.358979284763336,0.000000000000000,0.000000000000000
362,361,Sudeste,Sao Paulo North,Toninhas,-23.484739000000001,-45.073771000000001,3,2,Right and left,Beach-break,All surfers,10000.000000000000000,362,62831.853071795863798,314159265.358979284763336,0.000000000000000,0.000000000000000
363,362,Sudeste,Sao Paulo North,Praia Grande (PG),-23.478835000000000,-45.067290999999997,3,3,Right and left,Beach-break,All surfers,10000.000000000000000,363,62831.853071795863798,314159265.358979284763336,0.000000000000000,0.000000000000000
364,363,Sudeste,Sao Paulo North,Praia Grande North,-23.467497999999999,-45.062055999999998,3,3,Left,Beach-break,All surfers,10000.000000000000000,364,62831.853071795863798,314159265.358979284763336,0.000000000000000,0.000000000000000
365,364,Sudeste,Sao Paulo North,Vermelha do Centro,-23.463128000000001,-45.049353000000004,3.5,4,Right and left,Beach-break,All surfers,10000.000000000000000,365,62831.853071795863798,314159265.358979284763336,0.000000000000000,0.000000000000000
366,365,Sudeste,Sao Paulo North,Patiero,-23.456318000000000,-45.021242999999998,3.5,2,NA,Reef-rocky,Experienced surfers,10000.000000000000000,366,62831.853071795863798,314159265.358979284763336,0.000000000000000,0.000000000000000
367,366,Sudeste,Sao Paulo North,Vermelha do Norte,-23.416982000000001,-45.035876999999999,3,3,Right and left,Beach-break,All surfers,10000.000000000000000,367,62831.853071795863798,314159265.358979284763336,0.000000000000000,0.000000000000000
368,367,Sudeste,Sao Paulo North,Itamambuca,-23.402332000000001,-45.001458999999997,3.5,4,Right and left,Beach-break,All surfers,10000.000000000000000,368,62831.853071795863798,314159265.358979284763336,0.126851310956945,0.000403780263530
369,368,Sudeste,Sao Paulo North,Praia do Felix,-23.389334000000002,-44.972405000000002,3.5,3,Right and left,Beach-break,All surfers,10000.000000000000000,369,62831.853071795863798,314159265.358979284763336,5.791249289711050,0.018434119022699
370,369,Sudeste,Sao Paulo North,Brava do Camburi,-23.370963000000000,-44.799858999999998,3,3,Right and left,Beach-break,Experienced surfers,10000.000000000000000,370,62831.853071795863798,314159265.358979284763336,2.382963681492650,0.007585208982360
371,370,Sudeste,Rio De Janeiro City,Ponta do Cepílio,-23.343990000000002,-44.711781000000002,3.5,3,Right and left,Beach-break,Experienced surfers,10000.000000000000000,371,62831.853071795863798,314159265.358979284763336,61.273539371666097,0.195039733434731
372,371,Sudeste,Rio De Janeiro City,Laranjeiras,-23.336050000000000,-44.674294000000003,3.5,3,Right,Beach-break,All surfers,10000.000000000000000,372,62831.853071795863798,314159265.358979284763336,87.525305113264594,0.278601699088048
373,372,Sudeste,Rio De Janeiro City,Martim de Sa,-23.304048999999999,-44.553486999999997,3.5,3,Right and left,Beach-break,All surfers,10000.000000000000000,373,62831.853071795863798,314159265.358979284763336,150.283817674832989,0.478368248993417
374,373,Sudeste,Rio De Janeiro Norte,Aventureiro,-23.180132000000000,-44.304428000000001,3.5,4,Left,Point-break,All surfers,10000.000000000000000,374,62831.853071795863798,314159265.358979284763336,131.800250558718005,0.419533227543407
375,374,Sudeste,Rio De Janeiro City,Lopes Mendes,-23.171453000000000,-44.128990000000002,3.5,4,Right and left,Beach-break,Experienced surfers,10000.000000000000000,375,62831.853071795863798,314159265.358979284763336,175.041760538756989,0.557175228745021
376,375,Sudeste,Rio De Janeiro City,Barra de Guaratiba,-23.064018000000001,-43.569374000000003,4,2,Left,Rivermouth,Experienced surfers,10000.000000000000000,376,62831.853071795863798,314159265.358979284763336,141.731887624390993,0.451146610183338
377,376,Sudeste,Rio De Janeiro City,Laje do Dramin,-23.055999000000000,-44.366816000000000,3.5,2,Left,Reef-rocky,Pros or kamikaze only...,10000.000000000000000,377,62831.853071795863798,314159265.358979284763336,151.276245408361007,0.481527244582466
378,377,Sudeste,Rio De Janeiro City,Grumari,-23.049130999999999,-43.526673000000002,3.5,3,Right and left,Beach-break,Experienced surfers,10000.000000000000000,378,62831.853071795863798,314159265.358979284763336,119.864367565818995,0.381540131973679
379,378,Sudeste,Rio De Janeiro City,Prainha,-23.040759000000001,-43.505259000000002,3.5,4,Right and left,Beach-break,All surfers,10000.000000000000000,379,62831.853071795863798,314159265.358979284763336,112.074870737956999,0.356745393486622
380,379,Sudeste,Rio De Janeiro City,CcB,-23.034576999999999,-43.488737999999998,3.5,4,Right and left,Sand-bar,All surfers,10000.000000000000000,380,62831.853071795863798,314159265.358979284763336,110.201188454776997,0.350781277543586
381,380,Sudeste,Rio De Janeiro City,Macumba (Curvão),-23.034085000000001,-43.472729000000001,3,3,Right and left,Beach-break,All surfers,10000.000000000000000,381,62831.853071795863798,314159265.358979284763336,120.576293221761006,0.383806261718822
382,381,Sudeste,Rio De Janeiro City,Farorinha,-23.033829000000001,-43.470989000000003,3,2,Left,Beach-break,All surfers,10000.000000000000000,382,62831.853071795863798,314159265.358979284763336,121.172777981140996,0.385704931677508
383,382,Sudeste,Rio De Janeiro City,Canto do recreio,-23.033294999999999,-43.467430000000000,3.5,NA,Right and left,Beach-break,All surfers,10000.000000000000000,383,62831.853071795863798,314159265.358979284763336,122.313330609269002,0.389335423449968
384,383,Sudeste,Rio De Janeiro City,Praia da Macumba,-23.032031000000000,-43.475603999999997,4,4,Right and left,Beach-break,All surfers,10000.000000000000000,384,62831.853071795863798,314159265.358979284763336,115.089013271436997,0.366339707154359
385,384,Sudeste,Rio De Janeiro City,posto 11 (Atlântico sul),-23.030000000000001,-43.466442999999998,3.5,3,Right and left,Sand-bar,All surfers,10000.000000000000000,385,62831.853071795863798,314159265.358979284763336,116.972202985525001,0.372334086189898
386,385,Sudeste,Rio De Janeiro City,Mambucaba,-23.029266000000000,-44.519992000000002,3.5,2,Right and left,Sand-bar,All surfers,10000.000000000000000,386,62831.853071795863798,314159265.358979284763336,82.625021974873405,0.263003613407552
387,386,Sudeste,Rio De Janeiro City,Posto 10 - Recreio,-23.026218000000000,-43.458039999999997,3.5,2,Right and left,Beach-break,Experienced surfers,10000.000000000000000,387,62831.853071795863798,314159265.358979284763336,114.818044674510006,0.365477187321887
388,387,Sudeste,Rio De Janeiro City,Recreio Posto 9,-23.023638999999999,-43.448228999999998,3,3,Right and left,Beach-break,Experienced surfers,10000.000000000000000,388,62831.853071795863798,314159265.358979284763336,114.672497447772997,0.365013896110117
389,388,Sudeste,Rio De Janeiro City,Lage Postinho,-23.015481999999999,-43.306539000000001,3.5,2,Right and left,Reef-rocky,Experienced surfers,10000.000000000000000,389,62831.853071795863798,314159265.358979284763336,137.305964309324992,0.437058458716569
390,389,Sudeste,Rio De Janeiro City,Joatinga,-23.015205000000002,-43.291089999999997,3.5,4,Right and left,Beach-break,All surfers,10000.000000000000000,390,62831.853071795863798,314159265.358979284763336,141.144107128373008,0.449275646755452
391,390,Sudeste,Rio De Janeiro City,Tropical (posto 1),-23.014824999999998,-43.301845000000000,3.5,4,Right and left,Beach-break,Experienced surfers,10000.000000000000000,391,62831.853071795863798,314159265.358979284763336,137.398340200328988,0.437352500310085
392,391,Sudeste,Rio De Janeiro City,Barra da Tijuca - Posto 8,-23.010857000000001,-43.361874000000000,3.5,4,Right and left,Sand-bar,All surfers,10000.000000000000000,392,62831.853071795863798,314159265.358979284763336,116.475224174171004,0.370752153501119
393,392,Sudeste,Rio De Janeiro City,Sao Conrado,-22.999800000000000,-43.254353999999999,3.5,NA,Right and left,Beach-break,Experienced surfers,10000.000000000000000,393,62831.853071795863798,314159265.358979284763336,124.050936057038001,0.394866393373085
394,393,Sudeste,Rio De Janeiro City,Laje do sheraton,-22.995671000000002,-43.231243999999997,4,1,Right and left,Reef-rocky,Pros or kamikaze only...,10000.000000000000000,394,62831.853071795863798,314159265.358979284763336,130.388736428122996,0.415040238520842
395,394,Sudeste,Rio De Janeiro City,Pontão do leblon,-22.989962999999999,-43.226480000000002,3.5,3,Right,Point-break,Experienced surfers,10000.000000000000000,395,62831.853071795863798,314159265.358979284763336,124.927018836640002,0.397655051471712
396,395,Sudeste,Rio De Janeiro City,Arpoador,-22.989913000000001,-43.191654999999997,3.5,NA,Right and left,Beach-break,All surfers,10000.000000000000000,396,62831.853071795863798,314159265.358979284763336,144.743086774301986,0.460731554770187
397,396,Sudeste,Rio De Janeiro City,Praia do Diabo,-22.988817000000001,-43.189143999999999,3.5,4,Right and left,Beach-break,All surfers,10000.000000000000000,397,62831.853071795863798,314159265.358979284763336,143.706175874156997,0.457430964864108
398,397,Sudeste,Rio De Janeiro City,Leblon,-22.987947999999999,-43.219527999999997,3,4,Right and left,Beach-break,All surfers,10000.000000000000000,398,62831.853071795863798,314159265.358979284763336,128.368130907845995,0.408608451389024
399,398,Sudeste,Rio De Janeiro City,Ipanema,-22.987552999999998,-43.205409000000003,3,3,Right and left,Beach-break,All surfers,10000.000000000000000,399,62831.853071795863798,314159265.358979284763336,137.855012410532993,0.438806133102619
400,399,Sudeste,Rio De Janeiro City,Shore break expresso escorpiao,-22.986037000000000,-43.182017000000002,3.5,2,Right,Reef-rocky,Pros or kamikaze only...,10000.000000000000000,400,62831.853071795863798,314159265.358979284763336,140.645372976877013,0.447688126645466
401,400,Sudeste,Rio De Janeiro City,Forte de Copacabana,-22.985102999999999,-43.185538999999999,3,2,Right,Point-break,All surfers,10000.000000000000000,401,62831.853071795863798,314159265.358979284763336,139.494020154198012,0.444023256786022
402,401,Sudeste,Rio De Janeiro City,Posto 5 - Copacabana,-22.983917999999999,-43.188457000000000,3.5,3,Right and left,Beach-break,Experienced surfers,10000.000000000000000,402,62831.853071795863798,314159265.358979284763336,137.777282095288996,0.438558709824635
403,402,Sudeste,Rio De Janeiro Norte,Praia Brava - Pontal do Atalaia,-22.982970000000002,-42.021675000000002,3.5,2,Left,Point-break,Experienced surfers,10000.000000000000000,403,62831.853071795863798,314159265.358979284763336,21.346083620235401,0.067946694476268
404,403,Sudeste,Rio De Janeiro City,Shock,-22.975815999999998,-43.040492999999998,5,2,Right,Reef-rocky,Pros or kamikaze only...,10000.000000000000000,404,62831.853071795863798,314159265.358979284763336,80.105602630252605,0.254984052559197
405,404,Sudeste,Rio De Janeiro Norte,Praia Grande - Arraial do Cabo,-22.975325000000002,-42.033842000000000,3.5,3,Right and left,Beach-break,All surfers,10000.000000000000000,405,62831.853071795863798,314159265.358979284763336,21.787858146111599,0.069352906466774
406,405,Sudeste,Rio De Janeiro City,Itacoatiara,-22.972618000000001,-43.033447000000002,3.5,3,Right and left,Beach-break,Experienced surfers,10000.000000000000000,406,62831.853071795863798,314159265.358979284763336,77.670475727556493,0.247232802886794
407,406,Sudeste,Rio De Janeiro City,Canal de Camboinhas,-22.968074000000001,-43.048166999999999,2,3,Right and left,breakwater/jetty,Beginners wave,10000.000000000000000,407,62831.853071795863798,314159265.358979284763336,67.326729169314007,0.214307634990113
408,407,Sudeste,Rio De Janeiro City,Camboinhas,-22.966612000000001,-43.052588000000000,3.5,2,Right and left,Sand-bar,Experienced surfers,10000.000000000000000,408,62831.853071795863798,314159265.358979284763336,65.262000199739404,0.207735398557056
409,408,Sudeste,Rio De Janeiro City,Leme,-22.963639000000001,-43.166666999999997,3,3,Left,Sand-bar,All surfers,10000.000000000000000,409,62831.853071795863798,314159265.358979284763336,123.927992303335998,0.394475051250606
410,409,Sudeste,Rio De Janeiro Norte,Ponta Negra - Maricá - RJ,-22.957750999999998,-42.696787000000000,3,3,Right and left,Beach-break,All surfers,10000.000000000000000,410,62831.853071795863798,314159265.358979284763336,136.163068086306993,0.433420507049882
411,410,Sudeste,Rio De Janeiro City,Piratininga,-22.954699000000002,-43.095675000000000,3,3,Right and left,Beach-break,All surfers,10000.000000000000000,411,62831.853071795863798,314159265.358979284763336,76.456024089370999,0.243367083259529
412,411,Sudeste,Rio De Janeiro Norte,Massambaba,-22.947170000000000,-42.166815000000000,3.5,4,Right and left,Sand-bar,Experienced surfers,10000.000000000000000,412,62831.853071795863798,314159265.358979284763336,0.000000000000000,0.000000000000000
413,412,Sudeste,Rio De Janeiro Norte,Lage de fora,-22.944344999999998,-42.468187999999998,4,2,Left,Reef-rocky,Don't know,10000.000000000000000,413,62831.853071795863798,314159265.358979284763336,142.518243684845004,0.453649659264368
414,413,Sudeste,Rio De Janeiro Norte,Arraial do Cabo,-22.942665000000002,-42.030054000000000,3.5,2,Left,Reef-coral,Experienced surfers,10000.000000000000000,414,62831.853071795863798,314159265.358979284763336,30.713550014260999,0.097764266093396
415,414,Sudeste,Rio De Janeiro Norte,Itauna,-22.938835999999998,-42.476208000000000,4,4,Right and left,Point-break,All surfers,10000.000000000000000,415,62831.853071795863798,314159265.358979284763336,132.466192821578005,0.421652987602366
416,415,Sudeste,Rio De Janeiro Norte,Backdoor,-22.938421000000002,-42.472313000000000,3,3,Right,Reef-rocky,Experienced surfers,10000.000000000000000,416,62831.853071795863798,314159265.358979284763336,131.535587080840003,0.418690777528203
417,416,Sudeste,Rio De Janeiro Norte,Saquarema - Itauna Beach,-22.938317999999999,-42.479990000000001,3.5,4,Right and left,Beach-break,All surfers,10000.000000000000000,417,62831.853071795863798,314159265.358979284763336,131.635017709805993,0.419007275050097
418,417,Sudeste,Rio De Janeiro Norte,Saquarema - Praia da Vila,-22.936169000000000,-42.495224000000000,3.5,3,Right and left,Beach-break,All surfers,10000.000000000000000,418,62831.853071795863798,314159265.358979284763336,128.065057053604988,0.407643737348537
419,418,Sudeste,Rio De Janeiro Norte,Praia do Foguete - Cabo Frio,-22.929735999999998,-42.037751999999998,3,3,Right and left,Sand-bar,NA,10000.000000000000000,419,62831.853071795863798,314159265.358979284763336,29.027052341926598,0.092395977272096
420,419,Sudeste,Rio De Janeiro City,Flamengo,-22.928832000000000,-43.170261000000004,3.5,1,Left,Point-break,Experienced surfers,10000.000000000000000,420,62831.853071795863798,314159265.358979284763336,117.300171186932005,0.373378041398515
421,420,Sudeste,Rio De Janeiro City,prainha de adão e eva,-22.927765000000001,-43.123311999999999,3.5,1,Right and left,Beach-break,All surfers,10000.000000000000000,421,62831.853071795863798,314159265.358979284763336,93.867290088765102,0.298788864245357
422,421,Sudeste,Rio De Janeiro City,Itapuca,-22.906618000000002,-43.119706999999998,3.5,2,Right and left,Reef-rocky,All surfers,10000.000000000000000,422,62831.853071795863798,314159265.358979284763336,103.833235660753004,0.330511454252690
423,422,Sudeste,Rio De Janeiro Norte,Praia Brava - Cabo Frio,-22.884557000000001,-41.998072000000001,3.5,2,Right and left,Beach-break,All surfers,10000.000000000000000,423,62831.853071795863798,314159265.358979284763336,49.563422381429902,0.157765273371121
424,423,Sudeste,Rio De Janeiro Norte,Praia do Forte - Cabo Frio,-22.884167000000001,-42.013055999999999,3.5,4,Right and left,Beach-break,All surfers,10000.000000000000000,424,62831.853071795863798,314159265.358979284763336,39.696393784821900,0.126357545875536
425,424,Sudeste,Rio De Janeiro Norte,Dunas do Peró - Cabo Frio -RJ,-22.842631000000001,-41.981335000000001,NA,NA,NA,NA,NA,10000.000000000000000,425,62831.853071795863798,314159265.358979284763336,37.936236826981300,0.120754792266378
426,425,Sudeste,Rio De Janeiro Norte,Geriba,-22.779070000000001,-41.910524000000002,3.5,3,Right and left,Beach-break,All surfers,10000.000000000000000,426,62831.853071795863798,314159265.358979284763336,114.209785452925004,0.363541038085958
427,426,Sudeste,Rio De Janeiro Norte,Laje da Rasa,-22.726395000000000,-41.971463999999997,3,1,NA,Reef-rocky,Experienced surfers,10000.000000000000000,427,62831.853071795863798,314159265.358979284763336,103.843587437379000,0.330544404981087
428,427,Sudeste,Rio De Janeiro Norte,praia de unamar,-22.609524000000000,-41.997760999999997,2,2,Right and left,Beach-break,Beginners wave,10000.000000000000000,428,62831.853071795863798,314159265.358979284763336,106.690050684175006,0.339604978902226
429,428,Sudeste,Rio De Janeiro Norte,Costazul,-22.525117999999999,-41.920347999999997,3.5,4,Right and left,Beach-break,Experienced surfers,10000.000000000000000,429,62831.853071795863798,314159265.358979284763336,133.820275940717011,0.425963168037731
430,429,Sudeste,Rio De Janeiro Norte,Pecado,-22.410544999999999,-41.808256999999998,3.5,4,Right and left,Beach-break,All surfers,10000.000000000000000,430,62831.853071795863798,314159265.358979284763336,87.201963864511896,0.277572471927158
431,430,Sudeste,Rio De Janeiro Norte,Cavaleiros,-22.405111000000002,-41.798358999999998,3.5,4,Right and left,Beach-break,All surfers,10000.000000000000000,431,62831.853071795863798,314159265.358979284763336,85.273549293450500,0.271434137700861
432,431,Sudeste,Rio De Janeiro Norte,Grussaí,-21.690031000000001,-41.022263000000002,3,3,Right and left,Beach-break,All surfers,10000.000000000000000,432,62831.853071795863798,314159265.358979284763336,151.467661149657005,0.482136539810723
433,432,Sudeste,Esperito Santo,Setiba Pina,-20.635263999999999,-40.425728999999997,3.5,3,Right and left,Beach-break,Experienced surfers,10000.000000000000000,433,62831.853071795863798,314159265.358979284763336,113.937880446088002,0.362675537568167
434,433,Sudeste,Esperito Santo,Barra Sol,-20.384262000000000,-40.310088000000000,3.5,2,Right and left,Sand-bar,Experienced surfers,10000.000000000000000,434,62831.853071795863798,314159265.358979284763336,113.837187316607000,0.362355021382321
435,434,Sudeste,Esperito Santo,Secret,-20.379057000000000,-40.307132000000003,3,2,Right and left,Sand-bar,All surfers,10000.000000000000000,435,62831.853071795863798,314159265.358979284763336,114.875672680248002,0.365660622961362
436,435,Sudeste,Esperito Santo,Coral do Céu,-20.378699999999998,-40.286881000000001,3.5,2,Left,Reef-rocky,Pros or kamikaze only...,10000.000000000000000,436,62831.853071795863798,314159265.358979284763336,149.323363330943010,0.475311027864533
437,436,Sudeste,Esperito Santo,Pompeia,-20.356919000000001,-40.289633000000002,3.5,3,Right and left,Beach-break,All surfers,10000.000000000000000,437,62831.853071795863798,314159265.358979284763336,119.522312481067004,0.380451336822719
438,437,Sudeste,Esperito Santo,D2,-20.348965000000000,-40.270665000000001,3.5,3,Right,Reef-rocky,Experienced surfers,10000.000000000000000,438,62831.853071795863798,314159265.358979284763336,133.995054438804999,0.426519505276069
439,438,Sudeste,Esperito Santo,Canal de Vitória,-20.317523999999999,-40.288539000000000,3,1,Left,Sand-bar,All surfers,10000.000000000000000,439,62831.853071795863798,314159265.358979284763336,71.056039035382298,0.226178396980236
440,439,Sudeste,Esperito Santo,Praia de Camburi,-20.275804000000001,-40.270986999999998,3,1,Right and left,Beach-break,All surfers,10000.000000000000000,440,62831.853071795863798,314159265.358979284763336,36.598655782437604,0.116497139565875
441,440,Sudeste,Esperito Santo,Prainha de Carapebus,-20.236550000000001,-40.215024999999997,3.5,2,Right,Point-break,Experienced surfers,10000.000000000000000,441,62831.853071795863798,314159265.358979284763336,61.382865177184399,0.195387728281846
442,441,Sudeste,Esperito Santo,Barrote-Jacaraipe,-20.151101000000001,-40.183461000000001,3,3,Right and left,Beach-break,All surfers,10000.000000000000000,442,62831.853071795863798,314159265.358979284763336,50.697621945823599,0.161375542713640
443,442,Sudeste,Esperito Santo,Jacaraípe- Solemar,-20.135649999999998,-40.180627999999999,3,3,Right and left,Sand-bar,All surfers,10000.000000000000000,443,62831.853071795863798,314159265.358979284763336,34.628408032015798,0.110225646193968
444,443,Sudeste,Esperito Santo,Regencia,-19.659238999999999,-39.841576000000003,3.5,4,Right and left,Beach-break,Experienced surfers,10000.000000000000000,444,62831.853071795863798,314159265.358979284763336,121.221281385683994,0.385859322809304
445,444,Sudeste,Esperito Santo,Guriri,-18.739377999999999,-39.746389000000001,3,2,Right and left,Beach-break,All surfers,10000.000000000000000,445,62831.853071795863798,314159265.358979284763336,130.058591403830007,0.413989354269773
446,445,Nordeste,Bahia Sul,Backdoor,-14.840603000000000,-39.001465000000003,3.5,2,Right,Point-break,Experienced surfers,10000.000000000000000,446,62831.853071795863798,314159265.358979284763336,75.184235123595798,0.239318853250072
447,446,Nordeste,Bahia Sul,Itacarezinho,-14.370585000000000,-39.006014000000000,3,4,Right and left,Beach-break,All surfers,10000.000000000000000,447,62831.853071795863798,314159265.358979284763336,25.707395416438001,0.081829181090881
448,447,Nordeste,Bahia Sul,Engenhoca,-14.352541000000000,-39.000950000000003,NA,4,Right and left,Beach-break,All surfers,10000.000000000000000,448,62831.853071795863798,314159265.358979284763336,46.803684537054401,0.148980754979718
449,448,Nordeste,Bahia Sul,Jeribucaçu,-14.344391999999999,-39.001379000000000,3,4,Right and left,Beach-break,All surfers,10000.000000000000000,449,62831.853071795863798,314159265.358979284763336,54.006654012811403,0.171908518919854
