OBJECTID,Name,Lat,Lon,Zone,Surf_Spot,Surfline_n,Quality__0,Frequency_,Direction,Type,Experience,Latitude,Longitude,BUFF_DIST,ORIG_FID,Shape_Leng,Shape_Area,SUM_Area_S,protected_
1,Cardoso,-28.585450000000002,-48.798270000000002, , , ,0.000000000000000,0, , , ,0.000000000000000,0.000000000000000,10000.000000000000000,0,62831.853071795863798,314159265.358979284763336,209.011643299822993,0.665304723898538
2,Ravena,-28.454780000000000,-48.751339999999999, , , ,0.000000000000000,0, , , ,0.000000000000000,0.000000000000000,10000.000000000000000,1,62831.853071795863798,314159265.358979284763336,144.802779606224988,0.460921562955540
3,Praia da Vila Imbituba,-28.252472220000001,-48.661850000000001, , , ,0.000000000000000,0, , , ,0.000000000000000,0.000000000000000,10000.000000000000000,2,62831.853071795863798,314159265.358979284763336,156.083590014151014,0.496829497725619
4,Praia do Porto Imbituba,-28.220199000000001,-48.663214000000004, , , ,0.000000000000000,0, , , ,0.000000000000000,0.000000000000000,10000.000000000000000,3,62831.853071795863798,314159265.358979284763336,136.582460229199995,0.434755473702588
5,Ponta da Pinheira,-27.878140999999999,-48.576442000000000, , , ,0.000000000000000,0, , , ,0.000000000000000,0.000000000000000,10000.000000000000000,4,62831.853071795863798,314159265.358979284763336,221.080603569221012,0.703721417595626
6,Mocambique,-27.518350000000002,-48.392183330000002, , , ,0.000000000000000,0, , , ,0.000000000000000,0.000000000000000,10000.000000000000000,5,62831.853071795863798,314159265.358979284763336,44.498017229890003,0.141641587998507
7,Ponta das Canas,-27.394818999999998,-48.435709000000003, , , ,0.000000000000000,0, , , ,0.000000000000000,0.000000000000000,10000.000000000000000,6,62831.853071795863798,314159265.358979284763336,13.731852573707201,0.043709844298293
8,Itagua&ccedil;u,-26.184728000000000,-48.526327999999999, , , ,0.000000000000000,0, , , ,0.000000000000000,0.000000000000000,10000.000000000000000,7,62831.853071795863798,314159265.358979284763336,14.196591849760001,0.045189155358948
9,Ilha Comprida,-24.783999999999999,-47.594999999999999, , , ,0.000000000000000,0, , , ,0.000000000000000,0.000000000000000,10000.000000000000000,8,62831.853071795863798,314159265.358979284763336,248.921755312903002,0.792342556023196
10,Iguape,-24.753211000000000,-47.542059000000002, , , ,0.000000000000000,0, , , ,0.000000000000000,0.000000000000000,10000.000000000000000,9,62831.853071795863798,314159265.358979284763336,236.211461366950005,0.751884433830208
11,Peruibe,-24.324427000000000,-46.978886000000003, , , ,0.000000000000000,0, , , ,0.000000000000000,0.000000000000000,10000.000000000000000,10,62831.853071795863798,314159265.358979284763336,203.060740260513995,0.646362411207206
12,Praia dos Pescadores,-24.194862000000001,-46.798881999999999, , , ,0.000000000000000,0, , , ,0.000000000000000,0.000000000000000,10000.000000000000000,11,62831.853071795863798,314159265.358979284763336,133.557172639111002,0.425125684217844
13,Itanhaem,-24.151427000000002,-46.707858000000002, , , ,0.000000000000000,0, , , ,0.000000000000000,0.000000000000000,10000.000000000000000,12,62831.853071795863798,314159265.358979284763336,146.153178332456008,0.465220015604034
14,Praia Grande,-24.028497000000002,-46.438310000000001, , , ,0.000000000000000,0, , , ,0.000000000000000,0.000000000000000,10000.000000000000000,13,62831.853071795863798,314159265.358979284763336,131.942251589433994,0.419985230862659
15,Praia do Forte dos Andradas,-24.028369000000001,-46.288159000000000, , , ,0.000000000000000,0, , , ,0.000000000000000,0.000000000000000,10000.000000000000000,14,62831.853071795863798,314159265.358979284763336,114.989396237475006,0.366022616286935
16,Praia do Forte dos Andradas,-24.025659999999998,-46.285460000000000, , , ,0.000000000000000,0, , , ,0.000000000000000,0.000000000000000,10000.000000000000000,15,62831.853071795863798,314159265.358979284763336,115.361044354032998,0.367205608983755
17,Praia da Ponta Grossa,-24.024816000000001,-46.314497000000003, , , ,0.000000000000000,0, , , ,0.000000000000000,0.000000000000000,10000.000000000000000,16,62831.853071795863798,314159265.358979284763336,101.681867574348004,0.323663436945460
18,Itaipu,-24.019545000000001,-46.386795999999997, , , ,0.000000000000000,0, , , ,0.000000000000000,0.000000000000000,10000.000000000000000,17,62831.853071795863798,314159265.358979284763336,95.637697659698603,0.304424246569385
19,Guaiuba,-24.017081999999998,-46.295202000000003, , , ,0.000000000000000,0, , , ,0.000000000000000,0.000000000000000,10000.000000000000000,18,62831.853071795863798,314159265.358979284763336,104.284228876265004,0.331947010243683
20,Santos,-24.015000000000001,-46.353999999999999, , , ,0.000000000000000,0, , , ,0.000000000000000,0.000000000000000,10000.000000000000000,19,62831.853071795863798,314159265.358979284763336,83.128232507049901,0.264605382279788
21,Morro do Maluf,-23.997560000000000,-46.251593999999997, , , ,0.000000000000000,0, , , ,0.000000000000000,0.000000000000000,10000.000000000000000,20,62831.853071795863798,314159265.358979284763336,122.480786647591998,0.389868452574962
22,Praia da Enseada,-23.990651000000000,-46.209406000000001, , , ,0.000000000000000,0, , , ,0.000000000000000,0.000000000000000,10000.000000000000000,21,62831.853071795863798,314159265.358979284763336,163.460894765603996,0.520312188083401
23,Embare,-23.980865999999999,-46.317684000000000, , , ,0.000000000000000,0, , , ,0.000000000000000,0.000000000000000,10000.000000000000000,22,62831.853071795863798,314159265.358979284763336,55.373279941908201,0.176258624359320
24,Gonzaga,-23.974027000000000,-46.330098000000000, , , ,0.000000000000000,0, , , ,0.000000000000000,0.000000000000000,10000.000000000000000,23,62831.853071795863798,314159265.358979284763336,41.649557861103297,0.132574660223730
25,Pereque,-23.927582999999998,-46.178826000000001, , , ,0.000000000000000,0, , , ,0.000000000000000,0.000000000000000,10000.000000000000000,24,62831.853071795863798,314159265.358979284763336,160.476804595272000,0.510813534058595
26,Praia Preta,-23.874700000000001,-46.138959000000000, , , ,0.000000000000000,0, , , ,0.000000000000000,0.000000000000000,10000.000000000000000,25,62831.853071795863798,314159265.358979284763336,209.092916998743988,0.665563426117071
27,Praia da Bertioga,-23.846986000000001,-46.126967999999998, , , ,0.000000000000000,0, , , ,0.000000000000000,0.000000000000000,10000.000000000000000,26,62831.853071795863798,314159265.358979284763336,209.379540062903004,0.666475775666372
28,Maresias,-23.793693260000001,-45.559764340000001, , , ,0.000000000000000,0, , , ,0.000000000000000,0.000000000000000,10000.000000000000000,27,62831.853071795863798,314159265.358979284763336,241.687759129788986,0.769316031006186
29,Canto de Moreira,-23.793056000000000,-45.587394000000003, , , ,0.000000000000000,0, , , ,0.000000000000000,0.000000000000000,10000.000000000000000,28,62831.853071795863798,314159265.358979284763336,235.743436133973006,0.750394663243808
30,Itaguere,-23.786995000000001,-45.971372000000002, , , ,0.000000000000000,0, , , ,0.000000000000000,0.000000000000000,10000.000000000000000,29,62831.853071795863798,314159265.358979284763336,219.126091340400990,0.697500011944620
31,Boicucanga,-23.784431000000001,-45.631354999999999, , , ,0.000000000000000,0, , , ,0.000000000000000,0.000000000000000,10000.000000000000000,30,62831.853071795863798,314159265.358979284763336,228.948659569842988,0.728766217696082
32,Praia de Baleia,-23.775839000000001,-45.683985999999997, , , ,0.000000000000000,0, , , ,0.000000000000000,0.000000000000000,10000.000000000000000,31,62831.853071795863798,314159265.358979284763336,216.411743479259997,0.688859974357190
33,Barra do Sahy,-23.774384999999999,-45.697569999999999, , , ,0.000000000000000,0, , , ,0.000000000000000,0.000000000000000,10000.000000000000000,32,62831.853071795863798,314159265.358979284763336,210.138168894645986,0.668890566237250
34,Praia Preta,-23.773009999999999,-45.715814999999999, , , ,0.000000000000000,0, , , ,0.000000000000000,0.000000000000000,10000.000000000000000,33,62831.853071795863798,314159265.358979284763336,206.817706161486996,0.658321205090557
35,Bananas Point,-23.771605000000001,-45.706209999999999, , , ,0.000000000000000,0, , , ,0.000000000000000,0.000000000000000,10000.000000000000000,34,62831.853071795863798,314159265.358979284763336,207.045539349774003,0.659046420652882
36,Praia do Juquei,-23.768115000000002,-45.745452999999998, , , ,0.000000000000000,0, , , ,0.000000000000000,0.000000000000000,10000.000000000000000,35,62831.853071795863798,314159265.358979284763336,206.413173222463001,0.657033536752773
37,Praia da Boracéia,-23.758372999999999,-45.828777000000002, , , ,0.000000000000000,0, , , ,0.000000000000000,0.000000000000000,10000.000000000000000,36,62831.853071795863798,314159265.358979284763336,203.847425325921989,0.648866507543531
38,Praia Dura,-23.496058000000001,-45.171014000000000, , , ,0.000000000000000,0, , , ,0.000000000000000,0.000000000000000,10000.000000000000000,37,62831.853071795863798,314159265.358979284763336,192.162162469393991,0.611671160644640
39,Pereque-Acu,-23.424565000000001,-45.062697000000000, , , ,0.000000000000000,0, , , ,0.000000000000000,0.000000000000000,10000.000000000000000,38,62831.853071795863798,314159265.358979284763336,186.911141300031005,0.594956641136953
40,Itamambuca,-23.406683000000001,-45.008741000000001, , , ,0.000000000000000,0, , , ,0.000000000000000,0.000000000000000,10000.000000000000000,39,62831.853071795863798,314159265.358979284763336,216.830653176362006,0.690193405337248
41,Praia da Fazenda,-23.361352000000000,-44.859766000000000, , , ,0.000000000000000,0, , , ,0.000000000000000,0.000000000000000,10000.000000000000000,40,62831.853071795863798,314159265.358979284763336,301.739265326662007,0.960465912033105
42,Aventureiro,-23.184405999999999,-44.315804000000000, , , ,0.000000000000000,0, , , ,0.000000000000000,0.000000000000000,10000.000000000000000,41,62831.853071795863798,314159265.358979284763336,179.536932148043007,0.571483804378306
43,Praia do Leste,-23.179746000000002,-44.274093999999998, , , ,0.000000000000000,0, , , ,0.000000000000000,0.000000000000000,10000.000000000000000,42,62831.853071795863798,314159265.358979284763336,261.499245273342979,0.832377950001051
44,Praia do Sul,-23.178656000000000,-44.296756999999999, , , ,0.000000000000000,0, , , ,0.000000000000000,0.000000000000000,10000.000000000000000,43,62831.853071795863798,314159265.358979284763336,219.736502053429007,0.699443009590514
45,Praia do Meio,-23.066913000000000,-43.549809000000003, , , ,0.000000000000000,0, , , ,0.000000000000000,0.000000000000000,10000.000000000000000,44,62831.853071795863798,314159265.358979284763336,111.038658078026998,0.353447026148177
46,Restinga a Marambaia,-23.061833000000000,-43.591673000000000, , , ,0.000000000000000,0, , , ,0.000000000000000,0.000000000000000,10000.000000000000000,45,62831.853071795863798,314159265.358979284763336,126.350270119347996,0.402185401009809
47,Grumari,-23.050469000000000,-43.533907999999997, , , ,0.000000000000000,0, , , ,0.000000000000000,0.000000000000000,10000.000000000000000,46,62831.853071795863798,314159265.358979284763336,119.004292133969003,0.378802426845463
48,Reserva,-23.022717000000000,-43.440916000000001, , , ,0.000000000000000,0, , , ,0.000000000000000,0.000000000000000,10000.000000000000000,47,62831.853071795863798,314159265.358979284763336,72.048346239301907,0.229337008911626
49,Barra da Tijuca,-23.020340120000000,-43.372478489999999, , , ,0.000000000000000,0, , , ,0.000000000000000,0.000000000000000,10000.000000000000000,48,62831.853071795863798,314159265.358979284763336,26.491060335339998,0.084323664002300
50,Barra da Tijuca,-23.014886109999999,-43.372222219999998, , , ,0.000000000000000,0, , , ,0.000000000000000,0.000000000000000,10000.000000000000000,49,62831.853071795863798,314159265.358979284763336,29.295603227779800,0.093250801291201
51,Sao Conrado,-23.000617999999999,-43.264187000000000, , , ,0.000000000000000,0, , , ,0.000000000000000,0.000000000000000,10000.000000000000000,50,62831.853071795863798,314159265.358979284763336,45.268668935930101,0.144094648566876
52,Bambui,-22.975255000000001,-42.916570000000000, , , ,0.000000000000000,0, , , ,0.000000000000000,0.000000000000000,10000.000000000000000,51,62831.853071795863798,314159265.358979284763336,30.491713975364402,0.097058140050470
53,Itaipuacu,-22.971149000000000,-43.011260000000000, , , ,0.000000000000000,0, , , ,0.000000000000000,0.000000000000000,10000.000000000000000,52,62831.853071795863798,314159265.358979284763336,80.462917593379700,0.256121421411644
54,Barra de Marica,-22.962100000000000,-42.809486999999997, , , ,0.000000000000000,0, , , ,0.000000000000000,0.000000000000000,10000.000000000000000,53,62831.853071795863798,314159265.358979284763336,18.857849479441700,0.060026399214722
55,Camboinhas,-22.961998000000001,-43.059922999999998, , , ,0.000000000000000,0, , , ,0.000000000000000,0.000000000000000,10000.000000000000000,54,62831.853071795863798,314159265.358979284763336,78.560377017896997,0.250065446671225
56,Pirantininga,-22.955044999999998,-43.088653999999998, , , ,0.000000000000000,0, , , ,0.000000000000000,0.000000000000000,10000.000000000000000,55,62831.853071795863798,314159265.358979284763336,75.410401635459095,0.240038763616570
57,Jacone,-22.946556000000001,-42.679789000000000, , , ,0.000000000000000,0, , , ,0.000000000000000,0.000000000000000,10000.000000000000000,56,62831.853071795863798,314159265.358979284763336,43.052370025819499,0.137039950028611
58,Figueira,-22.944991999999999,-42.188828000000001, , , ,0.000000000000000,0, , , ,0.000000000000000,0.000000000000000,10000.000000000000000,57,62831.853071795863798,314159265.358979284763336,175.283150984917995,0.557943598399455
59,Praia do Fora,-22.944794000000002,-43.155304000000001, , , ,0.000000000000000,0, , , ,0.000000000000000,0.000000000000000,10000.000000000000000,58,62831.853071795863798,314159265.358979284763336,46.505471613023502,0.148031513760650
60,Laje do Pao de Acucar,-22.938409000000000,-43.151797000000002, , , ,0.000000000000000,0, , , ,0.000000000000000,0.000000000000000,10000.000000000000000,59,62831.853071795863798,314159265.358979284763336,45.699255350061797,0.145465247691622
61,Canal,-22.937418999999998,-42.487813000000003, , , ,0.000000000000000,0, , , ,0.000000000000000,0.000000000000000,10000.000000000000000,60,62831.853071795863798,314159265.358979284763336,44.074793597891897,0.140294425337190
62,Praia Seca,-22.936126000000002,-42.361598000000001, , , ,0.000000000000000,0, , , ,0.000000000000000,0.000000000000000,10000.000000000000000,61,62831.853071795863798,314159265.358979284763336,105.786400644156998,0.336728571488345
63,Caravelas,-22.814850000000000,-41.953901999999999, , , ,0.000000000000000,0, , , ,0.000000000000000,0.000000000000000,10000.000000000000000,62,62831.853071795863798,314159265.358979284763336,120.353723014093006,0.383097798744115
64,Tucuns,-22.799863999999999,-41.929282000000001, , , ,0.000000000000000,0, , , ,0.000000000000000,0.000000000000000,10000.000000000000000,63,62831.853071795863798,314159265.358979284763336,100.002425369828003,0.318317606375730
65,Praia Brava,-22.754252000000001,-41.872608999999997, , , ,0.000000000000000,0, , , ,0.000000000000000,0.000000000000000,10000.000000000000000,64,62831.853071795863798,314159265.358979284763336,23.303114888150699,0.074176118477751
66,Marataizes,-21.044882999999999,-40.827455999999998, , , ,0.000000000000000,0, , , ,0.000000000000000,0.000000000000000,10000.000000000000000,65,62831.853071795863798,314159265.358979284763336,12.876737743500099,0.040987929255520
67,Ponta do Ubu,-20.793246000000000,-40.579551000000002, , , ,0.000000000000000,0, , , ,0.000000000000000,0.000000000000000,10000.000000000000000,66,62831.853071795863798,314159265.358979284763336,31.252528964920000,0.099479889377793
68,Ponta dos Castelhanos,-20.755085000000001,-40.560755000000000, , , ,0.000000000000000,0, , , ,0.000000000000000,0.000000000000000,10000.000000000000000,67,62831.853071795863798,314159265.358979284763336,22.799070682157300,0.072571695939337
69,Maimba,-20.707021999999998,-40.514367999999997, , , ,0.000000000000000,0, , , ,0.000000000000000,0.000000000000000,10000.000000000000000,68,62831.853071795863798,314159265.358979284763336,12.955225412885200,0.041237763266608
70,Praia do Morro,-20.659787999999999,-40.493842999999998, , , ,0.000000000000000,0, , , ,0.000000000000000,0.000000000000000,10000.000000000000000,69,62831.853071795863798,314159265.358979284763336,35.769480615036002,0.113857793034254
71,Ponta de Bororo,-20.614518000000000,-40.415382000000001, , , ,0.000000000000000,0, , , ,0.000000000000000,0.000000000000000,10000.000000000000000,70,62831.853071795863798,314159265.358979284763336,106.639142377156006,0.339442932728096
72,Tropical,-20.559543999999999,-40.391810000000000, , , ,0.000000000000000,0, , , ,0.000000000000000,0.000000000000000,10000.000000000000000,71,62831.853071795863798,314159265.358979284763336,130.484942498814007,0.415346471954960
73,Dunas de Ule,-20.542100000000001,-40.379860999999998, , , ,0.000000000000000,0, , , ,0.000000000000000,0.000000000000000,10000.000000000000000,72,62831.853071795863798,314159265.358979284763336,120.905911561634994,0.384855469481315
74,Guarapari - Ule,-20.541319000000001,-40.378385999999999, , , ,0.000000000000000,0, , , ,0.000000000000000,0.000000000000000,10000.000000000000000,73,62831.853071795863798,314159265.358979284763336,120.157813553897995,0.382474199564345
75,Ponta da Fruta,-20.516836999999999,-40.358133000000002, , , ,0.000000000000000,0, , , ,0.000000000000000,0.000000000000000,10000.000000000000000,74,62831.853071795863798,314159265.358979284763336,92.121378301651006,0.293231454422925
76,Coral Dois,-20.448948000000001,-40.330300000000001, , , ,0.000000000000000,0, , , ,0.000000000000000,0.000000000000000,10000.000000000000000,75,62831.853071795863798,314159265.358979284763336,29.212005399397601,0.092984701138825
77,Ponta da Belina,-20.445827000000001,-40.329245000000000, , , ,0.000000000000000,0, , , ,0.000000000000000,0.000000000000000,10000.000000000000000,76,62831.853071795863798,314159265.358979284763336,27.726660330855001,0.088256700941711
78,Coral Um,-20.437659000000000,-40.326006999999997, , , ,0.000000000000000,0, , , ,0.000000000000000,0.000000000000000,10000.000000000000000,77,62831.853071795863798,314159265.358979284763336,24.364591060370699,0.077554902073412
79,Barrinha,-20.422540999999999,-40.321933999999999, , , ,0.000000000000000,0, , , ,0.000000000000000,0.000000000000000,10000.000000000000000,78,62831.853071795863798,314159265.358979284763336,17.302272178295500,0.055074842877942
80,Praia de Camburi,-20.279677000000000,-40.248994000000003, , , ,0.000000000000000,0, , , ,0.000000000000000,0.000000000000000,10000.000000000000000,79,62831.853071795863798,314159265.358979284763336,45.633966662727403,0.145257427345277
81,Velzyland,-20.244838999999999,-40.216205000000002, , , ,0.000000000000000,0, , , ,0.000000000000000,0.000000000000000,10000.000000000000000,80,62831.853071795863798,314159265.358979284763336,31.358454257077099,0.099817060054698
82,Ponta da Cacao,-20.219573000000000,-40.196268000000003, , , ,0.000000000000000,0, , , ,0.000000000000000,0.000000000000000,10000.000000000000000,81,62831.853071795863798,314159265.358979284763336,19.517327560194300,0.062125583142972
83,"Manguinhos, Brazil",-20.199344000000000,-40.190266999999999, , , ,0.000000000000000,0, , , ,0.000000000000000,0.000000000000000,10000.000000000000000,82,62831.853071795863798,314159265.358979284763336,17.852940301459601,0.056827673954036
84,Praia da Baleia,-20.171105000000001,-40.184866000000000, , , ,0.000000000000000,0, , , ,0.000000000000000,0.000000000000000,10000.000000000000000,83,62831.853071795863798,314159265.358979284763336,28.901580124120699,0.091996586798406
85,Jacaraipe - Solemar,-20.109774999999999,-40.171481000000000, , , ,0.000000000000000,0, , , ,0.000000000000000,0.000000000000000,10000.000000000000000,84,62831.853071795863798,314159265.358979284763336,89.770979283778203,0.285749901984269
86,Xa,-20.107229000000000,-40.171174999999998, , , ,0.000000000000000,0, , , ,0.000000000000000,0.000000000000000,10000.000000000000000,85,62831.853071795863798,314159265.358979284763336,91.839520105835604,0.292334271920625
87,Nova Almeida,-20.058461999999999,-40.183000999999997, , , ,0.000000000000000,0, , , ,0.000000000000000,0.000000000000000,10000.000000000000000,86,62831.853071795863798,314159265.358979284763336,95.005762930184602,0.302412735851113
88,Praia Grande,-20.047100000000000,-40.182743000000002, , , ,0.000000000000000,0, , , ,0.000000000000000,0.000000000000000,10000.000000000000000,87,62831.853071795863798,314159265.358979284763336,97.359669795824601,0.309905454116004
89,Regencia,-19.562811000000000,-39.764263999999997, , , ,0.000000000000000,0, , , ,0.000000000000000,0.000000000000000,10000.000000000000000,88,62831.853071795863798,314159265.358979284763336,0.000000000000000,0.000000000000000
90,Guriri,-18.910750000000000,-39.738563999999997, , , ,0.000000000000000,0, , , ,0.000000000000000,0.000000000000000,10000.000000000000000,89,62831.853071795863798,314159265.358979284763336,0.000000000000000,0.000000000000000
91,Milionarios,-14.847631000000000,-39.022942000000000, , , ,0.000000000000000,0, , , ,0.000000000000000,0.000000000000000,10000.000000000000000,90,62831.853071795863798,314159265.358979284763336,3.602011638782350,0.011465559147735
92,Sul,-14.831120000000000,-39.022562999999998, , , ,0.000000000000000,0, , , ,0.000000000000000,0.000000000000000,10000.000000000000000,91,62831.853071795863798,314159265.358979284763336,9.637310053185059,0.030676510661472
93,Pedra da Cachorra,-14.821026000000000,-39.023632999999997, , , ,0.000000000000000,0, , , ,0.000000000000000,0.000000000000000,10000.000000000000000,92,62831.853071795863798,314159265.358979284763336,13.785926548987099,0.043881967107462
94,Jardim Atlantico,-14.815026000000000,-39.023400000000002, , , ,0.000000000000000,0, , , ,0.000000000000000,0.000000000000000,10000.000000000000000,93,62831.853071795863798,314159265.358979284763336,16.345095660397501,0.052028055393243
95,Baduska,-14.809442000000001,-39.023423000000001, , , ,0.000000000000000,0, , , ,0.000000000000000,0.000000000000000,10000.000000000000000,94,62831.853071795863798,314159265.358979284763336,18.995674167652300,0.060465108822898
96,Norte,-14.660090000000000,-39.063006999999999, , , ,0.000000000000000,0, , , ,0.000000000000000,0.000000000000000,10000.000000000000000,95,62831.853071795863798,314159265.358979284763336,172.588663840962994,0.549366779438295
97,Havaizinho,-14.468062000000000,-39.023161000000002, , , ,0.000000000000000,0, , , ,0.000000000000000,0.000000000000000,10000.000000000000000,96,62831.853071795863798,314159265.358979284763336,209.404454040909997,0.666555079321410
98,Sao Jose,-14.316062000000001,-38.990701000000001, , , ,0.000000000000000,0, , , ,0.000000000000000,0.000000000000000,10000.000000000000000,97,62831.853071795863798,314159265.358979284763336,173.341827227543007,0.551764172956896
99,Corals,-14.275408000000001,-38.982568999999998, , , ,0.000000000000000,0, , , ,0.000000000000000,0.000000000000000,10000.000000000000000,98,62831.853071795863798,314159265.358979284763336,163.258560514368014,0.519668138158580
100,Tony,-13.016731999999999,-38.488781000000003, , , ,0.000000000000000,0, , , ,0.000000000000000,0.000000000000000,10000.000000000000000,99,62831.853071795863798,314159265.358979284763336,46.362188070383901,0.147575428079154
101,Meridien,-13.016598000000000,-38.484878999999999, , , ,0.000000000000000,0, , , ,0.000000000000000,0.000000000000000,10000.000000000000000,100,62831.853071795863798,314159265.358979284763336,41.863415211065103,0.133255389310989
102,Amaralina,-13.015369000000000,-38.471834000000001, , , ,0.000000000000000,0, , , ,0.000000000000000,0.000000000000000,10000.000000000000000,101,62831.853071795863798,314159265.358979284763336,28.156691949280699,0.089625534096876
103,Tubao,-13.010683999999999,-38.461410999999998, , , ,0.000000000000000,0, , , ,0.000000000000000,0.000000000000000,10000.000000000000000,102,62831.853071795863798,314159265.358979284763336,20.418944839381201,0.064995520078165
104,Psiu,-12.995919000000001,-38.439390000000003, , , ,0.000000000000000,0, , , ,0.000000000000000,0.000000000000000,10000.000000000000000,103,62831.853071795863798,314159265.358979284763336,6.960609636390070,0.022156308611291
105,Alex,-12.973279000000000,-38.406477000000002, , , ,0.000000000000000,0, , , ,0.000000000000000,0.000000000000000,10000.000000000000000,104,62831.853071795863798,314159265.358979284763336,13.146114303559200,0.041845381477250
106,Terceira Ponte,-12.963839999999999,-38.396822000000000, , , ,0.000000000000000,0, , , ,0.000000000000000,0.000000000000000,10000.000000000000000,105,62831.853071795863798,314159265.358979284763336,19.366336037860599,0.061644962200085
107,SESC,-12.960485000000000,-38.390998000000003, , , ,0.000000000000000,0, , , ,0.000000000000000,0.000000000000000,10000.000000000000000,106,62831.853071795863798,314159265.358979284763336,23.048363701089500,0.073365220264164
108,Farol,-12.958147000000000,-38.352812999999998, , , ,0.000000000000000,0, , , ,0.000000000000000,0.000000000000000,10000.000000000000000,107,62831.853071795863798,314159265.358979284763336,46.415345140177898,0.147744632287514
109,Pedro do Sal,-12.954224000000000,-38.347234000000000, , , ,0.000000000000000,0, , , ,0.000000000000000,0.000000000000000,10000.000000000000000,108,62831.853071795863798,314159265.358979284763336,52.098660634296500,0.165835187368309
110,Itapoa,-12.952339000000000,-38.369608999999997, , , ,0.000000000000000,0, , , ,0.000000000000000,0.000000000000000,10000.000000000000000,109,62831.853071795863798,314159265.358979284763336,36.337988626341300,0.115667410237986
111,Seper,-12.952040999999999,-38.343243999999999, , , ,0.000000000000000,0, , , ,0.000000000000000,0.000000000000000,10000.000000000000000,110,62831.853071795863798,314159265.358979284763336,56.172412377884200,0.178802341906733
112,Corrente,-12.948985000000000,-38.339199999999998, , , ,0.000000000000000,0, , , ,0.000000000000000,0.000000000000000,10000.000000000000000,111,62831.853071795863798,314159265.358979284763336,60.810061994960598,0.193564439124452
113,Stela Maris,-12.947385000000001,-38.337372000000002, , , ,0.000000000000000,0, , , ,0.000000000000000,0.000000000000000,10000.000000000000000,112,62831.853071795863798,314159265.358979284763336,63.072261819389702,0.200765244810842
114,Plator,-12.946393000000000,-38.333083999999999, , , ,0.000000000000000,0, , , ,0.000000000000000,0.000000000000000,10000.000000000000000,113,62831.853071795863798,314159265.358979284763336,67.393431282614102,0.214519954411040
115,Aleluia,-12.926800999999999,-38.312618999999998, , , ,0.000000000000000,0, , , ,0.000000000000000,0.000000000000000,10000.000000000000000,114,62831.853071795863798,314159265.358979284763336,95.721763665247593,0.304691836975967
116,Ipitanga,-12.920477000000000,-38.309717999999997, , , ,0.000000000000000,0, , , ,0.000000000000000,0.000000000000000,10000.000000000000000,115,62831.853071795863798,314159265.358979284763336,101.182682535230995,0.322074481615600
117,Vilas,-12.894546000000000,-38.290790999999999, , , ,0.000000000000000,0, , , ,0.000000000000000,0.000000000000000,10000.000000000000000,116,62831.853071795863798,314159265.358979284763336,131.854597797407990,0.419706220177025
118,Busca Vida,-12.863464000000000,-38.255961999999997, , , ,0.000000000000000,0, , , ,0.000000000000000,0.000000000000000,10000.000000000000000,117,62831.853071795863798,314159265.358979284763336,161.181895761303991,0.513057908946683
119,Itacimirim,-12.639232000000000,-38.048194000000002, , , ,0.000000000000000,0, , , ,0.000000000000000,0.000000000000000,10000.000000000000000,118,62831.853071795863798,314159265.358979284763336,206.182839478401007,0.656300361674207
120,Praia do Forte,-12.583304999999999,-38.005077999999997, , , ,0.000000000000000,0, , , ,0.000000000000000,0.000000000000000,10000.000000000000000,119,62831.853071795863798,314159265.358979284763336,245.931089551626002,0.782822971242338
121,Imbassai,-12.342055000000000,-37.846200000000003, , , ,0.000000000000000,0, , , ,0.000000000000000,0.000000000000000,10000.000000000000000,120,62831.853071795863798,314159265.358979284763336,301.540390439534008,0.959832873606240
122,Costa do Sauipe,-12.022171000000000,-37.645508000000000, , , ,0.000000000000000,0, , , ,0.000000000000000,0.000000000000000,10000.000000000000000,121,62831.853071795863798,314159265.358979284763336,302.531086807189979,0.962986358086552
123,Marlin,-11.939802999999999,-37.602476000000003, , , ,0.000000000000000,0, , , ,0.000000000000000,0.000000000000000,10000.000000000000000,122,62831.853071795863798,314159265.358979284763336,300.657966480292998,0.957024030905921
124,Conde,-11.848141000000000,-37.558169999999997, , , ,0.000000000000000,0, , , ,0.000000000000000,0.000000000000000,10000.000000000000000,123,62831.853071795863798,314159265.358979284763336,299.697999438800025,0.953968360908743
125,Mangue Seco,-11.483613999999999,-37.364454000000002, , , ,0.000000000000000,0, , , ,0.000000000000000,0.000000000000000,10000.000000000000000,124,62831.853071795863798,314159265.358979284763336,184.615607832818000,0.587649731170157
126,Mosqueiro,-11.138116000000000,-37.145493000000002, , , ,0.000000000000000,0, , , ,0.000000000000000,0.000000000000000,10000.000000000000000,125,62831.853071795863798,314159265.358979284763336,7.622456648958110,0.024263033083707
127,Aruana,-11.067069000000000,-37.101289000000001, , , ,0.000000000000000,0, , , ,0.000000000000000,0.000000000000000,10000.000000000000000,126,62831.853071795863798,314159265.358979284763336,0.384076606535296,0.001222553809121
128,Hawaiizinho,-11.043927999999999,-37.082977999999997, , , ,0.000000000000000,0, , , ,0.000000000000000,0.000000000000000,10000.000000000000000,127,62831.853071795863798,314159265.358979284763336,1.524072672883950,0.004851273990415
129,Praia do Meio,-10.999541000000001,-37.050151000000000, , , ,0.000000000000000,0, , , ,0.000000000000000,0.000000000000000,10000.000000000000000,128,62831.853071795863798,314159265.358979284763336,1.731332931635690,0.005511003884152
130,Pirambu,-10.746346000000001,-36.855099000000003, , , ,0.000000000000000,0, , , ,0.000000000000000,0.000000000000000,10000.000000000000000,129,62831.853071795863798,314159265.358979284763336,19.947359267490800,0.063494416581022
131,Ponta do Mangue,-10.639483000000000,-36.678539000000001, , , ,0.000000000000000,0, , , ,0.000000000000000,0.000000000000000,10000.000000000000000,130,62831.853071795863798,314159265.358979284763336,24.455362629613600,0.077843836952156
132,Pontal de Peba,-10.367584000000001,-36.303941000000002, , , ,0.000000000000000,0, , , ,0.000000000000000,0.000000000000000,10000.000000000000000,131,62831.853071795863798,314159265.358979284763336,117.659942667622005,0.374523229589221
133,Mihai,-10.196728000000000,-36.181641999999997, , , ,0.000000000000000,0, , , ,0.000000000000000,0.000000000000000,10000.000000000000000,132,62831.853071795863798,314159265.358979284763336,0.000000000000000,0.000000000000000
134,Pontal do Coruripe,-10.160774999999999,-36.150663999999999, , , ,0.000000000000000,0, , , ,0.000000000000000,0.000000000000000,10000.000000000000000,133,62831.853071795863798,314159265.358979284763336,0.138854382855725,0.000441987228029
135,Forjos,-10.107661999999999,-36.097672000000003, , , ,0.000000000000000,0, , , ,0.000000000000000,0.000000000000000,10000.000000000000000,134,62831.853071795863798,314159265.358979284763336,1.149008867357260,0.003657408817927
136,Poxim,-10.063563000000000,-36.040908999999999, , , ,0.000000000000000,0, , , ,0.000000000000000,0.000000000000000,10000.000000000000000,135,62831.853071795863798,314159265.358979284763336,50.556210286551298,0.160925415421959
137,Jacarecica,-9.916383000000000,-35.945963999999996, , , ,0.000000000000000,0, , , ,0.000000000000000,0.000000000000000,10000.000000000000000,136,62831.853071795863798,314159265.358979284763336,36.245985755010899,0.115374556002968
138,Praia do Meio,-9.824446999999999,-35.877803000000000, , , ,0.000000000000000,0, , , ,0.000000000000000,0.000000000000000,10000.000000000000000,137,62831.853071795863798,314159265.358979284763336,13.965515269431600,0.044453615759108
139,Praia do Pontal,-9.682589999999999,-35.758536999999997, , , ,0.000000000000000,0, , , ,0.000000000000000,0.000000000000000,10000.000000000000000,138,62831.853071795863798,314159265.358979284763336,70.542077708879106,0.224542407266814
140,Salgema,-9.679629000000000,-35.718974000000003, , , ,0.000000000000000,0, , , ,0.000000000000000,0.000000000000000,10000.000000000000000,139,62831.853071795863798,314159265.358979284763336,32.905223913738098,0.104740580788341
141,Pier do Emissario,-9.673301000000000,-35.715234000000002, , , ,0.000000000000000,0, , , ,0.000000000000000,0.000000000000000,10000.000000000000000,140,62831.853071795863798,314159265.358979284763336,29.564110310348600,0.094105485880121
142,Praia do Sobral,-9.666869000000000,-35.710735000000000, , , ,0.000000000000000,0, , , ,0.000000000000000,0.000000000000000,10000.000000000000000,141,62831.853071795863798,314159265.358979284763336,25.497786994938700,0.081161976762975
143,"Pico da Barra, Brazil",-9.665630000000000,-35.697186000000002, , , ,0.000000000000000,0, , , ,0.000000000000000,0.000000000000000,10000.000000000000000,142,62831.853071795863798,314159265.358979284763336,13.200365592972100,0.042018068694834
144,Pedra Virada,-9.585521999999999,-35.660038000000000, , , ,0.000000000000000,0, , , ,0.000000000000000,0.000000000000000,10000.000000000000000,143,62831.853071795863798,314159265.358979284763336,22.043469748300900,0.070166543466775
145,Praia de Jatiuca,-9.531449000000000,-35.590927999999998, , , ,0.000000000000000,0, , , ,0.000000000000000,0.000000000000000,10000.000000000000000,144,62831.853071795863798,314159265.358979284763336,129.797066680283990,0.413156895219911
146,Garca Torta,-9.487114000000000,-35.557476999999999, , , ,0.000000000000000,0, , , ,0.000000000000000,0.000000000000000,10000.000000000000000,145,62831.853071795863798,314159265.358979284763336,163.555203258834013,0.520612381340863
147,Mirante da Sirena,-9.430906000000000,-35.503683000000002, , , ,0.000000000000000,0, , , ,0.000000000000000,0.000000000000000,10000.000000000000000,146,62831.853071795863798,314159265.358979284763336,186.498139395963989,0.593642015246181
148,Japaratinga,-9.261582000000001,-35.353366000000001, , , ,0.000000000000000,0, , , ,0.000000000000000,0.000000000000000,10000.000000000000000,147,62831.853071795863798,314159265.358979284763336,176.904339410744996,0.563104001432530
149,Impossivel,-8.615505000000001,-35.020375000000001, , , ,0.000000000000000,0, , , ,0.000000000000000,0.000000000000000,10000.000000000000000,148,62831.853071795863798,314159265.358979284763336,262.713962026899026,0.836244513516750
150,Serrambi,-8.576358000000001,-35.028714999999998, , , ,0.000000000000000,0, , , ,0.000000000000000,0.000000000000000,10000.000000000000000,149,62831.853071795863798,314159265.358979284763336,185.154316980738997,0.589364495645766
151,Porto de Galinhas,-8.488678000000000,-34.999501000000002, , , ,0.000000000000000,0, , , ,0.000000000000000,0.000000000000000,10000.000000000000000,150,62831.853071795863798,314159265.358979284763336,50.598462382618102,0.161059908020860
152,Cupe,-8.479708000000000,-34.996577000000002, , , ,0.000000000000000,0, , , ,0.000000000000000,0.000000000000000,10000.000000000000000,151,62831.853071795863798,314159265.358979284763336,40.660241737367599,0.129425569196269
153,Gaibu,-8.341567000000000,-34.948825999999997, , , ,0.000000000000000,0, , , ,0.000000000000000,0.000000000000000,10000.000000000000000,152,62831.853071795863798,314159265.358979284763336,12.535098417562200,0.039900457505968
154,Bessa,-7.091138000000000,-34.832765000000002, , , ,0.000000000000000,0, , , ,0.000000000000000,0.000000000000000,10000.000000000000000,153,62831.853071795863798,314159265.358979284763336,7.642622985860890,0.024327224527750
155,Saji,-6.466880000000000,-34.970449000000002, , , ,0.000000000000000,0, , , ,0.000000000000000,0.000000000000000,10000.000000000000000,154,62831.853071795863798,314159265.358979284763336,16.680119996319501,0.053094470975604
156,Farol,-6.408908000000000,-34.979016999999999, , , ,0.000000000000000,0, , , ,0.000000000000000,0.000000000000000,10000.000000000000000,155,62831.853071795863798,314159265.358979284763336,20.388585170517199,0.064898882250759
157,Xilauzinho,-6.395101000000000,-34.983204999999998, , , ,0.000000000000000,0, , , ,0.000000000000000,0.000000000000000,10000.000000000000000,156,62831.853071795863798,314159265.358979284763336,20.388585170517199,0.064898882250759
158,Mar Aberto,-6.379758000000000,-34.989437000000002, , , ,0.000000000000000,0, , , ,0.000000000000000,0.000000000000000,10000.000000000000000,157,62831.853071795863798,314159265.358979284763336,20.388585170517199,0.064898882250759
159,Pontal,-6.368680000000000,-34.993423999999997, , , ,0.000000000000000,0, , , ,0.000000000000000,0.000000000000000,10000.000000000000000,158,62831.853071795863798,314159265.358979284763336,20.388585170517199,0.064898882250759
160,Mar da Frente,-6.365217000000000,-35.006211999999998, , , ,0.000000000000000,0, , , ,0.000000000000000,0.000000000000000,10000.000000000000000,159,62831.853071795863798,314159265.358979284763336,20.538084332648900,0.065374752863586
161,Lajinha,-6.278960000000000,-35.033028000000002, , , ,0.000000000000000,0, , , ,0.000000000000000,0.000000000000000,10000.000000000000000,160,62831.853071795863798,314159265.358979284763336,25.207073588421899,0.080236607249570
162,Afogados,-6.244350000000000,-35.036464000000002, , , ,0.000000000000000,0, , , ,0.000000000000000,0.000000000000000,10000.000000000000000,161,62831.853071795863798,314159265.358979284763336,36.469506538467499,0.116086044754386
163,Sororoca,-6.238074000000000,-35.035608000000003, , , ,0.000000000000000,0, , , ,0.000000000000000,0.000000000000000,10000.000000000000000,162,62831.853071795863798,314159265.358979284763336,38.094646765390401,0.121259026761031
164,Abacateiro,-6.233891000000000,-35.036746999999998, , , ,0.000000000000000,0, , , ,0.000000000000000,0.000000000000000,10000.000000000000000,163,62831.853071795863798,314159265.358979284763336,40.263817591538398,0.128163711948875
165,Tibau do Sul,-6.180279000000000,-35.089708999999999, , , ,0.000000000000000,0, , , ,0.000000000000000,0.000000000000000,10000.000000000000000,164,62831.853071795863798,314159265.358979284763336,105.945984263265998,0.337236541924699
166,Tabatinga,-6.049479000000000,-35.108238000000000, , , ,0.000000000000000,0, , , ,0.000000000000000,0.000000000000000,10000.000000000000000,165,62831.853071795863798,314159265.358979284763336,156.416077075570996,0.497887836912401
167,Xoxoline,-6.005800000000000,-35.105258999999997, , , ,0.000000000000000,0, , , ,0.000000000000000,0.000000000000000,10000.000000000000000,166,62831.853071795863798,314159265.358979284763336,115.875134473277996,0.368842008657206
168,Pirangi Reef,-5.980259000000000,-35.107796000000000, , , ,0.000000000000000,0, , , ,0.000000000000000,0.000000000000000,10000.000000000000000,167,62831.853071795863798,314159265.358979284763336,92.981428220127498,0.295969078339551
169,Cotovelo,-5.949906000000000,-35.151975000000000, , , ,0.000000000000000,0, , , ,0.000000000000000,0.000000000000000,10000.000000000000000,168,62831.853071795863798,314159265.358979284763336,98.289034974646995,0.312863715358945
170,Miami,-5.794834000000000,-35.181663999999998, , , ,0.000000000000000,0, , , ,0.000000000000000,0.000000000000000,10000.000000000000000,169,62831.853071795863798,314159265.358979284763336,9.308598776163240,0.029630190169711
171,Areia Preta,-5.792249000000000,-35.184387000000001, , , ,0.000000000000000,0, , , ,0.000000000000000,0.000000000000000,10000.000000000000000,170,62831.853071795863798,314159265.358979284763336,10.969958299682601,0.034918461778129
172,Praia dos Artistas,-5.781239000000000,-35.192050000000002, , , ,0.000000000000000,0, , , ,0.000000000000000,0.000000000000000,10000.000000000000000,171,62831.853071795863798,314159265.358979284763336,16.621370419514498,0.052907465264543
173,Genipabu,-5.694407000000000,-35.201922000000003, , , ,0.000000000000000,0, , , ,0.000000000000000,0.000000000000000,10000.000000000000000,172,62831.853071795863798,314159265.358979284763336,18.723247758654900,0.059597948630484
174,Touros Area,-5.197434000000000,-35.457929999999998, , , ,0.000000000000000,0, , , ,0.000000000000000,0.000000000000000,10000.000000000000000,173,62831.853071795863798,314159265.358979284763336,140.715401001482007,0.447911032770883
175,Urca da Concei&ccedil;&atilde;o,-5.069617000000000,-35.800230999999997, , , ,0.000000000000000,0, , , ,0.000000000000000,0.000000000000000,10000.000000000000000,174,62831.853071795863798,314159265.358979284763336,0.000000000000000,0.000000000000000
176,Cocoa das Lavadeiras,-5.066515000000000,-35.862005000000003, , , ,0.000000000000000,0, , , ,0.000000000000000,0.000000000000000,10000.000000000000000,175,62831.853071795863798,314159265.358979284763336,0.000000000000000,0.000000000000000
177,Baia das Ratas,-3.813000000000000,-32.393000000000001, , , ,0.000000000000000,0, , , ,0.000000000000000,0.000000000000000,10000.000000000000000,176,62831.853071795863798,314159265.358979284763336,271.658087634171011,0.864714549557393
178,Volta da Jurema,-3.724294000000000,-38.496071999999998, , , ,0.000000000000000,0, , , ,0.000000000000000,0.000000000000000,10000.000000000000000,177,62831.853071795863798,314159265.358979284763336,13.056795948390700,0.041561072322572
179,Portao,-3.719326000000000,-38.510655000000000, , , ,0.000000000000000,0, , , ,0.000000000000000,0.000000000000000,10000.000000000000000,178,62831.853071795863798,314159265.358979284763336,11.677282097335700,0.037169943353389
180,Barra do Ceara,-3.692659000000000,-38.584716000000000, , , ,0.000000000000000,0, , , ,0.000000000000000,0.000000000000000,10000.000000000000000,179,62831.853071795863798,314159265.358979284763336,31.231435556312000,0.099412746972861
181,Praia do Pecem,-3.546170000000000,-38.806919000000001, , , ,0.000000000000000,0, , , ,0.000000000000000,0.000000000000000,10000.000000000000000,180,62831.853071795863798,314159265.358979284763336,40.512462465709099,0.128955173164850
182,Tabinha,-3.500935000000000,-38.911282000000000, , , ,0.000000000000000,0, , , ,0.000000000000000,0.000000000000000,10000.000000000000000,181,62831.853071795863798,314159265.358979284763336,89.128518253080799,0.283704885008681
183,Pedra do Meio,-3.410858000000000,-39.040807000000001, , , ,0.000000000000000,0, , , ,0.000000000000000,0.000000000000000,10000.000000000000000,182,62831.853071795863798,314159265.358979284763336,4.439858179752700,0.014132507518693
184,Havaizinho,-3.403507000000000,-39.022171000000000, , , ,0.000000000000000,0, , , ,0.000000000000000,0.000000000000000,10000.000000000000000,183,62831.853071795863798,314159265.358979284763336,10.063953098033700,0.032034557651941
185,Curral,-3.403353000000000,-39.025868000000003, , , ,0.000000000000000,0, , , ,0.000000000000000,0.000000000000000,10000.000000000000000,184,62831.853071795863798,314159265.358979284763336,8.597064986296370,0.027365307773027
186,Outside,-3.398539000000000,-39.013306000000000, , , ,0.000000000000000,0, , , ,0.000000000000000,0.000000000000000,10000.000000000000000,185,62831.853071795863798,314159265.358979284763336,11.605741407081901,0.036942222263668
187,Atins,-2.555789000000000,-42.727836000000003, , , ,0.000000000000000,0, , , ,0.000000000000000,0.000000000000000,10000.000000000000000,186,62831.853071795863798,314159265.358979284763336,124.083431469521997,0.394969829483578
188,Ponta d'Areia,-2.497384000000000,-44.311779000000001, , , ,0.000000000000000,0, , , ,0.000000000000000,0.000000000000000,10000.000000000000000,187,62831.853071795863798,314159265.358979284763336,24.874266085990200,0.079177248067369
189,S&atilde;o Marcos,-2.485445000000000,-44.297899999999998, , , ,0.000000000000000,0, , , ,0.000000000000000,0.000000000000000,10000.000000000000000,188,62831.853071795863798,314159265.358979284763336,16.147106044700699,0.051397834872863
190,Calhau,-2.480673000000000,-44.249679999999998, , , ,0.000000000000000,0, , , ,0.000000000000000,0.000000000000000,10000.000000000000000,189,62831.853071795863798,314159265.358979284763336,12.238328521758801,0.038955809588409
191,Olho D'Agu,-2.477097000000000,-44.230155000000003, , , ,0.000000000000000,0, , , ,0.000000000000000,0.000000000000000,10000.000000000000000,190,62831.853071795863798,314159265.358979284763336,28.817529691603401,0.091729045962323
192,Ponta do Farol,-2.456442000000000,-44.173347999999997, , , ,0.000000000000000,0, , , ,0.000000000000000,0.000000000000000,10000.000000000000000,191,62831.853071795863798,314159265.358979284763336,130.253647562916996,0.414610237307757
193, ,0.000000000000000,0.000000000000000,Rio Grande Do Sul,Hermenegildo, ,3.000000000000000,3,Right and left,Beach-break,All surfers,-33.668354000000001,-53.262405000000001,10000.000000000000000,192,62831.853071795863798,314159265.358979284763336,0.000000000000000,0.000000000000000
194, ,0.000000000000000,0.000000000000000,Rio Grande Do Sul,Navio, ,3.000000000000000,2,Right and left,Beach-break,All surfers,-32.290560999999997,-52.258674999999997,10000.000000000000000,193,62831.853071795863798,314159265.358979284763336,0.000000000000000,0.000000000000000
195, ,0.000000000000000,0.000000000000000,Rio Grande Do Sul,Tres Marias, ,5.000000000000000,2,Right and left,Sand-bar,Pros or kamikaze only...,-32.192610999999999,-52.085065999999998,10000.000000000000000,194,62831.853071795863798,314159265.358979284763336,0.241763953320447,0.000769558564648
196, ,0.000000000000000,0.000000000000000,Rio Grande Do Sul,Praia do Cassino, ,3.000000000000000,2,Right and left,Sand-bar,All surfers,-32.178336999999999,-52.142142999999997,10000.000000000000000,195,62831.853071795863798,314159265.358979284763336,4.950113674721690,0.015756701203975
197, ,0.000000000000000,0.000000000000000,Rio Grande Do Sul,Sao Jose do Norte, ,3.000000000000000,0,Right and left,Beach-break,All surfers,-32.008076000000003,-52.018889999999999,10000.000000000000000,196,62831.853071795863798,314159265.358979284763336,0.000000000000000,0.000000000000000
198, ,0.000000000000000,0.000000000000000,Rio Grande Do Sul,Quintão, ,3.500000000000000,3,Right and left,Sand-bar,Experienced surfers,-30.410782000000001,-50.292664000000002,10000.000000000000000,197,62831.853071795863798,314159265.358979284763336,0.000000000000000,0.000000000000000
199, ,0.000000000000000,0.000000000000000,Rio Grande Do Sul,Nova Tramandaí, ,3.000000000000000,3,Right and left,Beach-break,All surfers,-30.045256999999999,-50.150033999999998,10000.000000000000000,198,62831.853071795863798,314159265.358979284763336,0.000000000000000,0.000000000000000
200, ,0.000000000000000,0.000000000000000,Rio Grande Do Sul,Oasis Sul, ,3.000000000000000,3,Right and left,Beach-break,All surfers,-30.039822999999998,-50.147266000000002,10000.000000000000000,199,62831.853071795863798,314159265.358979284763336,0.000000000000000,0.000000000000000
201, ,0.000000000000000,0.000000000000000,Rio Grande Do Sul,Tramandai - Malvina, ,3.500000000000000,3,Right and left,Beach-break,All surfers,-30.005490000000002,-50.129156000000002,10000.000000000000000,200,62831.853071795863798,314159265.358979284763336,0.000000000000000,0.000000000000000
202, ,0.000000000000000,0.000000000000000,Rio Grande Do Sul,Tramandai,"Tramandai Pier, Northside",3.000000000000000,3,Right and left,Beach-break,All surfers,-29.993077000000000,-50.125508000000004,10000.000000000000000,201,62831.853071795863798,314159265.358979284763336,0.000000000000000,0.000000000000000
203, ,0.000000000000000,0.000000000000000,Rio Grande Do Sul,Rainha do Mar, ,3.500000000000000,5,Right and left,Beach-break,All surfers,-29.859477999999999,-50.064568999999999,10000.000000000000000,202,62831.853071795863798,314159265.358979284763336,0.000000000000000,0.000000000000000
204, ,0.000000000000000,0.000000000000000,Rio Grande Do Sul,Xangri-lá, ,3.000000000000000,3,Right and left,Beach-break,All surfers,-29.785982000000001,-50.024636000000001,10000.000000000000000,203,62831.853071795863798,314159265.358979284763336,0.000000000000000,0.000000000000000
205, ,0.000000000000000,0.000000000000000,Rio Grande Do Sul,Atlântida - Pier, ,3.000000000000000,3,Right and left,Sand-bar,All surfers,-29.784716000000000,-50.022554000000000,10000.000000000000000,204,62831.853071795863798,314159265.358979284763336,0.000000000000000,0.000000000000000
206, ,0.000000000000000,0.000000000000000,Rio Grande Do Sul,Capao da Canoa, ,3.000000000000000,3,Right and left,Sand-bar,All surfers,-29.758676999999999,-50.010967000000001,10000.000000000000000,205,62831.853071795863798,314159265.358979284763336,0.000000000000000,0.000000000000000
207, ,0.000000000000000,0.000000000000000,Rio Grande Do Sul,Capao Novo, ,3.000000000000000,3,Right and left,Beach-break,All surfers,-29.686972000000001,-49.972558999999997,10000.000000000000000,206,62831.853071795863798,314159265.358979284763336,0.000000000000000,0.000000000000000
208, ,0.000000000000000,0.000000000000000,Rio Grande Do Sul,Curumim, ,3.000000000000000,4,Right and left,Beach-break,Experienced surfers,-29.625605000000000,-49.935744999999997,10000.000000000000000,207,62831.853071795863798,314159265.358979284763336,0.000000000000000,0.000000000000000
209, ,0.000000000000000,0.000000000000000,Rio Grande Do Sul,Itapeva, ,3.000000000000000,3,Right and left,Beach-break,All surfers,-29.372975000000000,-49.784109999999998,10000.000000000000000,208,62831.853071795863798,314159265.358979284763336,11.329743105671000,0.036063692384577
210, ,0.000000000000000,0.000000000000000,Rio Grande Do Sul,Guarita, ,3.000000000000000,2,Right and left,Beach-break,All surfers,-29.357804999999999,-49.733997000000002,10000.000000000000000,209,62831.853071795863798,314159265.358979284763336,11.433358869327501,0.036393511603941
211, ,0.000000000000000,0.000000000000000,Rio Grande Do Sul,Cal, ,3.500000000000000,3,Right and left,Beach-break,All surfers,-29.349421000000000,-49.729849999999999,10000.000000000000000,210,62831.853071795863798,314159265.358979284763336,11.433358869327501,0.036393511603941
212, ,0.000000000000000,0.000000000000000,Rio Grande Do Sul,Ilha dos Lobos, ,5.000000000000000,2,Left,Reef-rocky,Pros or kamikaze only...,-29.346876999999999,-49.704411999999998,10000.000000000000000,211,62831.853071795863798,314159265.358979284763336,11.433358869327501,0.036393511603941
213, ,0.000000000000000,0.000000000000000,Rio Grande Do Sul,Prainha, ,3.500000000000000,3,Right and left,Beach-break,Experienced surfers,-29.342434999999998,-49.724497000000000,10000.000000000000000,212,62831.853071795863798,314159265.358979284763336,11.433358869327501,0.036393511603941
214, ,0.000000000000000,0.000000000000000,Rio Grande Do Sul,Saraiva, ,3.500000000000000,3,Right and left,Beach-break,Experienced surfers,-29.340395999999998,-49.723241000000002,10000.000000000000000,213,62831.853071795863798,314159265.358979284763336,11.433358869327501,0.036393511603941
215, ,0.000000000000000,0.000000000000000,Rio Grande Do Sul,Molhes, ,3.500000000000000,3,Right and left,Beach-break,All surfers,-29.327311000000002,-49.712007999999997,10000.000000000000000,214,62831.853071795863798,314159265.358979284763336,11.433358869327501,0.036393511603941
216, ,0.000000000000000,0.000000000000000,Rio Grande Do Sul,Passo de Torres, ,3.500000000000000,2,Right and left,Rivermouth,Experienced surfers,-29.324159000000002,-49.712415999999997,10000.000000000000000,215,62831.853071795863798,314159265.358979284763336,11.405613530011300,0.036305195445942
217, ,0.000000000000000,0.000000000000000,Santa Catarina South,Gaivota, ,3.000000000000000,2,Right and left,Beach-break,Experienced surfers,-29.164828000000000,-49.582157000000002,10000.000000000000000,216,62831.853071795863798,314159265.358979284763336,0.000000000000000,0.000000000000000
218, ,0.000000000000000,0.000000000000000,Santa Catarina South,Arroio do Silva, ,3.500000000000000,2,Right and left,Beach-break,Experienced surfers,-28.943866000000000,-49.385604999999998,10000.000000000000000,217,62831.853071795863798,314159265.358979284763336,0.140023316490973,0.000445708059353
219, ,0.000000000000000,0.000000000000000,Santa Catarina South,Morro dos Conventos, ,3.500000000000000,3,Right and left,Beach-break,All surfers,-28.937256000000001,-49.329642999999997,10000.000000000000000,218,62831.853071795863798,314159265.358979284763336,0.000000000000000,0.000000000000000
220, ,0.000000000000000,0.000000000000000,Santa Catarina South,Rincão, ,3.500000000000000,4,Right and left,Beach-break,Experienced surfers,-28.833846999999999,-49.216003000000001,10000.000000000000000,219,62831.853071795863798,314159265.358979284763336,56.727693767779797,0.180569857466909
221, ,0.000000000000000,0.000000000000000,Santa Catarina South,Jaguaruna, ,3.500000000000000,3,Right and left,Beach-break,All surfers,-28.635157000000000,-48.948211999999998,10000.000000000000000,220,62831.853071795863798,314159265.358979284763336,150.347230247596997,0.478570097481608
222, ,0.000000000000000,0.000000000000000,Santa Catarina South,Camacho, ,3.000000000000000,2, ,Beach-break,All surfers,-28.615946000000001,-48.859506000000003,10000.000000000000000,221,62831.853071795863798,314159265.358979284763336,216.805139803911004,0.690112193750438
223, ,0.000000000000000,0.000000000000000,Santa Catarina South,Cigana, ,3.000000000000000,3,Right and left,Beach-break,Experienced surfers,-28.613534999999999,-48.845387000000002,10000.000000000000000,222,62831.853071795863798,314159265.358979284763336,218.375056181794008,0.695109392786058
224, ,0.000000000000000,0.000000000000000,Santa Catarina South,Cardozo, ,3.500000000000000,4,Right and left,Beach-break,All surfers,-28.607516000000000,-48.822994999999999,10000.000000000000000,223,62831.853071795863798,314159265.358979284763336,212.759303376530994,0.677233896423262
225, ,0.000000000000000,0.000000000000000,Santa Catarina South,Cemiterio, ,5.000000000000000,1,Right,Point-break,Pros or kamikaze only...,-28.604341999999999,-48.811998000000003,10000.000000000000000,224,62831.853071795863798,314159265.358979284763336,205.428404558949012,0.653898920740768
226, ,0.000000000000000,0.000000000000000,Santa Catarina South,Prainha do Farol, ,3.000000000000000,1,Right,Beach-break,All surfers,-28.600442000000001,-48.816654999999997,10000.000000000000000,225,62831.853071795863798,314159265.358979284763336,215.097773936936989,0.684677479402532
227, ,0.000000000000000,0.000000000000000,Santa Catarina South,Ipoa, ,3.000000000000000,4,Right and left,Beach-break,All surfers,-28.536688999999999,-48.765521000000000,10000.000000000000000,226,62831.853071795863798,314159265.358979284763336,173.147841851613009,0.551146698327560
228, ,0.000000000000000,0.000000000000000,Santa Catarina South,Teresa, ,3.000000000000000,3,Right and left,Beach-break,All surfers,-28.524982000000001,-48.762453000000001,10000.000000000000000,227,62831.853071795863798,314159265.358979284763336,168.442736165502993,0.536169881773276
229, ,0.000000000000000,0.000000000000000,Santa Catarina South,Praia de Cima, ,3.500000000000000,2,Right and left,Beach-break,All surfers,-28.497350000000001,-48.748752000000003,10000.000000000000000,228,62831.853071795863798,314159265.358979284763336,156.752851823826006,0.498959824230267
230, ,0.000000000000000,0.000000000000000,Santa Catarina South,Laguna, ,3.500000000000000,3,Right and left,Beach-break,All surfers,-28.473973000000001,-48.762645999999997,10000.000000000000000,229,62831.853071795863798,314159265.358979284763336,152.050847961945010,0.483992881089156
231, ,0.000000000000000,0.000000000000000,Santa Catarina South,Cavalinho, ,3.500000000000000,3,Right,Point-break,Experienced surfers,-28.419032000000001,-48.744278000000001,10000.000000000000000,230,62831.853071795863798,314159265.358979284763336,141.166754809581988,0.449347736563732
232, ,0.000000000000000,0.000000000000000,Santa Catarina South,Itapirubá, ,3.500000000000000,4,Right and left,Beach-break,All surfers,-28.342309000000000,-48.707799999999999,10000.000000000000000,231,62831.853071795863798,314159265.358979284763336,162.007278243098995,0.515685182985066
233, ,0.000000000000000,0.000000000000000,Santa Catarina South,Itapirubá Norte, ,3.500000000000000,3,Right and left,Beach-break,All surfers,-28.336776000000000,-48.704709999999999,10000.000000000000000,232,62831.853071795863798,314159265.358979284763336,161.713490835574987,0.514750028622554
234, ,0.000000000000000,0.000000000000000,Santa Catarina South,Castelinho, ,4.000000000000000,4,Right and left,Beach-break,Experienced surfers,-28.256232000000001,-48.672694999999997,10000.000000000000000,233,62831.853071795863798,314159265.358979284763336,142.497255178334996,0.453582850773184
235, ,0.000000000000000,0.000000000000000,Santa Catarina South,Praia da Vila, ,4.000000000000000,4,Right and left,Sand-bar,Experienced surfers,-28.241149000000000,-48.653877000000001,10000.000000000000000,234,62831.853071795863798,314159265.358979284763336,157.937501276597999,0.502730680555063
236, ,0.000000000000000,0.000000000000000,Santa Catarina South,Ribanceira, ,3.000000000000000,2,Right and left,Sand-bar,All surfers,-28.191742000000001,-48.661344000000000,10000.000000000000000,235,62831.853071795863798,314159265.358979284763336,123.475977573250006,0.393036243677735
237, ,0.000000000000000,0.000000000000000,Santa Catarina South,Ibiraquera, ,4.000000000000000,4,Right and left,Point-break,Experienced surfers,-28.153732000000002,-48.645895000000003,10000.000000000000000,236,62831.853071795863798,314159265.358979284763336,144.801571649376996,0.460917717909473
238, ,0.000000000000000,0.000000000000000,Santa Catarina South,Rosa Sul, ,3.500000000000000,4,Right and left,Beach-break,All surfers,-28.135401999999999,-48.642691999999997,10000.000000000000000,237,62831.853071795863798,314159265.358979284763336,147.709944833652997,0.470175357282141
239, ,0.000000000000000,0.000000000000000,Santa Catarina South,Rosa Norte, ,3.500000000000000,2,Right and left,Beach-break,All surfers,-28.124375000000001,-48.637675999999999,10000.000000000000000,238,62831.853071795863798,314159265.358979284763336,150.496658122322003,0.479045741179572
240, ,0.000000000000000,0.000000000000000,Santa Catarina South,Vermelha, ,3.500000000000000,2,Left,Beach-break,Experienced surfers,-28.114457999999999,-48.635573000000001,10000.000000000000000,239,62831.853071795863798,314159265.358979284763336,147.823837885549011,0.470537890126003
241, ,0.000000000000000,0.000000000000000,Santa Catarina South,Ouvidor, ,2.000000000000000,2,Right and left,Beach-break,Beginners wave,-28.105449000000000,-48.635272999999998,10000.000000000000000,240,62831.853071795863798,314159265.358979284763336,141.453501168877011,0.450260478573640
242, ,0.000000000000000,0.000000000000000,Santa Catarina South,Barrinha, ,3.500000000000000,3,Right and left,Beach-break, ,-28.085384000000001,-48.630896000000000,10000.000000000000000,241,62831.853071795863798,314159265.358979284763336,138.574933681850013,0.441097713681961
243, ,0.000000000000000,0.000000000000000,Santa Catarina South,Ferrugem, ,3.500000000000000,4,Right and left,Sand-bar,All surfers,-28.077736000000002,-48.626604000000000,10000.000000000000000,242,62831.853071795863798,314159265.358979284763336,144.639801397750006,0.460402787205639
244, ,0.000000000000000,0.000000000000000,Santa Catarina South,Praia do Silveira,Silveira Garopaba,4.000000000000000,4,Right,Point-break,Pros or kamikaze only...,-28.039069000000001,-48.606862999999997,10000.000000000000000,243,62831.853071795863798,314159265.358979284763336,167.116053141441000,0.531946918549365
245, ,0.000000000000000,0.000000000000000,Santa Catarina South,Garopaba Centro, ,3.000000000000000,2,Right and left,Beach-break,All surfers,-28.021577000000001,-48.619447999999998,10000.000000000000000,244,62831.853071795863798,314159265.358979284763336,145.966269675743007,0.464625066871583
246, ,0.000000000000000,0.000000000000000,Santa Catarina South,Siriu, ,3.500000000000000,3,Right and left,Beach-break,All surfers,-27.976248999999999,-48.627999000000003,10000.000000000000000,245,62831.853071795863798,314159265.358979284763336,139.228446629980994,0.443177910003353
247, ,0.000000000000000,0.000000000000000,Santa Catarina South,Gamboa, ,3.500000000000000,1,Right and left,Beach-break,All surfers,-27.958926999999999,-48.624662000000001,10000.000000000000000,246,62831.853071795863798,314159265.358979284763336,150.830690353519003,0.480108998794513
248, ,0.000000000000000,0.000000000000000,Santa Catarina South,Guarda do embau,Guarda do Embauacute,4.000000000000000,3,Left,Rivermouth,Experienced surfers,-27.905540999999999,-48.586779000000000,10000.000000000000000,247,62831.853071795863798,314159265.358979284763336,223.850139045276990,0.712537122817279
249, ,0.000000000000000,0.000000000000000,Santa Catarina South,Costão da Pinheira,Ponta da Pinheira,3.500000000000000,1,Right,Point-break,Experienced surfers,-27.881077000000001,-48.586542999999999,10000.000000000000000,248,62831.853071795863798,314159265.358979284763336,212.600709513326990,0.676729076477803
250, ,0.000000000000000,0.000000000000000,Florianopolis,Naufragados, ,5.000000000000000,3,Right,Beach-break,Pros or kamikaze only...,-27.834740000000000,-48.566747999999997,10000.000000000000000,249,62831.853071795863798,314159265.358979284763336,188.258029948654013,0.599243920861408
251, ,0.000000000000000,0.000000000000000,Florianopolis,Solidao - Caladinho, ,3.500000000000000,3,Right,Point-break,Experienced surfers,-27.793519000000000,-48.533456000000001,10000.000000000000000,250,62831.853071795863798,314159265.358979284763336,155.437254884847988,0.494772149111169
252, ,0.000000000000000,0.000000000000000,Florianopolis,Praia dos Açores, ,3.000000000000000,3,Right and left,Beach-break,All surfers,-27.784758000000000,-48.525989000000003,10000.000000000000000,251,62831.853071795863798,314159265.358979284763336,140.302063298679002,0.446595337999536
253, ,0.000000000000000,0.000000000000000,Florianopolis,Lagoinha do Leste, ,3.500000000000000,4,Right and left,Beach-break,All surfers,-27.773575999999998,-48.486528000000000,10000.000000000000000,252,62831.853071795863798,314159265.358979284763336,124.238187653292997,0.395462433716002
254, ,0.000000000000000,0.000000000000000,Florianopolis,Matadeiro, ,3.500000000000000,4,Right and left,Beach-break,Experienced surfers,-27.755140000000001,-48.498522999999999,10000.000000000000000,253,62831.853071795863798,314159265.358979284763336,99.219722997499005,0.315826187345212
255, ,0.000000000000000,0.000000000000000,Florianopolis,Armação, ,3.000000000000000,2,Right and left,Beach-break,All surfers,-27.741619000000000,-48.508114999999997,10000.000000000000000,254,62831.853071795863798,314159265.358979284763336,84.280888530707799,0.268274400356784
256, ,0.000000000000000,0.000000000000000,Florianopolis,Caldeirao, ,3.500000000000000,3,Left,Beach-break,Experienced surfers,-27.723690000000001,-48.504595999999999,10000.000000000000000,255,62831.853071795863798,314159265.358979284763336,71.317991667183506,0.227012218104377
257, ,0.000000000000000,0.000000000000000,Florianopolis,Morro das Pedras, ,3.000000000000000,4,Right and left,Sand-bar,Experienced surfers,-27.715522000000000,-48.502257000000000,10000.000000000000000,256,62831.853071795863798,314159265.358979284763336,68.665116427023605,0.218567853946826
258, ,0.000000000000000,0.000000000000000,Florianopolis,Campeche Rights, ,4.000000000000000,2,Right,Sand-bar,Experienced surfers,-27.693864000000001,-48.482686999999999,10000.000000000000000,257,62831.853071795863798,314159265.358979284763336,60.849062374810501,0.193688581189163
259, ,0.000000000000000,0.000000000000000,Florianopolis,Riozinho, ,5.000000000000000,3,Right and left,Beach-break,Experienced surfers,-27.685523000000000,-48.479598000000003,10000.000000000000000,258,62831.853071795863798,314159265.358979284763336,57.927089960106898,0.184387654121598
260, ,0.000000000000000,0.000000000000000,Florianopolis,Joaquina, ,4.000000000000000,4,Left,Sand-bar,Experienced surfers,-27.629588999999999,-48.448768000000001,10000.000000000000000,259,62831.853071795863798,314159265.358979284763336,50.541426983124701,0.160878358705648
261, ,0.000000000000000,0.000000000000000,Florianopolis,Praia Mole, ,3.500000000000000,3,Right and left,Sand-bar,All surfers,-27.602475999999999,-48.432583999999999,10000.000000000000000,260,62831.853071795863798,314159265.358979284763336,54.640487213093003,0.173926072658265
262, ,0.000000000000000,0.000000000000000,Florianopolis,Galheta, ,3.500000000000000,4,Right and left,Beach-break,All surfers,-27.593482000000002,-48.425224000000000,10000.000000000000000,261,62831.853071795863798,314159265.358979284763336,53.319869845948602,0.169722417019985
263, ,0.000000000000000,0.000000000000000,Florianopolis,Barra da Lagoa, ,3.000000000000000,3,Right and left,Beach-break,Beginners wave,-27.572818000000002,-48.424376000000002,10000.000000000000000,262,62831.853071795863798,314159265.358979284763336,59.296740433275403,0.188747386983857
264, ,0.000000000000000,0.000000000000000,Florianopolis,Mocambique, ,3.500000000000000,4,Right and left,Beach-break,All surfers,-27.525323000000000,-48.410567999999998,10000.000000000000000,263,62831.853071795863798,314159265.358979284763336,60.133512328989902,0.191410914652724
265, ,0.000000000000000,0.000000000000000,Florianopolis,Ponta das Aranhas, ,3.500000000000000,4,Right and left,Beach-break,All surfers,-27.482099999999999,-48.380892000000003,10000.000000000000000,264,62831.853071795863798,314159265.358979284763336,33.547580362945098,0.106785264870706
266, ,0.000000000000000,0.000000000000000,Florianopolis,Santinho, ,3.500000000000000,4,Right and left,Beach-break,Experienced surfers,-27.457940000000001,-48.372630999999998,10000.000000000000000,265,62831.853071795863798,314159265.358979284763336,26.067313807481401,0.082974836911766
267, ,0.000000000000000,0.000000000000000,Florianopolis,Canasvieiras, ,3.500000000000000,1,Right,Sand-bar,All surfers,-27.430966000000002,-48.479661999999998,10000.000000000000000,266,62831.853071795863798,314159265.358979284763336,45.291429737508402,0.144167098448475
268, ,0.000000000000000,0.000000000000000,Florianopolis,Praia do Forte, ,3.500000000000000,1,Right,Point-break,All surfers,-27.430747000000000,-48.519658999999997,10000.000000000000000,267,62831.853071795863798,314159265.358979284763336,57.831878043616904,0.184084585178586
269, ,0.000000000000000,0.000000000000000,Florianopolis,Ingleses, ,3.000000000000000,2,Right and left,Beach-break,All surfers,-27.429832999999999,-48.390569999999997,10000.000000000000000,268,62831.853071795863798,314159265.358979284763336,22.153260245822501,0.070516017474477
270, ,0.000000000000000,0.000000000000000,Florianopolis,Praia Brava, ,3.500000000000000,3,Right and left,Beach-break,Experienced surfers,-27.400804000000001,-48.413401000000000,10000.000000000000000,269,62831.853071795863798,314159265.358979284763336,15.877205895174900,0.050538716014097
271, ,0.000000000000000,0.000000000000000,Florianopolis,Lambe lambe, ,4.000000000000000,1,Right,Point-break,Experienced surfers,-27.387601000000000,-48.433185000000002,10000.000000000000000,270,62831.853071795863798,314159265.358979284763336,10.948273654983799,0.034849437410269
272, ,0.000000000000000,0.000000000000000,Florianopolis,Ponta Do Rapa, ,4.000000000000000,1,Right,Reef-rocky,Pros or kamikaze only...,-27.380837000000000,-48.420524999999998,10000.000000000000000,271,62831.853071795863798,314159265.358979284763336,9.160847900603470,0.029159884525881
273, ,0.000000000000000,0.000000000000000,Santa Catarina North,Tingua, ,3.500000000000000,1,Left,Beach-break,Experienced surfers,-27.368165999999999,-48.532501000000003,10000.000000000000000,272,62831.853071795863798,314159265.358979284763336,37.896270424952100,0.120627575257567
274, ,0.000000000000000,0.000000000000000,Santa Catarina North,Palmas, ,3.500000000000000,2,Right and left,Beach-break,Experienced surfers,-27.321984000000000,-48.535451999999999,10000.000000000000000,273,62831.853071795863798,314159265.358979284763336,13.440360053494800,0.042781994788971
275, ,0.000000000000000,0.000000000000000,Santa Catarina North,Mariscal, ,3.500000000000000,3,Right and left,Beach-break,All surfers,-27.166504000000000,-48.494833000000000,10000.000000000000000,274,62831.853071795863798,314159265.358979284763336,9.482708654056671,0.030184399123868
276, ,0.000000000000000,0.000000000000000,Santa Catarina North,Quatro Ilhas, ,3.500000000000000,3,Right,Point-break,Experienced surfers,-27.156195000000000,-48.482923999999997,10000.000000000000000,275,62831.853071795863798,314159265.358979284763336,14.241433508901601,0.045331890793125
277, ,0.000000000000000,0.000000000000000,Santa Catarina North,Bombinhas, ,2.000000000000000,2,Right and left,Beach-break,Beginners wave,-27.148367000000000,-48.489531999999997,10000.000000000000000,276,62831.853071795863798,314159265.358979284763336,7.994423829372970,0.025447041392327
278, ,0.000000000000000,0.000000000000000,Santa Catarina North,Bombas, ,3.000000000000000,2,Right and left,Beach-break,All surfers,-27.140118000000001,-48.506784000000003,10000.000000000000000,277,62831.853071795863798,314159265.358979284763336,0.625514503472040,0.001991074504065
279, ,0.000000000000000,0.000000000000000,Santa Catarina North,Meia Praia, ,3.000000000000000,3,Right and left,Sand-bar,All surfers,-27.104825000000002,-48.609009000000000,10000.000000000000000,278,62831.853071795863798,314159265.358979284763336,26.099900517358400,0.083078563630886
280, ,0.000000000000000,0.000000000000000,Santa Catarina North,Itapema, ,3.000000000000000,3,Right and left,Beach-break,All surfers,-27.095541000000001,-48.609738000000000,10000.000000000000000,279,62831.853071795863798,314159265.358979284763336,26.022200400055500,0.082831236475935
281, ,0.000000000000000,0.000000000000000,Santa Catarina North,Ponta do Cabeço, ,4.000000000000000,2,Left,Reef-rocky,Experienced surfers,-27.093436000000001,-48.601959999999998,10000.000000000000000,280,62831.853071795863798,314159265.358979284763336,25.012147101016900,0.079616136969369
282, ,0.000000000000000,0.000000000000000,Santa Catarina North,Mocó, ,4.000000000000000,2,Left,Reef-rocky,Experienced surfers,-27.080182000000001,-48.588451999999997,10000.000000000000000,281,62831.853071795863798,314159265.358979284763336,21.327463000396399,0.067887423202452
283, ,0.000000000000000,0.000000000000000,Santa Catarina North,Estaleirinho, ,3.000000000000000,4,Right and left,Beach-break,Pros or kamikaze only...,-27.049112000000001,-48.586779000000000,10000.000000000000000,282,62831.853071795863798,314159265.358979284763336,13.366680002035800,0.042547463901032
284, ,0.000000000000000,0.000000000000000,Santa Catarina North,Estaleiro (reef), ,3.500000000000000,2,Left,Reef-rocky,Experienced surfers,-27.025050000000000,-48.574064999999997,10000.000000000000000,283,62831.853071795863798,314159265.358979284763336,5.921912774054360,0.018850033810996
285, ,0.000000000000000,0.000000000000000,Santa Catarina North,Balneário Camboriú,Camboriu,3.000000000000000,3,Right and left,Beach-break,All surfers,-26.987711999999998,-48.629950999999998,10000.000000000000000,284,62831.853071795863798,314159265.358979284763336,2.912335230827660,0.009270250958538
286, ,0.000000000000000,0.000000000000000,Santa Catarina North,Parcel, ,4.000000000000000,1,Right and left,Reef-rocky,Pros or kamikaze only...,-26.976469000000002,-48.623170999999999,10000.000000000000000,285,62831.853071795863798,314159265.358979284763336,1.708733809275520,0.005439068643489
287, ,0.000000000000000,0.000000000000000,Santa Catarina North,Praia dos Amores, ,3.000000000000000,2,Right and left,Beach-break,Experienced surfers,-26.957191000000002,-48.629221999999999,10000.000000000000000,286,62831.853071795863798,314159265.358979284763336,0.677076505053466,0.002155201452613
288, ,0.000000000000000,0.000000000000000,Santa Catarina North,Praia Brava, ,3.000000000000000,3,Right and left,Beach-break,Experienced surfers,-26.941659999999999,-48.628234999999997,10000.000000000000000,287,62831.853071795863798,314159265.358979284763336,0.677076505053466,0.002155201452613
289, ,0.000000000000000,0.000000000000000,Santa Catarina North,Morcego, ,3.500000000000000,0,Left,Point-break,Pros or kamikaze only...,-26.931052000000001,-48.625214999999997,10000.000000000000000,288,62831.853071795863798,314159265.358979284763336,0.483747467344020,0.001539816012720
290, ,0.000000000000000,0.000000000000000,Santa Catarina North,Atalaia, ,3.500000000000000,2,Left,breakwater/jetty,All surfers,-26.915163000000000,-48.639361000000001,10000.000000000000000,289,62831.853071795863798,314159265.358979284763336,0.535561295627076,0.001704744550555
291, ,0.000000000000000,0.000000000000000,Santa Catarina North,Pracinha, ,3.500000000000000,4,Right and left,Beach-break,All surfers,-26.901883999999999,-48.641613999999997,10000.000000000000000,290,62831.853071795863798,314159265.358979284763336,0.535561295627076,0.001704744550555
292, ,0.000000000000000,0.000000000000000,Santa Catarina North,Navegantes, ,3.500000000000000,3,Right and left,Beach-break,All surfers,-26.897577999999999,-48.638705999999999,10000.000000000000000,291,62831.853071795863798,314159265.358979284763336,0.535561295627076,0.001704744550555
293, ,0.000000000000000,0.000000000000000,Santa Catarina North,Garrincha, ,3.000000000000000,2,Right and left,Sand-bar,Experienced surfers,-26.858702999999998,-48.634619000000001,10000.000000000000000,292,62831.853071795863798,314159265.358979284763336,0.377153334348940,0.001200516349304
294, ,0.000000000000000,0.000000000000000,Santa Catarina North,Gravatá (1 e 2), ,3.000000000000000,3,Right and left,Beach-break,All surfers,-26.831883000000001,-48.621969000000000,10000.000000000000000,293,62831.853071795863798,314159265.358979284763336,0.135107786955729,0.000430061442884
295, ,0.000000000000000,0.000000000000000,Santa Catarina North,Gravatá, ,3.000000000000000,3,Right and left,Beach-break,All surfers,-26.831730000000000,-48.623427999999997,10000.000000000000000,294,62831.853071795863798,314159265.358979284763336,0.135107786955729,0.000430061442884
296, ,0.000000000000000,0.000000000000000,Santa Catarina North,Quilombo, ,3.500000000000000,2,Left,Beach-break,All surfers,-26.766992999999999,-48.639414000000002,10000.000000000000000,295,62831.853071795863798,314159265.358979284763336,0.828859203916991,0.002638340788612
297, ,0.000000000000000,0.000000000000000,Santa Catarina North,Quilombo (reef), ,3.500000000000000,2,Right,Point-break,All surfers,-26.765743000000001,-48.640143999999999,10000.000000000000000,296,62831.853071795863798,314159265.358979284763336,0.776800706765632,0.002472633445581
298, ,0.000000000000000,0.000000000000000,Santa Catarina North,molhe de Piçarras, ,3.000000000000000,1,Right,Point-break,All surfers,-26.757026000000000,-48.673434999999998,10000.000000000000000,297,62831.853071795863798,314159265.358979284763336,0.746886764925068,0.002377414411355
299, ,0.000000000000000,0.000000000000000,Santa Catarina North,Laje do Jacques, ,4.000000000000000,2,Right and left,Reef-rocky,Experienced surfers,-26.726915999999999,-48.673060000000000,10000.000000000000000,298,62831.853071795863798,314159265.358979284763336,0.746886764925068,0.002377414411355
300, ,0.000000000000000,0.000000000000000,Santa Catarina North,Syphodys, ,3.000000000000000,2,Right and left,Beach-break,Experienced surfers,-26.701371000000002,-48.680247999999999,10000.000000000000000,299,62831.853071795863798,314159265.358979284763336,0.814141542028717,0.002591493015807
301, ,0.000000000000000,0.000000000000000,Santa Catarina North,ilha do grants, ,3.500000000000000,1,Left,Reef-rocky,Pros or kamikaze only...,-26.696031999999999,-48.674990999999999,10000.000000000000000,300,62831.853071795863798,314159265.358979284763336,1.095305749100100,0.003486466483325
302, ,0.000000000000000,0.000000000000000,Santa Catarina North,barra de Itajuba, ,3.000000000000000,1,Right,Point-break,All surfers,-26.691344999999998,-48.684164000000003,10000.000000000000000,301,62831.853071795863798,314159265.358979284763336,1.789367632017910,0.005695734072886
303, ,0.000000000000000,0.000000000000000,Santa Catarina North,Praia do Sol, ,2.000000000000000,3,Right and left,Point-break,All surfers,-26.679962000000000,-48.688166000000002,10000.000000000000000,302,62831.853071795863798,314159265.358979284763336,1.946647147311300,0.006196370319007
304, ,0.000000000000000,0.000000000000000,Santa Catarina North,Praia do Tabuleiro, ,3.000000000000000,2,Right and left,Beach-break,Beginners wave,-26.643014000000001,-48.682051000000001,10000.000000000000000,303,62831.853071795863798,314159265.358979284763336,1.199760382386230,0.003818955907652
305, ,0.000000000000000,0.000000000000000,Santa Catarina North,Canoas, ,2.000000000000000,3,Right and left,Beach-break,Beginners wave,-26.639403000000001,-48.682501000000002,10000.000000000000000,304,62831.853071795863798,314159265.358979284763336,1.199760382386230,0.003818955907652
306, ,0.000000000000000,0.000000000000000,Santa Catarina North,Barrinha, ,3.500000000000000,3,Right and left,Beach-break,All surfers,-26.623905000000001,-48.679991000000001,10000.000000000000000,305,62831.853071795863798,314159265.358979284763336,1.199760382386230,0.003818955907652
307, ,0.000000000000000,0.000000000000000,Santa Catarina North,Foz do Itapocu, ,3.000000000000000,3,Left,breakwater/jetty,All surfers,-26.580708000000001,-48.663769000000002,10000.000000000000000,306,62831.853071795863798,314159265.358979284763336,1.199760382386230,0.003818955907652
308, ,0.000000000000000,0.000000000000000,Santa Catarina North,Praia do Bispo, ,3.000000000000000,4,Right and left,Beach-break,All surfers,-26.469248000000000,-48.607056000000000,10000.000000000000000,307,62831.853071795863798,314159265.358979284763336,0.437106182291677,0.001391352191355
309, ,0.000000000000000,0.000000000000000,Santa Catarina North,Picama, ,3.000000000000000,3,Right and left,Sand-bar,Experienced surfers,-26.458086999999999,-48.596874000000000,10000.000000000000000,308,62831.853071795863798,314159265.358979284763336,1.053351812103910,0.003352922954223
310, ,0.000000000000000,0.000000000000000,Santa Catarina North,"Praia Grande, São Francisco do Sul",Praia Grande,3.000000000000000,3,Right and left,Beach-break,All surfers,-26.235880000000002,-48.502600000000001,10000.000000000000000,309,62831.853071795863798,314159265.358979284763336,32.125605330136501,0.102258977762211
311, ,0.000000000000000,0.000000000000000,Santa Catarina North,Praia da Saudade, ,3.500000000000000,4,Right and left,Beach-break,All surfers,-26.230606000000002,-48.498888000000001,10000.000000000000000,310,62831.853071795863798,314159265.358979284763336,28.920827675283100,0.092057853656604
312, ,0.000000000000000,0.000000000000000,Santa Catarina North,Sao Francisco do Sul, ,3.000000000000000,1,Right,Sand-bar,Beginners wave,-26.219557999999999,-48.502107000000002,10000.000000000000000,311,62831.853071795863798,314159265.358979284763336,25.549690703229000,0.081327191397759
313, ,0.000000000000000,0.000000000000000,Santa Catarina North,Píer da Petrobras, ,3.500000000000000,2,Right,Point-break,All surfers,-26.217386999999999,-48.500518999999997,10000.000000000000000,312,62831.853071795863798,314159265.358979284763336,24.186695473950099,0.076988642834751
314, ,0.000000000000000,0.000000000000000,Santa Catarina North,Sumidouro, ,3.500000000000000,1,Right and left,Beach-break,Experienced surfers,-26.169526000000001,-48.552478999999998,10000.000000000000000,313,62831.853071795863798,314159265.358979284763336,5.614997501846150,0.017873092157349
315, ,0.000000000000000,0.000000000000000,Santa Catarina North,Praia do Forte, ,3.500000000000000,1,Right,Point-break,All surfers,-26.163305999999999,-48.533220000000000,10000.000000000000000,314,62831.853071795863798,314159265.358979284763336,3.330106652370020,0.010600058694958
316, ,0.000000000000000,0.000000000000000,Santa Catarina North,Terceira Pedra, ,3.500000000000000,3,Right,Point-break,All surfers,-26.067008999999999,-48.607646000000003,10000.000000000000000,315,62831.853071795863798,314159265.358979284763336,3.130374852670910,0.009964292630663
317, ,0.000000000000000,0.000000000000000,Santa Catarina North,Barra do sai mirim, ,3.000000000000000,3,Right and left,Beach-break,All surfers,-26.007832000000001,-48.604061000000002,10000.000000000000000,316,62831.853071795863798,314159265.358979284763336,50.760838830931199,0.161576768308675
318, ,0.000000000000000,0.000000000000000,Parana,Barrinha, ,3.000000000000000,2,Right,Beach-break,Experienced surfers,-25.976699000000000,-48.590727000000001,10000.000000000000000,317,62831.853071795863798,314159265.358979284763336,92.595468996756793,0.294740531974924
319, ,0.000000000000000,0.000000000000000,Parana,Praia Brava Guaratuba, ,3.500000000000000,3,Right and left,Beach-break,All surfers,-25.892817000000001,-48.561458999999999,10000.000000000000000,318,62831.853071795863798,314159265.358979284763336,135.437087250682993,0.431109638278291
320, ,0.000000000000000,0.000000000000000,Parana,Direitas de Guaratuba,Guaratuba,4.000000000000000,2,Right,Point-break,Experienced surfers,-25.890046000000002,-48.560288999999997,10000.000000000000000,319,62831.853071795863798,314159265.358979284763336,133.956546120489008,0.426396929491866
321, ,0.000000000000000,0.000000000000000,Parana,Pico de Matinhos,Matinos,3.500000000000000,3,Right,Point-break,Experienced surfers,-25.817817999999999,-48.529701000000003,10000.000000000000000,320,62831.853071795863798,314159265.358979284763336,84.549769398279295,0.269130274740321
322, ,0.000000000000000,0.000000000000000,Parana,Balneario Costa azul, ,3.000000000000000,3,Right and left,Beach-break,All surfers,-25.733239999999999,-48.489176000000000,10000.000000000000000,321,62831.853071795863798,314159265.358979284763336,1.306698043858040,0.004159349056170
323, ,0.000000000000000,0.000000000000000,Parana,Ilha do Mel, ,3.500000000000000,3,Right and left,Beach-break,All surfers,-25.548327000000000,-48.295383000000001,10000.000000000000000,322,62831.853071795863798,314159265.358979284763336,49.977878189897403,0.159084527183336
324, ,0.000000000000000,0.000000000000000,Parana,Farolete, ,3.500000000000000,4,Left,Point-break,Experienced surfers,-25.515314000000000,-48.286113999999998,10000.000000000000000,323,62831.853071795863798,314159265.358979284763336,121.844246108554003,0.387842281109636
325, ,0.000000000000000,0.000000000000000,Sao Paolo South,"Guarau, Peruibe SP", ,3.000000000000000,4,Right and left,Beach-break,All surfers,-24.369537000000001,-47.011699999999998,10000.000000000000000,324,62831.853071795863798,314159265.358979284763336,276.406093396140022,0.879827921294316
326, ,0.000000000000000,0.000000000000000,Sao Paolo South,Pier de Mongaguá,Mongagua,3.500000000000000,4,Right and left,Beach-break,All surfers,-24.095718000000002,-46.618552000000001,10000.000000000000000,325,62831.853071795863798,314159265.358979284763336,178.892291286399001,0.569431848785312
327, ,0.000000000000000,0.000000000000000,Sao Paolo North,Tombo, ,3.500000000000000,4,Right and left,Beach-break,All surfers,-24.014990000000001,-46.272697000000001,10000.000000000000000,326,62831.853071795863798,314159265.358979284763336,118.977344161923995,0.378716648786318
328, ,0.000000000000000,0.000000000000000,Sao Paulo North,Astúrias, ,3.000000000000000,2,Right and left,Beach-break,All surfers,-24.007738000000000,-46.266475000000000,10000.000000000000000,327,62831.853071795863798,314159265.358979284763336,118.889547753475000,0.378437184138510
329, ,0.000000000000000,0.000000000000000,Sao Paolo North,Pitangueiras Beach, ,3.500000000000000,4,Right and left,Beach-break,Experienced surfers,-24.000935999999999,-46.260767000000001,10000.000000000000000,328,62831.853071795863798,314159265.358979284763336,117.503670540946004,0.374025799960662
330, ,0.000000000000000,0.000000000000000,Sao Paulo North,porta do sol, ,3.500000000000000,2,Right and left,Point-break,Experienced surfers,-23.981331999999998,-46.373762999999997,10000.000000000000000,329,62831.853071795863798,314159265.358979284763336,47.943090651235700,0.152607597284940
331, ,0.000000000000000,0.000000000000000,Sao Paolo North,Itarare, ,3.000000000000000,3,Right and left,Beach-break,All surfers,-23.972332999999999,-46.362003999999999,10000.000000000000000,330,62831.853071795863798,314159265.358979284763336,37.812332205235002,0.120360391605920
332, ,0.000000000000000,0.000000000000000,Sao Paolo North,Santos,Quebra Mar,3.000000000000000,3,Right and left,Beach-break,All surfers,-23.971744000000001,-46.347208999999999,10000.000000000000000,331,62831.853071795863798,314159265.358979284763336,35.963134352871798,0.114474212026750
333, ,0.000000000000000,0.000000000000000,Sao Paolo North,Praia de Pernambuco, ,3.500000000000000,4,Right and left,Beach-break,All surfers,-23.963431000000000,-46.184033999999997,10000.000000000000000,332,62831.853071795863798,314159265.358979284763336,171.780080267198002,0.546792977984943
334, ,0.000000000000000,0.000000000000000,Sao Paulo North,Bonete, ,3.500000000000000,4,Right and left,Beach-break,Experienced surfers,-23.917383000000001,-45.347785999999999,10000.000000000000000,333,62831.853071795863798,314159265.358979284763336,253.968832784918987,0.808407902579978
335, ,0.000000000000000,0.000000000000000,Sao Paulo North,Sao Pedro, ,4.000000000000000,3,Right and left,Sand-bar,All surfers,-23.908522000000001,-46.166581000000001,10000.000000000000000,334,62831.853071795863798,314159265.358979284763336,174.897838623993010,0.556717111061943
336, ,0.000000000000000,0.000000000000000,Sao Paolo North,Praia de Iporanga, ,3.500000000000000,2,Left,Reef-rocky,Pros or kamikaze only...,-23.902191999999999,-46.152724999999997,10000.000000000000000,335,62831.853071795863798,314159265.358979284763336,191.786788852627012,0.610476309312345
337, ,0.000000000000000,0.000000000000000,Sao Paolo North,Taguaíba, ,3.500000000000000,4,Right and left,Beach-break,All surfers,-23.896726000000001,-46.151353999999998,10000.000000000000000,336,62831.853071795863798,314159265.358979284763336,193.843107938828012,0.617021776255207
338, ,0.000000000000000,0.000000000000000,Sao Paolo North,praia branca, ,3.500000000000000,3,Left,Beach-break,All surfers,-23.863427999999999,-46.130795999999997,10000.000000000000000,337,62831.853071795863798,314159265.358979284763336,212.188082535515008,0.675415644014366
339, ,0.000000000000000,0.000000000000000,Sao Paulo North,Castelhanos, ,3.500000000000000,3,Right and left,Beach-break,Experienced surfers,-23.857582000000001,-45.288905999999997,10000.000000000000000,338,62831.853071795863798,314159265.358979284763336,244.009397423119992,0.776706035215288
340, ,0.000000000000000,0.000000000000000,Sao Paulo North,Enseada - Bertioga, ,3.000000000000000,4,Right and left,Beach-break,All surfers,-23.839860000000002,-46.123674000000001,10000.000000000000000,339,62831.853071795863798,314159265.358979284763336,206.952744562740008,0.658751045671889
341, ,0.000000000000000,0.000000000000000,Sao Paulo North,Santiago, ,3.500000000000000,2,Right and left,Beach-break,Experienced surfers,-23.819897999999998,-45.541420000000002,10000.000000000000000,340,62831.853071795863798,314159265.358979284763336,224.586572096656994,0.714881262024947
342, ,0.000000000000000,0.000000000000000,Sao Paulo North,Guaecá, ,3.500000000000000,3,Right and left,Beach-break,All surfers,-23.819123000000001,-45.466200000000001,10000.000000000000000,341,62831.853071795863798,314159265.358979284763336,159.547830528338011,0.507856517763461
343, ,0.000000000000000,0.000000000000000,Sao Paulo North,Riviera de São Lourenço, ,3.000000000000000,3,Right and left,Beach-break,All surfers,-23.808668999999998,-46.022072000000001,10000.000000000000000,342,62831.853071795863798,314159265.358979284763336,206.049772900877997,0.655876797602745
344, ,0.000000000000000,0.000000000000000,Sao Paulo North,Paúba, ,4.000000000000000,2,Right and left,Beach-break,Pros or kamikaze only...,-23.802819000000000,-45.553167999999999,10000.000000000000000,343,62831.853071795863798,314159265.358979284763336,240.065938686716009,0.764153616199735
345, ,0.000000000000000,0.000000000000000,Sao Paulo North,Itaguaré, ,3.000000000000000,4,Right and left,Beach-break,All surfers,-23.796026000000001,-45.991173000000003,10000.000000000000000,344,62831.853071795863798,314159265.358979284763336,213.183374457496001,0.678583756598421
346, ,0.000000000000000,0.000000000000000,Sao Paulo North,Maresias, ,3.500000000000000,4,Right and left,Beach-break,All surfers,-23.791530000000002,-45.573456000000000,10000.000000000000000,345,62831.853071795863798,314159265.358979284763336,237.698931825220001,0.756619199352945
347, ,0.000000000000000,0.000000000000000,Sao Paulo North,Camburi, ,3.500000000000000,4,Right and left,Beach-break,All surfers,-23.778825999999999,-45.649137000000003,10000.000000000000000,346,62831.853071795863798,314159265.358979284763336,228.164040224343012,0.726268696750445
348, ,0.000000000000000,0.000000000000000,Sao Paulo North,Baleia, ,3.500000000000000,3,Right and left,Beach-break,All surfers,-23.777600000000000,-45.670217000000001,10000.000000000000000,347,62831.853071795863798,314159265.358979284763336,222.726366594571999,0.708960044008475
349, ,0.000000000000000,0.000000000000000,Sao Paulo North,Guaratuba, ,3.000000000000000,3,Right and left,Beach-break,Experienced surfers,-23.772306000000000,-45.922251000000003,10000.000000000000000,348,62831.853071795863798,314159265.358979284763336,237.312166197596014,0.755388086123857
350, ,0.000000000000000,0.000000000000000,Sao Paulo North,Juquehy,Praia do Juquei,3.000000000000000,4,Right and left,Beach-break,All surfers,-23.768065000000000,-45.738143999999998,10000.000000000000000,349,62831.853071795863798,314159265.358979284763336,206.343394754915010,0.656811424992141
351, ,0.000000000000000,0.000000000000000,Sao Paulo North,Massaguaçu, ,3.500000000000000,2,Right and left,Beach-break,Experienced surfers,-23.590772999999999,-45.334611000000002,10000.000000000000000,350,62831.853071795863798,314159265.358979284763336,140.981318247880012,0.448757473655235
352, ,0.000000000000000,0.000000000000000,Sao Paulo North,Simão, ,3.500000000000000,3,Right,Beach-break,Experienced surfers,-23.585149000000001,-45.238287000000000,10000.000000000000000,351,62831.853071795863798,314159265.358979284763336,177.051158713565997,0.563571341788235
353, ,0.000000000000000,0.000000000000000,Sao Paulo North,Praia do sape, ,3.500000000000000,3,Right and left,Beach-break,All surfers,-23.531963000000001,-45.222301000000002,10000.000000000000000,352,62831.853071795863798,314159265.358979284763336,183.668479415721009,0.584634927783681
354, ,0.000000000000000,0.000000000000000,Sao Paulo North,Lagoinha, ,3.500000000000000,2,Right and left,Beach-break,Beginners wave,-23.521339000000001,-45.205221000000002,10000.000000000000000,353,62831.853071795863798,314159265.358979284763336,181.619102104466009,0.578111557196749
355, ,0.000000000000000,0.000000000000000,Sao Paulo North,Sununga, ,3.500000000000000,3,Right,Beach-break,Pros or kamikaze only...,-23.511344000000001,-45.129432999999999,10000.000000000000000,354,62831.853071795863798,314159265.358979284763336,198.996030748117988,0.633424038984596
356, ,0.000000000000000,0.000000000000000,Sao Paulo North,Toninhas, ,3.000000000000000,2,Right and left,Beach-break,All surfers,-23.484739000000001,-45.073771000000001,10000.000000000000000,355,62831.853071795863798,314159265.358979284763336,211.133257875641988,0.672058032840086
357, ,0.000000000000000,0.000000000000000,Sao Paulo North,Praia Grande (PG), ,3.000000000000000,3,Right and left,Beach-break,All surfers,-23.478835000000000,-45.067290999999997,10000.000000000000000,356,62831.853071795863798,314159265.358979284763336,207.357526974260992,0.660039508105294
358, ,0.000000000000000,0.000000000000000,Sao Paulo North,Praia Grande North,Ponta do Baguari,3.000000000000000,3,Left,Beach-break,All surfers,-23.467497999999999,-45.062055999999998,10000.000000000000000,357,62831.853071795863798,314159265.358979284763336,196.193267770800986,0.624502567341497
359, ,0.000000000000000,0.000000000000000,Sao Paulo North,Vermelha do Centro,Vermelha do Sul,3.500000000000000,4,Right and left,Beach-break,All surfers,-23.463128000000001,-45.049353000000004,10000.000000000000000,358,62831.853071795863798,314159265.358979284763336,200.511929546037010,0.638249294722914
360, ,0.000000000000000,0.000000000000000,Sao Paulo North,Patiero, ,3.500000000000000,2, ,Reef-rocky,Experienced surfers,-23.456318000000000,-45.021242999999998,10000.000000000000000,359,62831.853071795863798,314159265.358979284763336,210.072037678318992,0.668680064037828
361, ,0.000000000000000,0.000000000000000,Sao Paulo North,Vermelha do Norte, ,3.000000000000000,3,Right and left,Beach-break,All surfers,-23.416982000000001,-45.035876999999999,10000.000000000000000,360,62831.853071795863798,314159265.358979284763336,197.790951146916996,0.629588151477589
362, ,0.000000000000000,0.000000000000000,Sao Paulo North,Itamambuca, ,3.500000000000000,4,Right and left,Beach-break,All surfers,-23.402332000000001,-45.001458999999997,10000.000000000000000,361,62831.853071795863798,314159265.358979284763336,220.127148379721007,0.700686475467115
363, ,0.000000000000000,0.000000000000000,Sao Paulo North,Praia do Felix, ,3.500000000000000,3,Right and left,Beach-break,All surfers,-23.389334000000002,-44.972405000000002,10000.000000000000000,362,62831.853071795863798,314159265.358979284763336,229.248114166059992,0.729719411280473
364, ,0.000000000000000,0.000000000000000,Sao Paulo North,Brava do Camburi, ,3.000000000000000,3,Right and left,Beach-break,Experienced surfers,-23.370963000000000,-44.799858999999998,10000.000000000000000,363,62831.853071795863798,314159265.358979284763336,340.360750141095025,1.083401916388417
365, ,0.000000000000000,0.000000000000000,Rio De Janeiro City,Ponta do Cepílio, ,3.500000000000000,3,Right and left,Beach-break,Experienced surfers,-23.343990000000002,-44.711781000000002,10000.000000000000000,364,62831.853071795863798,314159265.358979284763336,255.723722928172009,0.813993891397617
366, ,0.000000000000000,0.000000000000000,Rio De Janeiro City,Laranjeiras, ,3.500000000000000,3,Right,Beach-break,All surfers,-23.336050000000000,-44.674294000000003,10000.000000000000000,365,62831.853071795863798,314159265.358979284763336,196.902608773623996,0.626760469880238
367, ,0.000000000000000,0.000000000000000,Rio De Janeiro City,Martim de Sa, ,3.500000000000000,3,Right and left,Beach-break,All surfers,-23.304048999999999,-44.553486999999997,10000.000000000000000,366,62831.853071795863798,314159265.358979284763336,104.409389249214996,0.332345408084368
368, ,0.000000000000000,0.000000000000000,Rio De Janeiro City,Aventureiro, ,3.500000000000000,4,Left,Point-break,All surfers,-23.180132000000000,-44.304428000000001,10000.000000000000000,367,62831.853071795863798,314159265.358979284763336,203.826366890336004,0.648799476461185
369, ,0.000000000000000,0.000000000000000,Rio De Janeiro City,Lopes Mendes, ,3.500000000000000,4,Right and left,Beach-break,Experienced surfers,-23.171453000000000,-44.128990000000002,10000.000000000000000,368,62831.853071795863798,314159265.358979284763336,114.918222810014001,0.365796064230991
370, ,0.000000000000000,0.000000000000000,Rio De Janeiro City,Barra de Guaratiba, ,4.000000000000000,2,Left,Rivermouth,Experienced surfers,-23.064018000000001,-43.569374000000003,10000.000000000000000,369,62831.853071795863798,314159265.358979284763336,120.793008949541999,0.384496089305264
371, ,0.000000000000000,0.000000000000000,Rio De Janeiro City,Laje do Dramin, ,3.500000000000000,2,Left,Reef-rocky,Pros or kamikaze only...,-23.055999000000000,-44.366816000000000,10000.000000000000000,370,62831.853071795863798,314159265.358979284763336,57.579331797121100,0.183280705508804
372, ,0.000000000000000,0.000000000000000,Rio De Janeiro City,Grumari, ,3.500000000000000,3,Right and left,Beach-break,Experienced surfers,-23.049130999999999,-43.526673000000002,10000.000000000000000,371,62831.853071795863798,314159265.358979284763336,117.082202368707996,0.372684225101310
373, ,0.000000000000000,0.000000000000000,Rio De Janeiro City,Prainha, ,3.500000000000000,4,Right and left,Beach-break,All surfers,-23.040759000000001,-43.505259000000002,10000.000000000000000,372,62831.853071795863798,314159265.358979284763336,115.831330602126002,0.368702576604798
374, ,0.000000000000000,0.000000000000000,Rio De Janeiro City,CcB, ,3.500000000000000,4,Right and left,Sand-bar,All surfers,-23.034576999999999,-43.488737999999998,10000.000000000000000,373,62831.853071795863798,314159265.358979284763336,107.470834253047002,0.342090290191645
375, ,0.000000000000000,0.000000000000000,Rio De Janeiro City,Farorinha, ,3.000000000000000,2,Left,Beach-break,All surfers,-23.033829000000001,-43.470989000000003,10000.000000000000000,374,62831.853071795863798,314159265.358979284763336,86.952230728850694,0.276777546667272
376, ,0.000000000000000,0.000000000000000,Rio De Janeiro City,Canto do recreio,Macumba Curvao,3.500000000000000,3,Right and left,Beach-break,All surfers,-23.033294999999999,-43.467430000000000,10000.000000000000000,375,62831.853071795863798,314159265.358979284763336,82.975491895528606,0.264119193813098
377, ,0.000000000000000,0.000000000000000,Rio De Janeiro City,Praia da Macumba, ,4.000000000000000,4,Right and left,Beach-break,All surfers,-23.032031000000000,-43.475603999999997,10000.000000000000000,376,62831.853071795863798,314159265.358979284763336,94.735437543956493,0.301552263421884
378, ,0.000000000000000,0.000000000000000,Rio De Janeiro City,Mambucaba, ,3.500000000000000,2,Right and left,Sand-bar,All surfers,-23.029266000000000,-44.519992000000002,10000.000000000000000,377,62831.853071795863798,314159265.358979284763336,117.230297497593995,0.373155626537511
379, ,0.000000000000000,0.000000000000000,Rio De Janeiro City,Posto 10 - Recreio,Glaucio Gil,3.500000000000000,2,Right and left,Beach-break,Experienced surfers,-23.026218000000000,-43.458039999999997,10000.000000000000000,378,62831.853071795863798,314159265.358979284763336,81.013403351253203,0.257873672000990
380, ,0.000000000000000,0.000000000000000,Rio De Janeiro City,Recreio Posto 9,Reserva,3.000000000000000,3,Right and left,Beach-break,Experienced surfers,-23.023638999999999,-43.448228999999998,10000.000000000000000,379,62831.853071795863798,314159265.358979284763336,75.896469849811396,0.241585966796450
381, ,0.000000000000000,0.000000000000000,Rio De Janeiro City,Lage Postinho,Postinho,3.500000000000000,2,Right and left,Reef-rocky,Experienced surfers,-23.015481999999999,-43.306539000000001,10000.000000000000000,380,62831.853071795863798,314159265.358979284763336,32.985179701336598,0.104995087964843
382, ,0.000000000000000,0.000000000000000,Rio De Janeiro City,Joatinga, ,3.500000000000000,4,Right and left,Beach-break,All surfers,-23.015205000000002,-43.291089999999997,10000.000000000000000,381,62831.853071795863798,314159265.358979284763336,32.068422454367997,0.102076959015436
