OBJECTID,id,region,zone,name,lat,long,quality,frequency,direction,type,experience,BUFF_DIST,ORIG_FID,Shape_Leng,Shape_Area,SUM_Area_S,protected_
1,0,Sul,NA,Cardoso,-28.585450000000002,-48.798270000000002,NA,NA,NA,NA,NA,10000.000000000000000,1,62831.853071795863798,314159265.358979284763336,209.011643299822993,0.665304723898538
2,1,Sul,NA,Ravena,-28.454780000000000,-48.751339999999999,NA,NA,NA,NA,NA,10000.000000000000000,2,62831.853071795863798,314159265.358979284763336,144.802779606224988,0.460921562955540
3,2,Sul,NA,Praia da Vila Imbituba,-28.252472220000001,-48.661850000000001,NA,NA,NA,NA,NA,10000.000000000000000,3,62831.853071795863798,314159265.358979284763336,156.083590014151014,0.496829497725619
4,3,Sul,NA,Praia do Porto Imbituba,-28.220199000000001,-48.663214000000004,NA,NA,NA,NA,NA,10000.000000000000000,4,62831.853071795863798,314159265.358979284763336,136.582460229199995,0.434755473702588
5,4,Sul,NA,Ponta da Pinheira,-27.878140999999999,-48.576442000000000,NA,NA,NA,NA,NA,10000.000000000000000,5,62831.853071795863798,314159265.358979284763336,221.080603569221012,0.703721417595626
6,5,Sul,NA,Mocambique,-27.518350000000002,-48.392183330000002,NA,NA,NA,NA,NA,10000.000000000000000,6,62831.853071795863798,314159265.358979284763336,44.498023997131597,0.141641609539306
7,6,Sul,NA,Ponta das Canas,-27.394818999999998,-48.435709000000003,NA,NA,NA,NA,NA,10000.000000000000000,7,62831.853071795863798,314159265.358979284763336,13.731852442364801,0.043709843880218
8,7,Sul,NA,Itagua&ccedil;u,-26.184728000000000,-48.526327999999999,NA,NA,NA,NA,NA,10000.000000000000000,8,62831.853071795863798,314159265.358979284763336,14.196591849760001,0.045189155358948
9,8,Sul,NA,Caioba,-25.838000000000001,-48.534999999999997,NA,NA,NA,NA,NA,10000.000000000000000,9,62831.853071795863798,314159265.358979284763336,86.733479093911399,0.276081238587072
10,9,Sudeste,NA,Ilha Comprida,-24.783999999999999,-47.594999999999999,NA,NA,NA,NA,NA,10000.000000000000000,10,62831.853071795863798,314159265.358979284763336,248.921755312903002,0.792342556023196
11,10,Sudeste,NA,Iguape,-24.753211000000000,-47.542059000000002,NA,NA,NA,NA,NA,10000.000000000000000,11,62831.853071795863798,314159265.358979284763336,236.211461366950005,0.751884433830208
12,11,Sudeste,NA,Peruibe,-24.324427000000000,-46.978886000000003,NA,NA,NA,NA,NA,10000.000000000000000,12,62831.853071795863798,314159265.358979284763336,203.060740260513995,0.646362411207206
13,12,Sudeste,NA,Praia dos Pescadores,-24.194862000000001,-46.798881999999999,NA,NA,NA,NA,NA,10000.000000000000000,13,62831.853071795863798,314159265.358979284763336,133.557172639111002,0.425125684217844
14,13,Sudeste,NA,Itanhaem,-24.151427000000002,-46.707858000000002,NA,NA,NA,NA,NA,10000.000000000000000,14,62831.853071795863798,314159265.358979284763336,146.153178332456008,0.465220015604034
15,14,Sudeste,NA,Praia Grande,-24.028497000000002,-46.438310000000001,NA,NA,NA,NA,NA,10000.000000000000000,15,62831.853071795863798,314159265.358979284763336,131.942251589433994,0.419985230862659
16,15,Sudeste,NA,Praia do Forte dos Andradas,-24.028369000000001,-46.288159000000000,NA,NA,NA,NA,NA,10000.000000000000000,16,62831.853071795863798,314159265.358979284763336,114.989396237475006,0.366022616286935
17,16,Sudeste,NA,Praia do Forte dos Andradas,-24.025659999999998,-46.285460000000000,NA,NA,NA,NA,NA,10000.000000000000000,17,62831.853071795863798,314159265.358979284763336,115.361044354032998,0.367205608983755
18,17,Sudeste,NA,Praia da Ponta Grossa,-24.024816000000001,-46.314497000000003,NA,NA,NA,NA,NA,10000.000000000000000,18,62831.853071795863798,314159265.358979284763336,101.681867574348004,0.323663436945460
19,18,Sudeste,NA,Itaipu,-24.019545000000001,-46.386795999999997,NA,NA,NA,NA,NA,10000.000000000000000,19,62831.853071795863798,314159265.358979284763336,95.637697659698603,0.304424246569385
20,19,Sudeste,NA,Guaiuba,-24.017081999999998,-46.295202000000003,NA,NA,NA,NA,NA,10000.000000000000000,20,62831.853071795863798,314159265.358979284763336,104.284228876265004,0.331947010243683
21,20,Sudeste,NA,Santos,-24.015000000000001,-46.353999999999999,NA,NA,NA,NA,NA,10000.000000000000000,21,62831.853071795863798,314159265.358979284763336,83.128232507049901,0.264605382279788
22,21,Sudeste,NA,Morro do Maluf,-23.997560000000000,-46.251593999999997,NA,NA,NA,NA,NA,10000.000000000000000,22,62831.853071795863798,314159265.358979284763336,122.480786647591998,0.389868452574962
23,22,Sudeste,NA,Praia da Enseada,-23.990651000000000,-46.209406000000001,NA,NA,NA,NA,NA,10000.000000000000000,23,62831.853071795863798,314159265.358979284763336,163.460894765603996,0.520312188083401
24,23,Sudeste,NA,Embare,-23.980865999999999,-46.317684000000000,NA,NA,NA,NA,NA,10000.000000000000000,24,62831.853071795863798,314159265.358979284763336,55.373279941908201,0.176258624359320
25,24,Sudeste,NA,Gonzaga,-23.974027000000000,-46.330098000000000,NA,NA,NA,NA,NA,10000.000000000000000,25,62831.853071795863798,314159265.358979284763336,41.649557861103297,0.132574660223730
26,25,Sudeste,NA,Pereque,-23.927582999999998,-46.178826000000001,NA,NA,NA,NA,NA,10000.000000000000000,26,62831.853071795863798,314159265.358979284763336,160.476804595272000,0.510813534058595
27,26,Sudeste,NA,Praia Preta,-23.874700000000001,-46.138959000000000,NA,NA,NA,NA,NA,10000.000000000000000,27,62831.853071795863798,314159265.358979284763336,209.092916998743988,0.665563426117071
28,27,Sudeste,NA,Praia da Bertioga,-23.846986000000001,-46.126967999999998,NA,NA,NA,NA,NA,10000.000000000000000,28,62831.853071795863798,314159265.358979284763336,209.379540062903004,0.666475775666372
29,28,Sudeste,NA,Maresias,-23.793693260000001,-45.559764340000001,NA,NA,NA,NA,NA,10000.000000000000000,29,62831.853071795863798,314159265.358979284763336,241.687759129788986,0.769316031006186
30,29,Sudeste,NA,Canto de Moreira,-23.793056000000000,-45.587394000000003,NA,NA,NA,NA,NA,10000.000000000000000,30,62831.853071795863798,314159265.358979284763336,235.743860200532993,0.750396013089592
31,30,Sudeste,NA,Itaguere,-23.786995000000001,-45.971372000000002,NA,NA,NA,NA,NA,10000.000000000000000,31,62831.853071795863798,314159265.358979284763336,219.126091340400990,0.697500011944620
32,31,Sudeste,NA,Boicucanga,-23.784431000000001,-45.631354999999999,NA,NA,NA,NA,NA,10000.000000000000000,32,62831.853071795863798,314159265.358979284763336,228.948836366112999,0.728766780456088
33,32,Sudeste,NA,Praia de Baleia,-23.775839000000001,-45.683985999999997,NA,NA,NA,NA,NA,10000.000000000000000,33,62831.853071795863798,314159265.358979284763336,216.411919664911011,0.688860535173536
34,33,Sudeste,NA,Barra do Sahy,-23.774384999999999,-45.697569999999999,NA,NA,NA,NA,NA,10000.000000000000000,34,62831.853071795863798,314159265.358979284763336,210.138344637399001,0.668891125643807
35,34,Sudeste,NA,Praia Preta,-23.773009999999999,-45.715814999999999,NA,NA,NA,NA,NA,10000.000000000000000,35,62831.853071795863798,314159265.358979284763336,206.817880834898006,0.658321761093292
36,35,Sudeste,NA,Bananas Point,-23.771605000000001,-45.706209999999999,NA,NA,NA,NA,NA,10000.000000000000000,36,62831.853071795863798,314159265.358979284763336,207.045719119544003,0.659046992877832
37,36,Sudeste,NA,Praia do Juquei,-23.768115000000002,-45.745452999999998,NA,NA,NA,NA,NA,10000.000000000000000,37,62831.853071795863798,314159265.358979284763336,206.413370094924005,0.657034163417280
38,37,Sudeste,NA,Barra do Una,-23.763818000000001,-45.762779999999999,NA,NA,NA,NA,NA,10000.000000000000000,38,62831.853071795863798,314159265.358979284763336,199.695844970519005,0.635651616839419
39,38,Sudeste,NA,Praia da Boracéia,-23.758372999999999,-45.828777000000002,NA,NA,NA,NA,NA,10000.000000000000000,39,62831.853071795863798,314159265.358979284763336,203.847533253465997,0.648866851087573
40,39,Sudeste,NA,Praia Dura,-23.496058000000001,-45.171014000000000,NA,NA,NA,NA,NA,10000.000000000000000,40,62831.853071795863798,314159265.358979284763336,192.162162469393991,0.611671160644640
41,40,Sudeste,NA,Pereque-Acu,-23.424565000000001,-45.062697000000000,NA,NA,NA,NA,NA,10000.000000000000000,41,62831.853071795863798,314159265.358979284763336,186.911141300031005,0.594956641136953
42,41,Sudeste,NA,Itamambuca,-23.406683000000001,-45.008741000000001,NA,NA,NA,NA,NA,10000.000000000000000,42,62831.853071795863798,314159265.358979284763336,216.830653176362006,0.690193405337248
43,42,Sudeste,NA,Praia da Fazenda,-23.361352000000000,-44.859766000000000,NA,NA,NA,NA,NA,10000.000000000000000,43,62831.853071795863798,314159265.358979284763336,301.739265326662007,0.960465912033105
44,43,Sudeste,NA,Aventureiro,-23.184405999999999,-44.315804000000000,NA,NA,NA,NA,NA,10000.000000000000000,44,62831.853071795863798,314159265.358979284763336,179.536932148043007,0.571483804378306
45,44,Sudeste,NA,Praia do Leste,-23.179746000000002,-44.274093999999998,NA,NA,NA,NA,NA,10000.000000000000000,45,62831.853071795863798,314159265.358979284763336,261.499245273342979,0.832377950001051
46,45,Sudeste,NA,Praia do Sul,-23.178656000000000,-44.296756999999999,NA,NA,NA,NA,NA,10000.000000000000000,46,62831.853071795863798,314159265.358979284763336,219.736502053429007,0.699443009590514
47,46,Sudeste,NA,Praia do Meio,-23.066913000000000,-43.549809000000003,NA,NA,NA,NA,NA,10000.000000000000000,47,62831.853071795863798,314159265.358979284763336,111.038984499433994,0.353448065179786
48,47,Sudeste,NA,Restinga a Marambaia,-23.061833000000000,-43.591673000000000,NA,NA,NA,NA,NA,10000.000000000000000,48,62831.853071795863798,314159265.358979284763336,126.350596540756001,0.402186440041421
49,48,Sudeste,NA,Grumari,-23.050469000000000,-43.533907999999997,NA,NA,NA,NA,NA,10000.000000000000000,49,62831.853071795863798,314159265.358979284763336,119.004619644084002,0.378803469342537
50,49,Sudeste,NA,Reserva,-23.022717000000000,-43.440916000000001,NA,NA,NA,NA,NA,10000.000000000000000,50,62831.853071795863798,314159265.358979284763336,72.048567457561106,0.229337713071215
51,50,Sudeste,NA,Barra da Tijuca,-23.020340120000000,-43.372478489999999,NA,NA,NA,NA,NA,10000.000000000000000,51,62831.853071795863798,314159265.358979284763336,26.491095923895699,0.084323777284191
52,51,Sudeste,NA,Barra da Tijuca,-23.014886109999999,-43.372222219999998,NA,NA,NA,NA,NA,10000.000000000000000,52,62831.853071795863798,314159265.358979284763336,29.295639431295101,0.093250916530569
53,52,Sudeste,NA,Sao Conrado,-23.000617999999999,-43.264187000000000,NA,NA,NA,NA,NA,10000.000000000000000,53,62831.853071795863798,314159265.358979284763336,45.268668935930101,0.144094648566876
54,53,Sudeste,NA,Bambui,-22.975255000000001,-42.916570000000000,NA,NA,NA,NA,NA,10000.000000000000000,54,62831.853071795863798,314159265.358979284763336,30.491713975364402,0.097058140050470
55,54,Sudeste,NA,Itaipuacu,-22.971149000000000,-43.011260000000000,NA,NA,NA,NA,NA,10000.000000000000000,55,62831.853071795863798,314159265.358979284763336,80.462917593379700,0.256121421411644
56,55,Sudeste,NA,Barra de Marica,-22.962100000000000,-42.809486999999997,NA,NA,NA,NA,NA,10000.000000000000000,56,62831.853071795863798,314159265.358979284763336,18.857849479441700,0.060026399214722
57,56,Sudeste,NA,Camboinhas,-22.961998000000001,-43.059922999999998,NA,NA,NA,NA,NA,10000.000000000000000,57,62831.853071795863798,314159265.358979284763336,78.560377017896997,0.250065446671225
58,57,Sudeste,NA,Pirantininga,-22.955044999999998,-43.088653999999998,NA,NA,NA,NA,NA,10000.000000000000000,58,62831.853071795863798,314159265.358979284763336,75.410401635459095,0.240038763616570
59,58,Sudeste,NA,Jacone,-22.946556000000001,-42.679789000000000,NA,NA,NA,NA,NA,10000.000000000000000,59,62831.853071795863798,314159265.358979284763336,43.052370025819499,0.137039950028611
60,59,Sudeste,NA,Figueira,-22.944991999999999,-42.188828000000001,NA,NA,NA,NA,NA,10000.000000000000000,60,62831.853071795863798,314159265.358979284763336,175.283150984917995,0.557943598399455
61,60,Sudeste,NA,Praia do Fora,-22.944794000000002,-43.155304000000001,NA,NA,NA,NA,NA,10000.000000000000000,61,62831.853071795863798,314159265.358979284763336,46.505471613023502,0.148031513760650
62,61,Sudeste,NA,Laje do Pao de Acucar,-22.938409000000000,-43.151797000000002,NA,NA,NA,NA,NA,10000.000000000000000,62,62831.853071795863798,314159265.358979284763336,45.699255350061797,0.145465247691622
63,62,Sudeste,NA,Canal,-22.937418999999998,-42.487813000000003,NA,NA,NA,NA,NA,10000.000000000000000,63,62831.853071795863798,314159265.358979284763336,44.074793597891897,0.140294425337190
64,63,Sudeste,NA,Praia Seca,-22.936126000000002,-42.361598000000001,NA,NA,NA,NA,NA,10000.000000000000000,64,62831.853071795863798,314159265.358979284763336,105.786400644156998,0.336728571488345
65,64,Sudeste,NA,Caravelas,-22.814850000000000,-41.953901999999999,NA,NA,NA,NA,NA,10000.000000000000000,65,62831.853071795863798,314159265.358979284763336,120.353723014093006,0.383097798744115
66,65,Sudeste,NA,Tucuns,-22.799863999999999,-41.929282000000001,NA,NA,NA,NA,NA,10000.000000000000000,66,62831.853071795863798,314159265.358979284763336,100.002425369828003,0.318317606375730
67,66,Sudeste,NA,Praia Brava,-22.754252000000001,-41.872608999999997,NA,NA,NA,NA,NA,10000.000000000000000,67,62831.853071795863798,314159265.358979284763336,23.303114888150699,0.074176118477751
68,67,Sudeste,NA,Marataizes,-21.044882999999999,-40.827455999999998,NA,NA,NA,NA,NA,10000.000000000000000,68,62831.853071795863798,314159265.358979284763336,12.876737743500099,0.040987929255520
69,68,Sudeste,NA,Ponta do Ubu,-20.793246000000000,-40.579551000000002,NA,NA,NA,NA,NA,10000.000000000000000,69,62831.853071795863798,314159265.358979284763336,31.252528964920000,0.099479889377793
70,69,Sudeste,NA,Ponta dos Castelhanos,-20.755085000000001,-40.560755000000000,NA,NA,NA,NA,NA,10000.000000000000000,70,62831.853071795863798,314159265.358979284763336,22.799070682157300,0.072571695939337
71,70,Sudeste,NA,Maimba,-20.707021999999998,-40.514367999999997,NA,NA,NA,NA,NA,10000.000000000000000,71,62831.853071795863798,314159265.358979284763336,12.955225412885200,0.041237763266608
72,71,Sudeste,NA,Praia do Morro,-20.659787999999999,-40.493842999999998,NA,NA,NA,NA,NA,10000.000000000000000,72,62831.853071795863798,314159265.358979284763336,35.769480615036002,0.113857793034254
73,72,Sudeste,NA,Ponta de Bororo,-20.614518000000000,-40.415382000000001,NA,NA,NA,NA,NA,10000.000000000000000,73,62831.853071795863798,314159265.358979284763336,106.639142377156006,0.339442932728096
74,73,Sudeste,NA,Tropical,-20.559543999999999,-40.391810000000000,NA,NA,NA,NA,NA,10000.000000000000000,74,62831.853071795863798,314159265.358979284763336,130.484941250713007,0.415346467982131
75,74,Sudeste,NA,Dunas de Ule,-20.542100000000001,-40.379860999999998,NA,NA,NA,NA,NA,10000.000000000000000,75,62831.853071795863798,314159265.358979284763336,120.905910313533994,0.384855465508486
76,75,Sudeste,NA,Guarapari - Ule,-20.541319000000001,-40.378385999999999,NA,NA,NA,NA,NA,10000.000000000000000,76,62831.853071795863798,314159265.358979284763336,120.157812305796995,0.382474195591516
77,76,Sudeste,NA,Ponta da Fruta,-20.516836999999999,-40.358133000000002,NA,NA,NA,NA,NA,10000.000000000000000,77,62831.853071795863798,314159265.358979284763336,92.121377053550404,0.293231450450097
78,77,Sudeste,NA,Coral Dois,-20.448948000000001,-40.330300000000001,NA,NA,NA,NA,NA,10000.000000000000000,78,62831.853071795863798,314159265.358979284763336,29.212004151297101,0.092984697165998
79,78,Sudeste,NA,Ponta da Belina,-20.445827000000001,-40.329245000000000,NA,NA,NA,NA,NA,10000.000000000000000,79,62831.853071795863798,314159265.358979284763336,27.726659082754399,0.088256696968883
80,79,Sudeste,NA,Coral Um,-20.437659000000000,-40.326006999999997,NA,NA,NA,NA,NA,10000.000000000000000,80,62831.853071795863798,314159265.358979284763336,24.364589812270101,0.077554898100584
81,80,Sudeste,NA,"Barrao, Brazil",-20.427381000000000,-40.320982000000001,NA,NA,NA,NA,NA,10000.000000000000000,81,62831.853071795863798,314159265.358979284763336,18.845842198362000,0.059988178851983
82,81,Sudeste,NA,Barrinha,-20.422540999999999,-40.321933999999999,NA,NA,NA,NA,NA,10000.000000000000000,82,62831.853071795863798,314159265.358979284763336,17.302272178295500,0.055074842877942
83,82,Sudeste,NA,Praia de Camburi,-20.279677000000000,-40.248994000000003,NA,NA,NA,NA,NA,10000.000000000000000,83,62831.853071795863798,314159265.358979284763336,45.633966662727403,0.145257427345277
84,83,Sudeste,NA,Velzyland,-20.244838999999999,-40.216205000000002,NA,NA,NA,NA,NA,10000.000000000000000,84,62831.853071795863798,314159265.358979284763336,31.358454257077099,0.099817060054698
85,84,Sudeste,NA,Ponta da Cacao,-20.219573000000000,-40.196268000000003,NA,NA,NA,NA,NA,10000.000000000000000,85,62831.853071795863798,314159265.358979284763336,19.517327560194300,0.062125583142972
86,85,Sudeste,NA,"Manguinhos, Brazil",-20.199344000000000,-40.190266999999999,NA,NA,NA,NA,NA,10000.000000000000000,86,62831.853071795863798,314159265.358979284763336,17.852940301459601,0.056827673954036
87,86,Sudeste,NA,Praia da Baleia,-20.171105000000001,-40.184866000000000,NA,NA,NA,NA,NA,10000.000000000000000,87,62831.853071795863798,314159265.358979284763336,28.901580124120699,0.091996586798406
88,87,Sudeste,NA,Jacaraipe - Solemar,-20.109774999999999,-40.171481000000000,NA,NA,NA,NA,NA,10000.000000000000000,88,62831.853071795863798,314159265.358979284763336,89.770979283778203,0.285749901984269
89,88,Sudeste,NA,Xa,-20.107229000000000,-40.171174999999998,NA,NA,NA,NA,NA,10000.000000000000000,89,62831.853071795863798,314159265.358979284763336,91.839520105835604,0.292334271920625
90,89,Sudeste,NA,Nova Almeida,-20.058461999999999,-40.183000999999997,NA,NA,NA,NA,NA,10000.000000000000000,90,62831.853071795863798,314159265.358979284763336,95.005762930184602,0.302412735851113
91,90,Sudeste,NA,Praia Grande,-20.047100000000000,-40.182743000000002,NA,NA,NA,NA,NA,10000.000000000000000,91,62831.853071795863798,314159265.358979284763336,97.359669795824601,0.309905454116004
92,91,Sudeste,NA,Regencia,-19.562811000000000,-39.764263999999997,NA,NA,NA,NA,NA,10000.000000000000000,92,62831.853071795863798,314159265.358979284763336,0.000000000000000,0.000000000000000
93,92,Sudeste,NA,Guriri,-18.910750000000000,-39.738563999999997,NA,NA,NA,NA,NA,10000.000000000000000,93,62831.853071795863798,314159265.358979284763336,0.000000000000000,0.000000000000000
94,93,Nordeste,NA,Milionarios,-14.847631000000000,-39.022942000000000,NA,NA,NA,NA,NA,10000.000000000000000,94,62831.853071795863798,314159265.358979284763336,3.602011638782350,0.011465559147735
95,94,Nordeste,NA,Sul,-14.831120000000000,-39.022562999999998,NA,NA,NA,NA,NA,10000.000000000000000,95,62831.853071795863798,314159265.358979284763336,9.637310053185059,0.030676510661472
96,95,Nordeste,NA,Pedra da Cachorra,-14.821026000000000,-39.023632999999997,NA,NA,NA,NA,NA,10000.000000000000000,96,62831.853071795863798,314159265.358979284763336,13.785926548987099,0.043881967107462
97,96,Nordeste,NA,Jardim Atlantico,-14.815026000000000,-39.023400000000002,NA,NA,NA,NA,NA,10000.000000000000000,97,62831.853071795863798,314159265.358979284763336,16.345095660397501,0.052028055393243
98,97,Nordeste,NA,Baduska,-14.809442000000001,-39.023423000000001,NA,NA,NA,NA,NA,10000.000000000000000,98,62831.853071795863798,314159265.358979284763336,18.995674167652300,0.060465108822898
99,98,Nordeste,NA,Norte,-14.660090000000000,-39.063006999999999,NA,NA,NA,NA,NA,10000.000000000000000,99,62831.853071795863798,314159265.358979284763336,172.588663840962994,0.549366779438295
100,99,Nordeste,NA,Havaizinho,-14.468062000000000,-39.023161000000002,NA,NA,NA,NA,NA,10000.000000000000000,100,62831.853071795863798,314159265.358979284763336,209.404454040909997,0.666555079321410
101,100,Nordeste,NA,Sao Jose,-14.316062000000001,-38.990701000000001,NA,NA,NA,NA,NA,10000.000000000000000,101,62831.853071795863798,314159265.358979284763336,173.341827227543007,0.551764172956896
102,101,Nordeste,NA,Corals,-14.275408000000001,-38.982568999999998,NA,NA,NA,NA,NA,10000.000000000000000,102,62831.853071795863798,314159265.358979284763336,163.258560514368014,0.519668138158580
103,102,Nordeste,NA,Tony,-13.016731999999999,-38.488781000000003,NA,NA,NA,NA,NA,10000.000000000000000,103,62831.853071795863798,314159265.358979284763336,46.362188070383901,0.147575428079154
104,103,Nordeste,NA,Meridien,-13.016598000000000,-38.484878999999999,NA,NA,NA,NA,NA,10000.000000000000000,104,62831.853071795863798,314159265.358979284763336,41.863415211065103,0.133255389310989
105,104,Nordeste,NA,Amaralina,-13.015369000000000,-38.471834000000001,NA,NA,NA,NA,NA,10000.000000000000000,105,62831.853071795863798,314159265.358979284763336,28.156691949280699,0.089625534096876
106,105,Nordeste,NA,Tubao,-13.010683999999999,-38.461410999999998,NA,NA,NA,NA,NA,10000.000000000000000,106,62831.853071795863798,314159265.358979284763336,20.418944839381201,0.064995520078165
107,106,Nordeste,NA,Psiu,-12.995919000000001,-38.439390000000003,NA,NA,NA,NA,NA,10000.000000000000000,107,62831.853071795863798,314159265.358979284763336,6.960609636390070,0.022156308611291
108,107,Nordeste,NA,Alex,-12.973279000000000,-38.406477000000002,NA,NA,NA,NA,NA,10000.000000000000000,108,62831.853071795863798,314159265.358979284763336,13.146114303559200,0.041845381477250
109,108,Nordeste,NA,Terceira Ponte,-12.963839999999999,-38.396822000000000,NA,NA,NA,NA,NA,10000.000000000000000,109,62831.853071795863798,314159265.358979284763336,19.366336037860599,0.061644962200085
110,109,Nordeste,NA,SESC,-12.960485000000000,-38.390998000000003,NA,NA,NA,NA,NA,10000.000000000000000,110,62831.853071795863798,314159265.358979284763336,23.048363701089500,0.073365220264164
111,110,Nordeste,NA,Farol,-12.958147000000000,-38.352812999999998,NA,NA,NA,NA,NA,10000.000000000000000,111,62831.853071795863798,314159265.358979284763336,46.415345140177898,0.147744632287514
112,111,Nordeste,NA,Pedro do Sal,-12.954224000000000,-38.347234000000000,NA,NA,NA,NA,NA,10000.000000000000000,112,62831.853071795863798,314159265.358979284763336,52.098660634296500,0.165835187368309
113,112,Nordeste,NA,Itapoa,-12.952339000000000,-38.369608999999997,NA,NA,NA,NA,NA,10000.000000000000000,113,62831.853071795863798,314159265.358979284763336,36.337988626341300,0.115667410237986
114,113,Nordeste,NA,Seper,-12.952040999999999,-38.343243999999999,NA,NA,NA,NA,NA,10000.000000000000000,114,62831.853071795863798,314159265.358979284763336,56.172412377884200,0.178802341906733
115,114,Nordeste,NA,Corrente,-12.948985000000000,-38.339199999999998,NA,NA,NA,NA,NA,10000.000000000000000,115,62831.853071795863798,314159265.358979284763336,60.810061994960598,0.193564439124452
116,115,Nordeste,NA,Stela Maris,-12.947385000000001,-38.337372000000002,NA,NA,NA,NA,NA,10000.000000000000000,116,62831.853071795863798,314159265.358979284763336,63.072261819389702,0.200765244810842
117,116,Nordeste,NA,Plator,-12.946393000000000,-38.333083999999999,NA,NA,NA,NA,NA,10000.000000000000000,117,62831.853071795863798,314159265.358979284763336,67.393431282614102,0.214519954411040
118,117,Nordeste,NA,Aleluia,-12.926800999999999,-38.312618999999998,NA,NA,NA,NA,NA,10000.000000000000000,118,62831.853071795863798,314159265.358979284763336,95.721763665247593,0.304691836975967
119,118,Nordeste,NA,Ipitanga,-12.920477000000000,-38.309717999999997,NA,NA,NA,NA,NA,10000.000000000000000,119,62831.853071795863798,314159265.358979284763336,101.182682535230995,0.322074481615600
120,119,Nordeste,NA,Vilas,-12.894546000000000,-38.290790999999999,NA,NA,NA,NA,NA,10000.000000000000000,120,62831.853071795863798,314159265.358979284763336,131.854597797407990,0.419706220177025
121,120,Nordeste,NA,Busca Vida,-12.863464000000000,-38.255961999999997,NA,NA,NA,NA,NA,10000.000000000000000,121,62831.853071795863798,314159265.358979284763336,161.181895761303991,0.513057908946683
122,121,Nordeste,NA,Itacimirim,-12.639232000000000,-38.048194000000002,NA,NA,NA,NA,NA,10000.000000000000000,122,62831.853071795863798,314159265.358979284763336,206.182839478401007,0.656300361674207
123,122,Nordeste,NA,Praia do Forte,-12.583304999999999,-38.005077999999997,NA,NA,NA,NA,NA,10000.000000000000000,123,62831.853071795863798,314159265.358979284763336,245.931089551626002,0.782822971242338
124,123,Nordeste,NA,Imbassai,-12.342055000000000,-37.846200000000003,NA,NA,NA,NA,NA,10000.000000000000000,124,62831.853071795863798,314159265.358979284763336,301.540390439534008,0.959832873606240
125,124,Nordeste,NA,Costa do Sauipe,-12.022171000000000,-37.645508000000000,NA,NA,NA,NA,NA,10000.000000000000000,125,62831.853071795863798,314159265.358979284763336,302.531086807189979,0.962986358086552
126,125,Nordeste,NA,Marlin,-11.939802999999999,-37.602476000000003,NA,NA,NA,NA,NA,10000.000000000000000,126,62831.853071795863798,314159265.358979284763336,300.657966480292998,0.957024030905921
127,126,Nordeste,NA,Conde,-11.848141000000000,-37.558169999999997,NA,NA,NA,NA,NA,10000.000000000000000,127,62831.853071795863798,314159265.358979284763336,299.697999438800025,0.953968360908743
128,127,Nordeste,NA,Mangue Seco,-11.483613999999999,-37.364454000000002,NA,NA,NA,NA,NA,10000.000000000000000,128,62831.853071795863798,314159265.358979284763336,184.615607832818000,0.587649731170157
129,128,Nordeste,NA,Mosqueiro,-11.138116000000000,-37.145493000000002,NA,NA,NA,NA,NA,10000.000000000000000,129,62831.853071795863798,314159265.358979284763336,7.622456648958110,0.024263033083707
130,129,Nordeste,NA,Aruana,-11.067069000000000,-37.101289000000001,NA,NA,NA,NA,NA,10000.000000000000000,130,62831.853071795863798,314159265.358979284763336,0.384076606535296,0.001222553809121
131,130,Nordeste,NA,Hawaiizinho,-11.043927999999999,-37.082977999999997,NA,NA,NA,NA,NA,10000.000000000000000,131,62831.853071795863798,314159265.358979284763336,1.524072672883950,0.004851273990415
132,131,Nordeste,NA,Praia do Meio,-10.999541000000001,-37.050151000000000,NA,NA,NA,NA,NA,10000.000000000000000,132,62831.853071795863798,314159265.358979284763336,1.731332931635690,0.005511003884152
133,132,Nordeste,NA,Pirambu,-10.746346000000001,-36.855099000000003,NA,NA,NA,NA,NA,10000.000000000000000,133,62831.853071795863798,314159265.358979284763336,19.947359267490800,0.063494416581022
134,133,Nordeste,NA,Ponta do Mangue,-10.639483000000000,-36.678539000000001,NA,NA,NA,NA,NA,10000.000000000000000,134,62831.853071795863798,314159265.358979284763336,24.455362629613600,0.077843836952156
135,134,Nordeste,NA,Pontal de Peba,-10.367584000000001,-36.303941000000002,NA,NA,NA,NA,NA,10000.000000000000000,135,62831.853071795863798,314159265.358979284763336,117.659942667622005,0.374523229589221
136,135,Nordeste,NA,Mihai,-10.196728000000000,-36.181641999999997,NA,NA,NA,NA,NA,10000.000000000000000,136,62831.853071795863798,314159265.358979284763336,0.000000000000000,0.000000000000000
137,136,Nordeste,NA,Pontal do Coruripe,-10.160774999999999,-36.150663999999999,NA,NA,NA,NA,NA,10000.000000000000000,137,62831.853071795863798,314159265.358979284763336,0.138854382855725,0.000441987228029
138,137,Nordeste,NA,Forjos,-10.107661999999999,-36.097672000000003,NA,NA,NA,NA,NA,10000.000000000000000,138,62831.853071795863798,314159265.358979284763336,1.149008867357260,0.003657408817927
139,138,Nordeste,NA,Poxim,-10.063563000000000,-36.040908999999999,NA,NA,NA,NA,NA,10000.000000000000000,139,62831.853071795863798,314159265.358979284763336,50.556210286551298,0.160925415421959
140,139,Nordeste,NA,Jacarecica,-9.916383000000000,-35.945963999999996,NA,NA,NA,NA,NA,10000.000000000000000,140,62831.853071795863798,314159265.358979284763336,36.245985755010899,0.115374556002968
141,140,Nordeste,NA,Praia do Meio,-9.824446999999999,-35.877803000000000,NA,NA,NA,NA,NA,10000.000000000000000,141,62831.853071795863798,314159265.358979284763336,13.965515269431600,0.044453615759108
142,141,Nordeste,NA,Praia do Pontal,-9.682589999999999,-35.758536999999997,NA,NA,NA,NA,NA,10000.000000000000000,142,62831.853071795863798,314159265.358979284763336,70.542077535396601,0.224542406714603
143,142,Nordeste,NA,Salgema,-9.679629000000000,-35.718974000000003,NA,NA,NA,NA,NA,10000.000000000000000,143,62831.853071795863798,314159265.358979284763336,32.905223913738098,0.104740580788341
144,143,Nordeste,NA,Pier do Emissario,-9.673301000000000,-35.715234000000002,NA,NA,NA,NA,NA,10000.000000000000000,144,62831.853071795863798,314159265.358979284763336,29.564110302258602,0.094105485854370
145,144,Nordeste,NA,Praia do Sobral,-9.666869000000000,-35.710735000000000,NA,NA,NA,NA,NA,10000.000000000000000,145,62831.853071795863798,314159265.358979284763336,25.497786986743701,0.081161976736889
146,145,Nordeste,NA,"Pico da Barra, Brazil",-9.665630000000000,-35.697186000000002,NA,NA,NA,NA,NA,10000.000000000000000,146,62831.853071795863798,314159265.358979284763336,13.200365592972100,0.042018068694834
147,146,Nordeste,NA,Pedra Virada,-9.585521999999999,-35.660038000000000,NA,NA,NA,NA,NA,10000.000000000000000,147,62831.853071795863798,314159265.358979284763336,22.043469748300900,0.070166543466775
148,147,Nordeste,NA,Praia de Jatiuca,-9.531449000000000,-35.590927999999998,NA,NA,NA,NA,NA,10000.000000000000000,148,62831.853071795863798,314159265.358979284763336,129.797066680283990,0.413156895219911
149,148,Nordeste,NA,Garca Torta,-9.487114000000000,-35.557476999999999,NA,NA,NA,NA,NA,10000.000000000000000,149,62831.853071795863798,314159265.358979284763336,163.555203258834013,0.520612381340863
150,149,Nordeste,NA,Mirante da Sirena,-9.430906000000000,-35.503683000000002,NA,NA,NA,NA,NA,10000.000000000000000,150,62831.853071795863798,314159265.358979284763336,186.498139395963989,0.593642015246181
151,150,Nordeste,NA,Japaratinga,-9.261582000000001,-35.353366000000001,NA,NA,NA,NA,NA,10000.000000000000000,151,62831.853071795863798,314159265.358979284763336,176.904339410744996,0.563104001432530
152,151,Nordeste,NA,Impossivel,-8.615505000000001,-35.020375000000001,NA,NA,NA,NA,NA,10000.000000000000000,152,62831.853071795863798,314159265.358979284763336,262.713962026899026,0.836244513516750
153,152,Nordeste,NA,Serrambi,-8.576358000000001,-35.028714999999998,NA,NA,NA,NA,NA,10000.000000000000000,153,62831.853071795863798,314159265.358979284763336,185.154316929613003,0.589364495483027
154,153,Nordeste,NA,Porto de Galinhas,-8.488678000000000,-34.999501000000002,NA,NA,NA,NA,NA,10000.000000000000000,154,62831.853071795863798,314159265.358979284763336,50.598462493407403,0.161059908373513
155,154,Nordeste,NA,Cupe,-8.479708000000000,-34.996577000000002,NA,NA,NA,NA,NA,10000.000000000000000,155,62831.853071795863798,314159265.358979284763336,40.660241814681399,0.129425569442367
156,155,Nordeste,NA,Gaibu,-8.341567000000000,-34.948825999999997,NA,NA,NA,NA,NA,10000.000000000000000,156,62831.853071795863798,314159265.358979284763336,12.535098417562200,0.039900457505968
157,156,Nordeste,NA,Bessa,-7.091138000000000,-34.832765000000002,NA,NA,NA,NA,NA,10000.000000000000000,157,62831.853071795863798,314159265.358979284763336,7.642622985860890,0.024327224527750
158,157,Nordeste,NA,Saji,-6.466880000000000,-34.970449000000002,NA,NA,NA,NA,NA,10000.000000000000000,158,62831.853071795863798,314159265.358979284763336,16.680119996319501,0.053094470975604
159,158,Nordeste,NA,Farol,-6.408908000000000,-34.979016999999999,NA,NA,NA,NA,NA,10000.000000000000000,159,62831.853071795863798,314159265.358979284763336,20.388585170517199,0.064898882250759
160,159,Nordeste,NA,Xilauzinho,-6.395101000000000,-34.983204999999998,NA,NA,NA,NA,NA,10000.000000000000000,160,62831.853071795863798,314159265.358979284763336,20.388585170517199,0.064898882250759
161,160,Nordeste,NA,Mar Aberto,-6.379758000000000,-34.989437000000002,NA,NA,NA,NA,NA,10000.000000000000000,161,62831.853071795863798,314159265.358979284763336,20.388585170517199,0.064898882250759
162,161,Nordeste,NA,Pontal,-6.368680000000000,-34.993423999999997,NA,NA,NA,NA,NA,10000.000000000000000,162,62831.853071795863798,314159265.358979284763336,20.388585170517199,0.064898882250759
163,162,Nordeste,NA,Mar da Frente,-6.365217000000000,-35.006211999999998,NA,NA,NA,NA,NA,10000.000000000000000,163,62831.853071795863798,314159265.358979284763336,20.538084332648900,0.065374752863586
164,163,Nordeste,NA,Lajinha,-6.278960000000000,-35.033028000000002,NA,NA,NA,NA,NA,10000.000000000000000,164,62831.853071795863798,314159265.358979284763336,25.207073588421899,0.080236607249570
165,164,Nordeste,NA,Afogados,-6.244350000000000,-35.036464000000002,NA,NA,NA,NA,NA,10000.000000000000000,165,62831.853071795863798,314159265.358979284763336,36.469506538467499,0.116086044754386
166,165,Nordeste,NA,Sororoca,-6.238074000000000,-35.035608000000003,NA,NA,NA,NA,NA,10000.000000000000000,166,62831.853071795863798,314159265.358979284763336,38.094646765390401,0.121259026761031
167,166,Nordeste,NA,Abacateiro,-6.233891000000000,-35.036746999999998,NA,NA,NA,NA,NA,10000.000000000000000,167,62831.853071795863798,314159265.358979284763336,40.263817591538398,0.128163711948875
168,167,Nordeste,NA,Tibau do Sul,-6.180279000000000,-35.089708999999999,NA,NA,NA,NA,NA,10000.000000000000000,168,62831.853071795863798,314159265.358979284763336,105.945984263265998,0.337236541924699
169,168,Nordeste,NA,Tabatinga,-6.049479000000000,-35.108238000000000,NA,NA,NA,NA,NA,10000.000000000000000,169,62831.853071795863798,314159265.358979284763336,156.416077075570996,0.497887836912401
170,169,Nordeste,NA,Xoxoline,-6.005800000000000,-35.105258999999997,NA,NA,NA,NA,NA,10000.000000000000000,170,62831.853071795863798,314159265.358979284763336,115.875134473277996,0.368842008657206
171,170,Nordeste,NA,Pirangi Reef,-5.980259000000000,-35.107796000000000,NA,NA,NA,NA,NA,10000.000000000000000,171,62831.853071795863798,314159265.358979284763336,92.981428220127498,0.295969078339551
172,171,Nordeste,NA,Cotovelo,-5.949906000000000,-35.151975000000000,NA,NA,NA,NA,NA,10000.000000000000000,172,62831.853071795863798,314159265.358979284763336,98.289034974646995,0.312863715358945
173,172,Nordeste,NA,Miami,-5.794834000000000,-35.181663999999998,NA,NA,NA,NA,NA,10000.000000000000000,173,62831.853071795863798,314159265.358979284763336,9.308598776163240,0.029630190169711
174,173,Nordeste,NA,Areia Preta,-5.792249000000000,-35.184387000000001,NA,NA,NA,NA,NA,10000.000000000000000,174,62831.853071795863798,314159265.358979284763336,10.969958299682601,0.034918461778129
175,174,Nordeste,NA,Praia dos Artistas,-5.781239000000000,-35.192050000000002,NA,NA,NA,NA,NA,10000.000000000000000,175,62831.853071795863798,314159265.358979284763336,16.621370419514498,0.052907465264543
176,175,Nordeste,NA,Genipabu,-5.694407000000000,-35.201922000000003,NA,NA,NA,NA,NA,10000.000000000000000,176,62831.853071795863798,314159265.358979284763336,18.723247758654900,0.059597948630484
177,176,Nordeste,NA,Touros Area,-5.197434000000000,-35.457929999999998,NA,NA,NA,NA,NA,10000.000000000000000,177,62831.853071795863798,314159265.358979284763336,140.715401001482007,0.447911032770883
178,177,Nordeste,NA,Urca da Concei&ccedil;&atilde;o,-5.069617000000000,-35.800230999999997,NA,NA,NA,NA,NA,10000.000000000000000,178,62831.853071795863798,314159265.358979284763336,0.000000000000000,0.000000000000000
179,178,Nordeste,NA,Cocoa das Lavadeiras,-5.066515000000000,-35.862005000000003,NA,NA,NA,NA,NA,10000.000000000000000,179,62831.853071795863798,314159265.358979284763336,0.000000000000000,0.000000000000000
180,179,Nordeste,NA,Baia das Ratas,-3.813000000000000,-32.393000000000001,NA,NA,NA,NA,NA,10000.000000000000000,180,62831.853071795863798,314159265.358979284763336,271.658087634171011,0.864714549557393
181,180,Nordeste,NA,Volta da Jurema,-3.724294000000000,-38.496071999999998,NA,NA,NA,NA,NA,10000.000000000000000,181,62831.853071795863798,314159265.358979284763336,13.056795948390700,0.041561072322572
182,181,Nordeste,NA,Portao,-3.719326000000000,-38.510655000000000,NA,NA,NA,NA,NA,10000.000000000000000,182,62831.853071795863798,314159265.358979284763336,11.677282097335700,0.037169943353389
183,182,Nordeste,NA,Barra do Ceara,-3.692659000000000,-38.584716000000000,NA,NA,NA,NA,NA,10000.000000000000000,183,62831.853071795863798,314159265.358979284763336,31.231435556312000,0.099412746972861
184,183,Nordeste,NA,Praia do Pecem,-3.546170000000000,-38.806919000000001,NA,NA,NA,NA,NA,10000.000000000000000,184,62831.853071795863798,314159265.358979284763336,40.512462465709099,0.128955173164850
185,184,Nordeste,NA,Tabinha,-3.500935000000000,-38.911282000000000,NA,NA,NA,NA,NA,10000.000000000000000,185,62831.853071795863798,314159265.358979284763336,89.128518253080799,0.283704885008681
186,185,Nordeste,NA,Pedra do Meio,-3.410858000000000,-39.040807000000001,NA,NA,NA,NA,NA,10000.000000000000000,186,62831.853071795863798,314159265.358979284763336,4.439858179752700,0.014132507518693
187,186,Nordeste,NA,Havaizinho,-3.403507000000000,-39.022171000000000,NA,NA,NA,NA,NA,10000.000000000000000,187,62831.853071795863798,314159265.358979284763336,10.063953098033700,0.032034557651941
188,187,Nordeste,NA,Curral,-3.403353000000000,-39.025868000000003,NA,NA,NA,NA,NA,10000.000000000000000,188,62831.853071795863798,314159265.358979284763336,8.597064986296370,0.027365307773027
189,188,Nordeste,NA,Outside,-3.398539000000000,-39.013306000000000,NA,NA,NA,NA,NA,10000.000000000000000,189,62831.853071795863798,314159265.358979284763336,11.605741407081901,0.036942222263668
190,189,Nordeste,NA,Atins,-2.555789000000000,-42.727836000000003,NA,NA,NA,NA,NA,10000.000000000000000,190,62831.853071795863798,314159265.358979284763336,124.083431469521997,0.394969829483578
191,190,Nordeste,NA,Ponta d'Areia,-2.497384000000000,-44.311779000000001,NA,NA,NA,NA,NA,10000.000000000000000,191,62831.853071795863798,314159265.358979284763336,24.874266085990200,0.079177248067369
192,191,Nordeste,NA,S&atilde;o Marcos,-2.485445000000000,-44.297899999999998,NA,NA,NA,NA,NA,10000.000000000000000,192,62831.853071795863798,314159265.358979284763336,16.147106044700699,0.051397834872863
193,192,Nordeste,NA,Calhau,-2.480673000000000,-44.249679999999998,NA,NA,NA,NA,NA,10000.000000000000000,193,62831.853071795863798,314159265.358979284763336,12.238328521758801,0.038955809588409
194,193,Nordeste,NA,Olho D'Agu,-2.477097000000000,-44.230155000000003,NA,NA,NA,NA,NA,10000.000000000000000,194,62831.853071795863798,314159265.358979284763336,28.817529691603401,0.091729045962323
195,194,Nordeste,NA,Ponta do Farol,-2.456442000000000,-44.173347999999997,NA,NA,NA,NA,NA,10000.000000000000000,195,62831.853071795863798,314159265.358979284763336,130.253647562916996,0.414610237307757
196,195,Sul,Rio Grande Do Sul,Hermenegildo,-33.668354000000001,-53.262405000000001,3,3,Right and left,Beach-break,All surfers,10000.000000000000000,196,62831.853071795863798,314159265.358979284763336,0.000000000000000,0.000000000000000
197,196,Sul,Rio Grande Do Sul,Navio,-32.290560999999997,-52.258674999999997,3,2,Right and left,Beach-break,All surfers,10000.000000000000000,197,62831.853071795863798,314159265.358979284763336,0.000000000000000,0.000000000000000
198,197,Sul,Rio Grande Do Sul,Tres Marias,-32.192610999999999,-52.085065999999998,5,2,Right and left,Sand-bar,Pros or kamikaze only...,10000.000000000000000,198,62831.853071795863798,314159265.358979284763336,0.241763953320447,0.000769558564648
199,198,Sul,Rio Grande Do Sul,Praia do Cassino,-32.178336999999999,-52.142142999999997,3,2,Right and left,Sand-bar,All surfers,10000.000000000000000,199,62831.853071795863798,314159265.358979284763336,4.950113674721690,0.015756701203975
200,199,Sul,Rio Grande Do Sul,Sao Jose do Norte,-32.008076000000003,-52.018889999999999,3,NA,Right and left,Beach-break,All surfers,10000.000000000000000,200,62831.853071795863798,314159265.358979284763336,0.000000000000000,0.000000000000000
201,200,Sul,Rio Grande Do Sul,Quintão,-30.410782000000001,-50.292664000000002,3.5,3,Right and left,Sand-bar,Experienced surfers,10000.000000000000000,201,62831.853071795863798,314159265.358979284763336,0.000000000000000,0.000000000000000
202,201,Sul,Rio Grande Do Sul,Nova Tramandaí,-30.045256999999999,-50.150033999999998,3,3,Right and left,Beach-break,All surfers,10000.000000000000000,202,62831.853071795863798,314159265.358979284763336,0.000000000000000,0.000000000000000
203,202,Sul,Rio Grande Do Sul,Oasis Sul,-30.039822999999998,-50.147266000000002,3,3,Right and left,Beach-break,All surfers,10000.000000000000000,203,62831.853071795863798,314159265.358979284763336,0.000000000000000,0.000000000000000
204,203,Sul,Rio Grande Do Sul,Tramandai - Malvina,-30.005490000000002,-50.129156000000002,3.5,3,Right and left,Beach-break,All surfers,10000.000000000000000,204,62831.853071795863798,314159265.358979284763336,0.000000000000000,0.000000000000000
205,204,Sul,Rio Grande Do Sul,Tramandai,-29.993077000000000,-50.125508000000004,3,3,Right and left,Beach-break,All surfers,10000.000000000000000,205,62831.853071795863798,314159265.358979284763336,0.000000000000000,0.000000000000000
206,205,Sul,Rio Grande Do Sul,Rainha do Mar,-29.859477999999999,-50.064568999999999,3.5,5,Right and left,Beach-break,All surfers,10000.000000000000000,206,62831.853071795863798,314159265.358979284763336,0.000000000000000,0.000000000000000
207,206,Sul,Rio Grande Do Sul,Xangri-lá,-29.785982000000001,-50.024636000000001,3,3,Right and left,Beach-break,All surfers,10000.000000000000000,207,62831.853071795863798,314159265.358979284763336,0.000000000000000,0.000000000000000
208,207,Sul,Rio Grande Do Sul,Atlântida - Pier,-29.784716000000000,-50.022554000000000,3,3,Right and left,Sand-bar,All surfers,10000.000000000000000,208,62831.853071795863798,314159265.358979284763336,0.000000000000000,0.000000000000000
209,208,Sul,Rio Grande Do Sul,Capao da Canoa,-29.758676999999999,-50.010967000000001,3,3,Right and left,Sand-bar,All surfers,10000.000000000000000,209,62831.853071795863798,314159265.358979284763336,0.000000000000000,0.000000000000000
210,209,Sul,Rio Grande Do Sul,Capao Novo,-29.686972000000001,-49.972558999999997,3,3,Right and left,Beach-break,All surfers,10000.000000000000000,210,62831.853071795863798,314159265.358979284763336,0.000000000000000,0.000000000000000
211,210,Sul,Rio Grande Do Sul,Curumim,-29.625605000000000,-49.935744999999997,3,4,Right and left,Beach-break,Experienced surfers,10000.000000000000000,211,62831.853071795863798,314159265.358979284763336,0.000000000000000,0.000000000000000
212,211,Sul,Rio Grande Do Sul,Itapeva,-29.372975000000000,-49.784109999999998,3,3,Right and left,Beach-break,All surfers,10000.000000000000000,212,62831.853071795863798,314159265.358979284763336,11.329743105671000,0.036063692384577
213,212,Sul,Rio Grande Do Sul,Guarita,-29.357804999999999,-49.733997000000002,3,2,Right and left,Beach-break,All surfers,10000.000000000000000,213,62831.853071795863798,314159265.358979284763336,11.433358869327501,0.036393511603941
214,213,Sul,Rio Grande Do Sul,Cal,-29.349421000000000,-49.729849999999999,3.5,3,Right and left,Beach-break,All surfers,10000.000000000000000,214,62831.853071795863798,314159265.358979284763336,11.433358869327501,0.036393511603941
215,214,Sul,Rio Grande Do Sul,Ilha dos Lobos,-29.346876999999999,-49.704411999999998,5,2,Left,Reef-rocky,Pros or kamikaze only...,10000.000000000000000,215,62831.853071795863798,314159265.358979284763336,11.433358869327501,0.036393511603941
216,215,Sul,Rio Grande Do Sul,Prainha,-29.342434999999998,-49.724497000000000,3.5,3,Right and left,Beach-break,Experienced surfers,10000.000000000000000,216,62831.853071795863798,314159265.358979284763336,11.433358869327501,0.036393511603941
217,216,Sul,Rio Grande Do Sul,Saraiva,-29.340395999999998,-49.723241000000002,3.5,3,Right and left,Beach-break,Experienced surfers,10000.000000000000000,217,62831.853071795863798,314159265.358979284763336,11.433358869327501,0.036393511603941
218,217,Sul,Rio Grande Do Sul,Molhes,-29.327311000000002,-49.712007999999997,3.5,3,Right and left,Beach-break,All surfers,10000.000000000000000,218,62831.853071795863798,314159265.358979284763336,11.433358869327501,0.036393511603941
219,218,Sul,Rio Grande Do Sul,Passo de Torres,-29.324159000000002,-49.712415999999997,3.5,2,Right and left,Rivermouth,Experienced surfers,10000.000000000000000,219,62831.853071795863798,314159265.358979284763336,11.405613530011300,0.036305195445942
220,219,Sul,Santa Catarina South,Gaivota,-29.164828000000000,-49.582157000000002,3,2,Right and left,Beach-break,Experienced surfers,10000.000000000000000,220,62831.853071795863798,314159265.358979284763336,0.000000000000000,0.000000000000000
221,220,Sul,Santa Catarina South,Arroio do Silva,-28.943866000000000,-49.385604999999998,3.5,2,Right and left,Beach-break,Experienced surfers,10000.000000000000000,221,62831.853071795863798,314159265.358979284763336,0.140023316490973,0.000445708059353
222,221,Sul,Santa Catarina South,Morro dos Conventos,-28.937256000000001,-49.329642999999997,3.5,3,Right and left,Beach-break,All surfers,10000.000000000000000,222,62831.853071795863798,314159265.358979284763336,0.000000000000000,0.000000000000000
223,222,Sul,Santa Catarina South,Rincão,-28.833846999999999,-49.216003000000001,3.5,4,Right and left,Beach-break,Experienced surfers,10000.000000000000000,223,62831.853071795863798,314159265.358979284763336,56.727693767779797,0.180569857466909
224,223,Sul,Santa Catarina South,Jaguaruna,-28.635157000000000,-48.948211999999998,3.5,3,Right and left,Beach-break,All surfers,10000.000000000000000,224,62831.853071795863798,314159265.358979284763336,150.347230247596997,0.478570097481608
225,224,Sul,Santa Catarina South,Camacho,-28.615946000000001,-48.859506000000003,3,2,NA,Beach-break,All surfers,10000.000000000000000,225,62831.853071795863798,314159265.358979284763336,216.805139803911004,0.690112193750438
226,225,Sul,Santa Catarina South,Cigana,-28.613534999999999,-48.845387000000002,3,3,Right and left,Beach-break,Experienced surfers,10000.000000000000000,226,62831.853071795863798,314159265.358979284763336,218.375056181794008,0.695109392786058
227,226,Sul,Santa Catarina South,Cardozo,-28.607516000000000,-48.822994999999999,3.5,4,Right and left,Beach-break,All surfers,10000.000000000000000,227,62831.853071795863798,314159265.358979284763336,212.759303376530994,0.677233896423262
228,227,Sul,Santa Catarina South,Cemiterio,-28.604341999999999,-48.811998000000003,5,1,Right,Point-break,Pros or kamikaze only...,10000.000000000000000,228,62831.853071795863798,314159265.358979284763336,205.428404558949012,0.653898920740768
229,228,Sul,Santa Catarina South,Prainha do Farol,-28.600442000000001,-48.816654999999997,3,1,Right,Beach-break,All surfers,10000.000000000000000,229,62831.853071795863798,314159265.358979284763336,215.097773936936989,0.684677479402532
230,229,Sul,Santa Catarina South,Ipoa,-28.536688999999999,-48.765521000000000,3,4,Right and left,Beach-break,All surfers,10000.000000000000000,230,62831.853071795863798,314159265.358979284763336,173.147841851613009,0.551146698327560
231,230,Sul,Santa Catarina South,Teresa,-28.524982000000001,-48.762453000000001,3,3,Right and left,Beach-break,All surfers,10000.000000000000000,231,62831.853071795863798,314159265.358979284763336,168.442736165502993,0.536169881773276
232,231,Sul,Santa Catarina South,Praia de Cima,-28.497350000000001,-48.748752000000003,3.5,2,Right and left,Beach-break,All surfers,10000.000000000000000,232,62831.853071795863798,314159265.358979284763336,156.752851823826006,0.498959824230267
233,232,Sul,Santa Catarina South,Laguna,-28.473973000000001,-48.762645999999997,3.5,3,Right and left,Beach-break,All surfers,10000.000000000000000,233,62831.853071795863798,314159265.358979284763336,152.050847961945010,0.483992881089156
234,233,Sul,Santa Catarina South,Cavalinho,-28.419032000000001,-48.744278000000001,3.5,3,Right,Point-break,Experienced surfers,10000.000000000000000,234,62831.853071795863798,314159265.358979284763336,141.166754809581988,0.449347736563732
235,234,Sul,Santa Catarina South,Itapirubá,-28.342309000000000,-48.707799999999999,3.5,4,Right and left,Beach-break,All surfers,10000.000000000000000,235,62831.853071795863798,314159265.358979284763336,162.007278243098995,0.515685182985066
236,235,Sul,Santa Catarina South,Itapirubá Norte,-28.336776000000000,-48.704709999999999,3.5,3,Right and left,Beach-break,All surfers,10000.000000000000000,236,62831.853071795863798,314159265.358979284763336,161.713490835574987,0.514750028622554
237,236,Sul,Santa Catarina South,Castelinho,-28.256232000000001,-48.672694999999997,4,4,Right and left,Beach-break,Experienced surfers,10000.000000000000000,237,62831.853071795863798,314159265.358979284763336,142.497255178334996,0.453582850773184
238,237,Sul,Santa Catarina South,Praia da Vila,-28.241149000000000,-48.653877000000001,4,4,Right and left,Sand-bar,Experienced surfers,10000.000000000000000,238,62831.853071795863798,314159265.358979284763336,157.937501276597999,0.502730680555063
239,238,Sul,Santa Catarina South,Ribanceira,-28.191742000000001,-48.661344000000000,3,2,Right and left,Sand-bar,All surfers,10000.000000000000000,239,62831.853071795863798,314159265.358979284763336,123.475977573250006,0.393036243677735
240,239,Sul,Santa Catarina South,Ibiraquera,-28.153732000000002,-48.645895000000003,4,4,Right and left,Point-break,Experienced surfers,10000.000000000000000,240,62831.853071795863798,314159265.358979284763336,144.801571649376996,0.460917717909473
241,240,Sul,Santa Catarina South,Rosa Sul,-28.135401999999999,-48.642691999999997,3.5,4,Right and left,Beach-break,All surfers,10000.000000000000000,241,62831.853071795863798,314159265.358979284763336,147.709944833652997,0.470175357282141
242,241,Sul,Santa Catarina South,Rosa Norte,-28.124375000000001,-48.637675999999999,3.5,2,Right and left,Beach-break,All surfers,10000.000000000000000,242,62831.853071795863798,314159265.358979284763336,150.496658122322003,0.479045741179572
243,242,Sul,Santa Catarina South,Vermelha,-28.114457999999999,-48.635573000000001,3.5,2,Left,Beach-break,Experienced surfers,10000.000000000000000,243,62831.853071795863798,314159265.358979284763336,147.823837885549011,0.470537890126003
244,243,Sul,Santa Catarina South,Ouvidor,-28.105449000000000,-48.635272999999998,2,2,Right and left,Beach-break,Beginners wave,10000.000000000000000,244,62831.853071795863798,314159265.358979284763336,141.453501168877011,0.450260478573640
245,244,Sul,Santa Catarina South,Barrinha,-28.085384000000001,-48.630896000000000,3.5,3,Right and left,Beach-break,NA,10000.000000000000000,245,62831.853071795863798,314159265.358979284763336,138.574933681850013,0.441097713681961
246,245,Sul,Santa Catarina South,Ferrugem,-28.077736000000002,-48.626604000000000,3.5,4,Right and left,Sand-bar,All surfers,10000.000000000000000,246,62831.853071795863798,314159265.358979284763336,144.639801397750006,0.460402787205639
247,246,Sul,Santa Catarina South,Praia do Silveira,-28.039069000000001,-48.606862999999997,4,4,Right,Point-break,Pros or kamikaze only...,10000.000000000000000,247,62831.853071795863798,314159265.358979284763336,167.116053141441000,0.531946918549365
248,247,Sul,Santa Catarina South,Garopaba Centro,-28.021577000000001,-48.619447999999998,3,2,Right and left,Beach-break,All surfers,10000.000000000000000,248,62831.853071795863798,314159265.358979284763336,145.966269675743007,0.464625066871583
249,248,Sul,Santa Catarina South,Siriu,-27.976248999999999,-48.627999000000003,3.5,3,Right and left,Beach-break,All surfers,10000.000000000000000,249,62831.853071795863798,314159265.358979284763336,139.228446629980994,0.443177910003353
250,249,Sul,Santa Catarina South,Gamboa,-27.958926999999999,-48.624662000000001,3.5,1,Right and left,Beach-break,All surfers,10000.000000000000000,250,62831.853071795863798,314159265.358979284763336,150.830690353519003,0.480108998794513
251,250,Sul,Santa Catarina South,Guarda do embau,-27.905540999999999,-48.586779000000000,4,3,Left,Rivermouth,Experienced surfers,10000.000000000000000,251,62831.853071795863798,314159265.358979284763336,223.850139045276990,0.712537122817279
252,251,Sul,Santa Catarina South,Costão da Pinheira,-27.881077000000001,-48.586542999999999,3.5,1,Right,Point-break,Experienced surfers,10000.000000000000000,252,62831.853071795863798,314159265.358979284763336,212.600709513326990,0.676729076477803
253,252,Sul,Florianopolis,Naufragados,-27.834740000000000,-48.566747999999997,5,3,Right,Beach-break,Pros or kamikaze only...,10000.000000000000000,253,62831.853071795863798,314159265.358979284763336,188.258029948654013,0.599243920861408
254,253,Sul,Santa Catarina South,Solidao - Caladinho,-27.793519000000000,-48.533456000000001,3.5,3,Right,Point-break,Experienced surfers,10000.000000000000000,254,62831.853071795863798,314159265.358979284763336,155.437254884847988,0.494772149111169
255,254,Sul,Santa Catarina South,Praia dos Açores,-27.784758000000000,-48.525989000000003,3,3,Right and left,Beach-break,All surfers,10000.000000000000000,255,62831.853071795863798,314159265.358979284763336,140.302063298679002,0.446595337999536
256,255,Sul,Florianopolis,Lagoinha do Leste,-27.773575999999998,-48.486528000000000,3.5,4,Right and left,Beach-break,All surfers,10000.000000000000000,256,62831.853071795863798,314159265.358979284763336,124.238187653292997,0.395462433716002
257,256,Sul,Florianopolis,Matadeiro,-27.755140000000001,-48.498522999999999,3.5,4,Right and left,Beach-break,Experienced surfers,10000.000000000000000,257,62831.853071795863798,314159265.358979284763336,99.219722997499005,0.315826187345212
258,257,Sul,Florianopolis,Armação,-27.741619000000000,-48.508114999999997,3,2,Right and left,Beach-break,All surfers,10000.000000000000000,258,62831.853071795863798,314159265.358979284763336,84.280888530707799,0.268274400356784
259,258,Sul,Florianopolis,Caldeirao,-27.723690000000001,-48.504595999999999,3.5,3,Left,Beach-break,Experienced surfers,10000.000000000000000,259,62831.853071795863798,314159265.358979284763336,71.317991667183506,0.227012218104377
260,259,Sul,Florianopolis,Morro das Pedras,-27.715522000000000,-48.502257000000000,3,4,Right and left,Sand-bar,Experienced surfers,10000.000000000000000,260,62831.853071795863798,314159265.358979284763336,68.665116427023605,0.218567853946826
261,260,Sul,Florianopolis,Campeche Rights,-27.693864000000001,-48.482686999999999,4,2,Right,Sand-bar,Experienced surfers,10000.000000000000000,261,62831.853071795863798,314159265.358979284763336,60.849062374810501,0.193688581189163
262,261,Sul,Florianopolis,Riozinho,-27.685523000000000,-48.479598000000003,5,3,Right and left,Beach-break,Experienced surfers,10000.000000000000000,262,62831.853071795863798,314159265.358979284763336,57.927089960106898,0.184387654121598
263,262,Sul,Florianopolis,Joaquina,-27.629588999999999,-48.448768000000001,4,4,Left,Sand-bar,Experienced surfers,10000.000000000000000,263,62831.853071795863798,314159265.358979284763336,50.541426983124701,0.160878358705648
264,263,Sul,Florianopolis,Praia Mole,-27.602475999999999,-48.432583999999999,3.5,3,Right and left,Sand-bar,All surfers,10000.000000000000000,264,62831.853071795863798,314159265.358979284763336,54.640487213093003,0.173926072658265
265,264,Sul,Florianopolis,Galheta,-27.593482000000002,-48.425224000000000,3.5,4,Right and left,Beach-break,All surfers,10000.000000000000000,265,62831.853071795863798,314159265.358979284763336,53.319869845948602,0.169722417019985
266,265,Sul,Florianopolis,Barra da Lagoa,-27.572818000000002,-48.424376000000002,3,3,Right and left,Beach-break,Beginners wave,10000.000000000000000,266,62831.853071795863798,314159265.358979284763336,59.296740433275403,0.188747386983857
267,266,Sul,Florianopolis,Mocambique,-27.525323000000000,-48.410567999999998,3.5,4,Right and left,Beach-break,All surfers,10000.000000000000000,267,62831.853071795863798,314159265.358979284763336,60.133517290976400,0.191410930447217
268,267,Sul,Santa Catarina South,Ponta das Aranhas,-27.482099999999999,-48.380892000000003,3.5,4,Right and left,Beach-break,All surfers,10000.000000000000000,268,62831.853071795863798,314159265.358979284763336,33.547585324931603,0.106785280665200
269,268,Sul,Florianopolis,Santinho,-27.457940000000001,-48.372630999999998,3.5,4,Right and left,Beach-break,Experienced surfers,10000.000000000000000,269,62831.853071795863798,314159265.358979284763336,26.067318769467899,0.082974852706259
270,269,Sul,Florianopolis,Canasvieiras,-27.430966000000002,-48.479661999999998,3.5,1,Right,Sand-bar,All surfers,10000.000000000000000,270,62831.853071795863798,314159265.358979284763336,45.291424823329500,0.144167082806157
271,270,Sul,Florianopolis,Praia do Forte,-27.430747000000000,-48.519658999999997,3.5,1,Right,Point-break,All surfers,10000.000000000000000,271,62831.853071795863798,314159265.358979284763336,57.831881170067497,0.184084595130387
272,271,Sul,Florianopolis,Ingleses,-27.429832999999999,-48.390569999999997,3,2,Right and left,Beach-break,All surfers,10000.000000000000000,272,62831.853071795863798,314159265.358979284763336,22.153265207809000,0.070516033268970
273,272,Sul,Florianopolis,Praia Brava,-27.400804000000001,-48.413401000000000,3.5,3,Right and left,Beach-break,Experienced surfers,10000.000000000000000,273,62831.853071795863798,314159265.358979284763336,15.877210857161399,0.050538731808591
274,273,Sul,Santa Catarina South,Praia Brava,-27.396440999999999,-48.414130000000000,3,4,Right and left,Sand-bar,All surfers,10000.000000000000000,274,62831.853071795863798,314159265.358979284763336,14.443781055472000,0.045975983038309
275,274,Sul,Florianopolis,Lambe lambe,-27.387601000000000,-48.433185000000002,4,1,Right,Point-break,Experienced surfers,10000.000000000000000,275,62831.853071795863798,314159265.358979284763336,10.948273654983799,0.034849437410269
276,275,Sul,Florianopolis,Ponta Do Rapa,-27.380837000000000,-48.420524999999998,4,1,Right,Reef-rocky,Pros or kamikaze only...,10000.000000000000000,276,62831.853071795863798,314159265.358979284763336,9.160847900603470,0.029159884525881
277,276,Sul,Santa Catarina North,Tingua,-27.368165999999999,-48.532501000000003,3.5,1,Left,Beach-break,Experienced surfers,10000.000000000000000,277,62831.853071795863798,314159265.358979284763336,37.896270424952100,0.120627575257567
278,277,Sul,Santa Catarina North,Palmas,-27.321984000000000,-48.535451999999999,3.5,2,Right and left,Beach-break,Experienced surfers,10000.000000000000000,278,62831.853071795863798,314159265.358979284763336,13.440360053494800,0.042781994788971
279,278,Sul,Santa Catarina North,Mariscal,-27.166504000000000,-48.494833000000000,3.5,3,Right and left,Beach-break,All surfers,10000.000000000000000,279,62831.853071795863798,314159265.358979284763336,9.482708654056671,0.030184399123868
280,279,Sul,Santa Catarina North,Quatro Ilhas,-27.156195000000000,-48.482923999999997,3.5,3,Right,Point-break,Experienced surfers,10000.000000000000000,280,62831.853071795863798,314159265.358979284763336,14.241433508901601,0.045331890793125
281,280,Sul,Santa Catarina North,Bombinhas,-27.148367000000000,-48.489531999999997,2,2,Right and left,Beach-break,Beginners wave,10000.000000000000000,281,62831.853071795863798,314159265.358979284763336,7.994423829372970,0.025447041392327
282,281,Sul,Santa Catarina North,Bombas,-27.140118000000001,-48.506784000000003,3,2,Right and left,Beach-break,All surfers,10000.000000000000000,282,62831.853071795863798,314159265.358979284763336,0.625514503472040,0.001991074504065
283,282,Sul,Santa Catarina North,Meia Praia,-27.104825000000002,-48.609009000000000,3,3,Right and left,Sand-bar,All surfers,10000.000000000000000,283,62831.853071795863798,314159265.358979284763336,26.099900517358400,0.083078563630886
284,283,Sul,Santa Catarina North,Itapema,-27.095541000000001,-48.609738000000000,3,3,Right and left,Beach-break,All surfers,10000.000000000000000,284,62831.853071795863798,314159265.358979284763336,26.022200400055500,0.082831236475935
285,284,Sul,Santa Catarina North,Ponta do Cabeço,-27.093436000000001,-48.601959999999998,4,2,Left,Reef-rocky,Experienced surfers,10000.000000000000000,285,62831.853071795863798,314159265.358979284763336,25.012147101016900,0.079616136969369
286,285,Sul,Santa Catarina North,Mocó,-27.080182000000001,-48.588451999999997,4,2,Left,Reef-rocky,Experienced surfers,10000.000000000000000,286,62831.853071795863798,314159265.358979284763336,21.327463000396399,0.067887423202452
287,286,Sul,Santa Catarina North,Estaleirinho,-27.049112000000001,-48.586779000000000,3,4,Right and left,Beach-break,Pros or kamikaze only...,10000.000000000000000,287,62831.853071795863798,314159265.358979284763336,13.366680002035800,0.042547463901032
288,287,Sul,Santa Catarina North,Estaleiro (reef),-27.025050000000000,-48.574064999999997,3.5,2,Left,Reef-rocky,Experienced surfers,10000.000000000000000,288,62831.853071795863798,314159265.358979284763336,5.921912774054360,0.018850033810996
289,288,Sul,Santa Catarina North,Balneário Camboriú,-26.987711999999998,-48.629950999999998,3,3,Right and left,Beach-break,All surfers,10000.000000000000000,289,62831.853071795863798,314159265.358979284763336,2.912335230827660,0.009270250958538
290,289,Sul,Santa Catarina North,Parcel,-26.976469000000002,-48.623170999999999,4,1,Right and left,Reef-rocky,Pros or kamikaze only...,10000.000000000000000,290,62831.853071795863798,314159265.358979284763336,1.708733809275520,0.005439068643489
291,290,Sul,Santa Catarina North,Praia dos Amores,-26.957191000000002,-48.629221999999999,3,2,Right and left,Beach-break,Experienced surfers,10000.000000000000000,291,62831.853071795863798,314159265.358979284763336,0.677076505053466,0.002155201452613
292,291,Sul,Santa Catarina North,Praia Brava,-26.941659999999999,-48.628234999999997,3,3,Right and left,Beach-break,Experienced surfers,10000.000000000000000,292,62831.853071795863798,314159265.358979284763336,0.677076505053466,0.002155201452613
293,292,Sul,Santa Catarina North,Morcego,-26.931052000000001,-48.625214999999997,3.5,NA,Left,Point-break,Pros or kamikaze only...,10000.000000000000000,293,62831.853071795863798,314159265.358979284763336,0.483747467344020,0.001539816012720
294,293,Sul,Santa Catarina North,Atalaia,-26.915163000000000,-48.639361000000001,3.5,2,Left,breakwater/jetty,All surfers,10000.000000000000000,294,62831.853071795863798,314159265.358979284763336,0.535561295627076,0.001704744550555
295,294,Sul,Santa Catarina North,Pracinha,-26.901883999999999,-48.641613999999997,3.5,4,Right and left,Beach-break,All surfers,10000.000000000000000,295,62831.853071795863798,314159265.358979284763336,0.535561295627076,0.001704744550555
296,295,Sul,Santa Catarina North,Navegantes,-26.897577999999999,-48.638705999999999,3.5,3,Right and left,Beach-break,All surfers,10000.000000000000000,296,62831.853071795863798,314159265.358979284763336,0.535561295627076,0.001704744550555
297,296,Sul,Santa Catarina North,Garrincha,-26.858702999999998,-48.634619000000001,3,2,Right and left,Sand-bar,Experienced surfers,10000.000000000000000,297,62831.853071795863798,314159265.358979284763336,0.377153334348940,0.001200516349304
298,297,Sul,Santa Catarina North,Gravatá (1 e 2),-26.831883000000001,-48.621969000000000,3,3,Right and left,Beach-break,All surfers,10000.000000000000000,298,62831.853071795863798,314159265.358979284763336,0.135107786955729,0.000430061442884
299,298,Sul,Santa Catarina North,Gravatá,-26.831730000000000,-48.623427999999997,3,3,Right and left,Beach-break,All surfers,10000.000000000000000,299,62831.853071795863798,314159265.358979284763336,0.135107786955729,0.000430061442884
300,299,Sul,Santa Catarina North,Quilombo,-26.766992999999999,-48.639414000000002,3.5,2,Left,Beach-break,All surfers,10000.000000000000000,300,62831.853071795863798,314159265.358979284763336,0.828859203916991,0.002638340788612
301,300,Sul,Santa Catarina North,Quilombo (reef),-26.765743000000001,-48.640143999999999,3.5,2,Right,Point-break,All surfers,10000.000000000000000,301,62831.853071795863798,314159265.358979284763336,0.776800706765632,0.002472633445581
302,301,Sul,Santa Catarina North,molhe de Piçarras,-26.757026000000000,-48.673434999999998,3,1,Right,Point-break,All surfers,10000.000000000000000,302,62831.853071795863798,314159265.358979284763336,0.746886764925068,0.002377414411355
303,302,Sul,Santa Catarina North,Laje do Jacques,-26.726915999999999,-48.673060000000000,4,2,Right and left,Reef-rocky,Experienced surfers,10000.000000000000000,303,62831.853071795863798,314159265.358979284763336,0.746886764925068,0.002377414411355
304,303,Sul,Santa Catarina North,Syphodys,-26.701371000000002,-48.680247999999999,3,2,Right and left,Beach-break,Experienced surfers,10000.000000000000000,304,62831.853071795863798,314159265.358979284763336,0.814141542028717,0.002591493015807
305,304,Sul,Santa Catarina North,ilha do grants,-26.696031999999999,-48.674990999999999,3.5,1,Left,Reef-rocky,Pros or kamikaze only...,10000.000000000000000,305,62831.853071795863798,314159265.358979284763336,1.095305749100100,0.003486466483325
306,305,Sul,Santa Catarina North,barra de Itajuba,-26.691344999999998,-48.684164000000003,3,1,Right,Point-break,All surfers,10000.000000000000000,306,62831.853071795863798,314159265.358979284763336,1.789367632017910,0.005695734072886
307,306,Sul,Santa Catarina North,Praia do Sol,-26.679962000000000,-48.688166000000002,2,3,Right and left,Point-break,All surfers,10000.000000000000000,307,62831.853071795863798,314159265.358979284763336,1.946647147311300,0.006196370319007
308,307,Sul,Santa Catarina North,Praia do Tabuleiro,-26.643014000000001,-48.682051000000001,3,2,Right and left,Beach-break,Beginners wave,10000.000000000000000,308,62831.853071795863798,314159265.358979284763336,1.199760382386230,0.003818955907652
309,308,Sul,Santa Catarina North,Canoas,-26.639403000000001,-48.682501000000002,2,3,Right and left,Beach-break,Beginners wave,10000.000000000000000,309,62831.853071795863798,314159265.358979284763336,1.199760382386230,0.003818955907652
310,309,Sul,Santa Catarina North,Barrinha,-26.623905000000001,-48.679991000000001,3.5,3,Right and left,Beach-break,All surfers,10000.000000000000000,310,62831.853071795863798,314159265.358979284763336,1.199760382386230,0.003818955907652
311,310,Sul,Santa Catarina North,Foz do Itapocu,-26.580708000000001,-48.663769000000002,3,3,Left,breakwater/jetty,All surfers,10000.000000000000000,311,62831.853071795863798,314159265.358979284763336,1.199760382386230,0.003818955907652
312,311,Sul,Santa Catarina South,Foz do Itapocu,-26.566918999999999,-48.657525000000000,3.5,4,Right and left,Beach-break,All surfers,10000.000000000000000,312,62831.853071795863798,314159265.358979284763336,1.199760382386230,0.003818955907652
313,312,Sul,Santa Catarina North,Praia do Bispo,-26.469248000000000,-48.607056000000000,3,4,Right and left,Beach-break,All surfers,10000.000000000000000,313,62831.853071795863798,314159265.358979284763336,0.437106182291677,0.001391352191355
314,313,Sul,Santa Catarina North,Picama,-26.458086999999999,-48.596874000000000,3,3,Right and left,Sand-bar,Experienced surfers,10000.000000000000000,314,62831.853071795863798,314159265.358979284763336,1.053351812103910,0.003352922954223
315,314,Sul,Santa Catarina North,"Praia Grande, São Francisco do Sul",-26.235880000000002,-48.502600000000001,3,3,Right and left,Beach-break,All surfers,10000.000000000000000,315,62831.853071795863798,314159265.358979284763336,32.125605330136501,0.102258977762211
316,315,Sul,Santa Catarina South,Praia da Saudade,-26.230606000000002,-48.498888000000001,3.5,4,Right and left,Beach-break,All surfers,10000.000000000000000,316,62831.853071795863798,314159265.358979284763336,28.920827675283100,0.092057853656604
317,316,Sul,Santa Catarina South,Sao Francisco do Sul,-26.219557999999999,-48.502107000000002,3,1,Right,Sand-bar,Beginners wave,10000.000000000000000,317,62831.853071795863798,314159265.358979284763336,25.549690703229000,0.081327191397759
318,317,Sul,Santa Catarina South,Píer da Petrobras,-26.217386999999999,-48.500518999999997,3.5,2,Right,Point-break,All surfers,10000.000000000000000,318,62831.853071795863798,314159265.358979284763336,24.186695473950099,0.076988642834751
319,318,Sul,Santa Catarina North,Sumidouro,-26.169526000000001,-48.552478999999998,3.5,1,Right and left,Beach-break,Experienced surfers,10000.000000000000000,319,62831.853071795863798,314159265.358979284763336,5.614997501846150,0.017873092157349
320,319,Sul,Santa Catarina North,Praia do Forte,-26.163305999999999,-48.533220000000000,3.5,1,Right,Point-break,All surfers,10000.000000000000000,320,62831.853071795863798,314159265.358979284763336,3.330106652370020,0.010600058694958
321,320,Sul,Santa Catarina North,Terceira Pedra,-26.067008999999999,-48.607646000000003,3.5,3,Right,Point-break,All surfers,10000.000000000000000,321,62831.853071795863798,314159265.358979284763336,3.130374852670910,0.009964292630663
322,321,Sul,Santa Catarina North,Barra do sai mirim,-26.007832000000001,-48.604061000000002,3,3,Right and left,Beach-break,All surfers,10000.000000000000000,322,62831.853071795863798,314159265.358979284763336,50.761311503579698,0.161578272872444
323,322,Sul,Parana,Barrinha,-25.976699000000000,-48.590727000000001,3,2,Right,Beach-break,Experienced surfers,10000.000000000000000,323,62831.853071795863798,314159265.358979284763336,92.595956038037599,0.294742082275471
324,323,Sul,Parana,Guaratuba Praia Brava,-25.897758000000000,-48.564290999999997,3,3,Right and left,Beach-break,All surfers,10000.000000000000000,324,62831.853071795863798,314159265.358979284763336,140.164507037453006,0.446157482820988
325,324,Sul,Parana,Praia Brava Guaratuba,-25.892817000000001,-48.561458999999999,3.5,3,Right and left,Beach-break,All surfers,10000.000000000000000,325,62831.853071795863798,314159265.358979284763336,135.437334318879010,0.431110424720784
326,325,Sul,Parana,Direitas de Guaratuba,-25.890046000000002,-48.560288999999997,4,2,Right,Point-break,Experienced surfers,10000.000000000000000,326,62831.853071795863798,314159265.358979284763336,133.956799604465999,0.426397736356425
327,326,Sul,Parana,Pico de Matinhos,-25.817817999999999,-48.529701000000003,3.5,3,Right,Point-break,Experienced surfers,10000.000000000000000,327,62831.853071795863798,314159265.358979284763336,84.549846448941295,0.269130520000195
328,327,Sul,Parana,Ilha do Mel,-25.548327000000000,-48.295383000000001,3.5,3,Right and left,Beach-break,All surfers,10000.000000000000000,328,62831.853071795863798,314159265.358979284763336,49.977878189897403,0.159084527183336
329,328,Sul,Parana,Farolete,-25.515314000000000,-48.286113999999998,3.5,4,Left,Point-break,Experienced surfers,10000.000000000000000,329,62831.853071795863798,314159265.358979284763336,121.844246108554003,0.387842281109636
330,329,Sudeste,Sao Paolo South,"Guarau, Peruibe SP",-24.369537000000001,-47.011699999999998,3,4,Right and left,Beach-break,All surfers,10000.000000000000000,330,62831.853071795863798,314159265.358979284763336,276.406093396140022,0.879827921294316
331,330,Sudeste,Sao Paolo South,Pier de Mongaguá,-24.095718000000002,-46.618552000000001,3.5,4,Right and left,Beach-break,All surfers,10000.000000000000000,331,62831.853071795863798,314159265.358979284763336,178.892291286399001,0.569431848785312
333,332,Sudeste,Sao Paolo South,Tombo,-24.014990000000001,-46.272697000000001,3.5,4,Right and left,Beach-break,All surfers,10000.000000000000000,333,62831.853071795863798,314159265.358979284763336,118.977344161923995,0.378716648786318
334,333,Sudeste,Sao Paulo North,Astúrias,-24.007738000000000,-46.266475000000000,3,2,Right and left,Beach-break,All surfers,10000.000000000000000,334,62831.853071795863798,314159265.358979284763336,118.889547753475000,0.378437184138510
335,334,Sudeste,Sao Paolo South,Pitangueiras Beach,-24.000935999999999,-46.260767000000001,3.5,4,Right and left,Beach-break,Experienced surfers,10000.000000000000000,335,62831.853071795863798,314159265.358979284763336,117.503670540946004,0.374025799960662
336,335,Sudeste,Sao Paulo North,porta do sol,-23.981331999999998,-46.373762999999997,3.5,2,Right and left,Point-break,Experienced surfers,10000.000000000000000,336,62831.853071795863798,314159265.358979284763336,47.943090651235700,0.152607597284940
337,336,Sudeste,Sao Paolo South,Itarare,-23.972332999999999,-46.362003999999999,3,3,Right and left,Beach-break,All surfers,10000.000000000000000,337,62831.853071795863798,314159265.358979284763336,37.812332205235002,0.120360391605920
338,337,Sudeste,Sao Paolo South,Santos,-23.971744000000001,-46.347208999999999,3,3,Right and left,Beach-break,All surfers,10000.000000000000000,338,62831.853071795863798,314159265.358979284763336,35.963134352871798,0.114474212026750
339,338,Sudeste,Sao Paolo South,"Praia de Pernambuco (Pernambuco Beach, in Guaruja)",-23.963431000000000,-46.184033999999997,3.5,4,Right and left,Beach-break,All surfers,10000.000000000000000,339,62831.853071795863798,314159265.358979284763336,171.780080267198002,0.546792977984943
340,339,Sudeste,Sao Paulo North,Bonete,-23.917383000000001,-45.347785999999999,3.5,4,Right and left,Beach-break,Experienced surfers,10000.000000000000000,340,62831.853071795863798,314159265.358979284763336,253.968832784918987,0.808407902579978
341,340,Sudeste,Sao Paulo North,Sao Pedro,-23.908522000000001,-46.166581000000001,4,3,Right and left,Sand-bar,All surfers,10000.000000000000000,341,62831.853071795863798,314159265.358979284763336,174.897838623993010,0.556717111061943
342,341,Sudeste,Sao Paolo South,Praia de Iporanga,-23.902191999999999,-46.152724999999997,3.5,2,Left,Reef-rocky,Pros or kamikaze only...,10000.000000000000000,342,62831.853071795863798,314159265.358979284763336,191.786788852627012,0.610476309312345
343,342,Sudeste,Sao Paolo South,Taguaíba,-23.896726000000001,-46.151353999999998,3.5,4,Right and left,Beach-break,All surfers,10000.000000000000000,343,62831.853071795863798,314159265.358979284763336,193.843107938828012,0.617021776255207
344,343,Sudeste,Sao Paolo South,praia branca,-23.863427999999999,-46.130795999999997,3.5,3,Left,Beach-break,All surfers,10000.000000000000000,344,62831.853071795863798,314159265.358979284763336,212.188082535515008,0.675415644014366
345,344,Sudeste,Sao Paulo North,Castelhanos,-23.857582000000001,-45.288905999999997,3.5,3,Right and left,Beach-break,Experienced surfers,10000.000000000000000,345,62831.853071795863798,314159265.358979284763336,244.009397423119992,0.776706035215288
346,345,Sudeste,Sao Paulo North,Enseada - Bertioga,-23.839860000000002,-46.123674000000001,3,4,Right and left,Beach-break,All surfers,10000.000000000000000,346,62831.853071795863798,314159265.358979284763336,206.952744562740008,0.658751045671889
347,346,Sudeste,Sao Paulo North,Santiago,-23.819897999999998,-45.541420000000002,3.5,2,Right and left,Beach-break,Experienced surfers,10000.000000000000000,347,62831.853071795863798,314159265.358979284763336,224.586572096656994,0.714881262024947
348,347,Sudeste,Sao Paulo North,Guaecá,-23.819123000000001,-45.466200000000001,3.5,3,Right and left,Beach-break,All surfers,10000.000000000000000,348,62831.853071795863798,314159265.358979284763336,159.547830528338011,0.507856517763461
349,348,Sudeste,Sao Paulo North,Riviera de São Lourenço,-23.808668999999998,-46.022072000000001,3,3,Right and left,Beach-break,All surfers,10000.000000000000000,349,62831.853071795863798,314159265.358979284763336,206.049772900877997,0.655876797602745
350,349,Sudeste,Sao Paulo North,Paúba,-23.802819000000000,-45.553167999999999,4,2,Right and left,Beach-break,Pros or kamikaze only...,10000.000000000000000,350,62831.853071795863798,314159265.358979284763336,240.065938686716009,0.764153616199735
351,350,Sudeste,Sao Paulo North,Itaguaré,-23.796026000000001,-45.991173000000003,3,4,Right and left,Beach-break,All surfers,10000.000000000000000,351,62831.853071795863798,314159265.358979284763336,213.183374457496001,0.678583756598421
352,351,Sudeste,Sao Paulo North,Maresias,-23.791530000000002,-45.573456000000000,3.5,4,Right and left,Beach-break,All surfers,10000.000000000000000,352,62831.853071795863798,314159265.358979284763336,237.698931825220001,0.756619199352945
353,352,Sudeste,Sao Paulo North,Camburi,-23.778825999999999,-45.649137000000003,3.5,4,Right and left,Beach-break,All surfers,10000.000000000000000,353,62831.853071795863798,314159265.358979284763336,228.164207514632011,0.726269229251974
354,353,Sudeste,Sao Paulo North,Baleia,-23.777600000000000,-45.670217000000001,3.5,3,Right and left,Beach-break,All surfers,10000.000000000000000,354,62831.853071795863798,314159265.358979284763336,222.726529930995014,0.708960563924457
355,354,Sudeste,Sao Paulo North,Guaratuba,-23.772306000000000,-45.922251000000003,3,3,Right and left,Beach-break,Experienced surfers,10000.000000000000000,355,62831.853071795863798,314159265.358979284763336,237.312365008232007,0.755388718957766
356,355,Sudeste,Sao Paulo North,Juquehy,-23.768065000000000,-45.738143999999998,3,4,Right and left,Beach-break,All surfers,10000.000000000000000,356,62831.853071795863798,314159265.358979284763336,206.343594211743010,0.656812059882943
357,356,Sudeste,Sao Paulo North,Massaguaçu,-23.590772999999999,-45.334611000000002,3.5,2,Right and left,Beach-break,Experienced surfers,10000.000000000000000,357,62831.853071795863798,314159265.358979284763336,140.981318247880012,0.448757473655235
358,357,Sudeste,Sao Paulo North,Simão,-23.585149000000001,-45.238287000000000,3.5,3,Right,Beach-break,Experienced surfers,10000.000000000000000,358,62831.853071795863798,314159265.358979284763336,177.051158713565997,0.563571341788235
359,358,Sudeste,Sao Paulo North,Praia do sape,-23.531963000000001,-45.222301000000002,3.5,3,Right and left,Beach-break,All surfers,10000.000000000000000,359,62831.853071795863798,314159265.358979284763336,183.668479415721009,0.584634927783681
360,359,Sudeste,Sao Paulo North,Lagoinha,-23.521339000000001,-45.205221000000002,3.5,2,Right and left,Beach-break,Beginners wave,10000.000000000000000,360,62831.853071795863798,314159265.358979284763336,181.619102104466009,0.578111557196749
361,360,Sudeste,Sao Paulo North,Sununga,-23.511344000000001,-45.129432999999999,3.5,3,Right,Beach-break,Pros or kamikaze only...,10000.000000000000000,361,62831.853071795863798,314159265.358979284763336,198.996030748117988,0.633424038984596
362,361,Sudeste,Sao Paulo North,Toninhas,-23.484739000000001,-45.073771000000001,3,2,Right and left,Beach-break,All surfers,10000.000000000000000,362,62831.853071795863798,314159265.358979284763336,211.133257875641988,0.672058032840086
363,362,Sudeste,Sao Paulo North,Praia Grande (PG),-23.478835000000000,-45.067290999999997,3,3,Right and left,Beach-break,All surfers,10000.000000000000000,363,62831.853071795863798,314159265.358979284763336,207.357526974260992,0.660039508105294
364,363,Sudeste,Sao Paulo North,Praia Grande North,-23.467497999999999,-45.062055999999998,3,3,Left,Beach-break,All surfers,10000.000000000000000,364,62831.853071795863798,314159265.358979284763336,196.193267770800986,0.624502567341497
365,364,Sudeste,Sao Paulo North,Vermelha do Centro,-23.463128000000001,-45.049353000000004,3.5,4,Right and left,Beach-break,All surfers,10000.000000000000000,365,62831.853071795863798,314159265.358979284763336,200.511929546037010,0.638249294722914
366,365,Sudeste,Sao Paulo North,Patiero,-23.456318000000000,-45.021242999999998,3.5,2,NA,Reef-rocky,Experienced surfers,10000.000000000000000,366,62831.853071795863798,314159265.358979284763336,210.072037678318992,0.668680064037828
367,366,Sudeste,Sao Paulo North,Vermelha do Norte,-23.416982000000001,-45.035876999999999,3,3,Right and left,Beach-break,All surfers,10000.000000000000000,367,62831.853071795863798,314159265.358979284763336,197.790951146916996,0.629588151477589
368,367,Sudeste,Sao Paulo North,Itamambuca,-23.402332000000001,-45.001458999999997,3.5,4,Right and left,Beach-break,All surfers,10000.000000000000000,368,62831.853071795863798,314159265.358979284763336,220.127148379721007,0.700686475467115
369,368,Sudeste,Sao Paulo North,Praia do Felix,-23.389334000000002,-44.972405000000002,3.5,3,Right and left,Beach-break,All surfers,10000.000000000000000,369,62831.853071795863798,314159265.358979284763336,229.248114166059992,0.729719411280473
370,369,Sudeste,Sao Paulo North,Brava do Camburi,-23.370963000000000,-44.799858999999998,3,3,Right and left,Beach-break,Experienced surfers,10000.000000000000000,370,62831.853071795863798,314159265.358979284763336,340.360750141095025,1.083401916388417
371,370,Sudeste,Rio De Janeiro City,Ponta do Cepílio,-23.343990000000002,-44.711781000000002,3.5,3,Right and left,Beach-break,Experienced surfers,10000.000000000000000,371,62831.853071795863798,314159265.358979284763336,255.723722928172009,0.813993891397617
372,371,Sudeste,Rio De Janeiro City,Laranjeiras,-23.336050000000000,-44.674294000000003,3.5,3,Right,Beach-break,All surfers,10000.000000000000000,372,62831.853071795863798,314159265.358979284763336,196.902608773623996,0.626760469880238
373,372,Sudeste,Rio De Janeiro City,Martim de Sa,-23.304048999999999,-44.553486999999997,3.5,3,Right and left,Beach-break,All surfers,10000.000000000000000,373,62831.853071795863798,314159265.358979284763336,104.409389249214996,0.332345408084368
374,373,Sudeste,Rio De Janeiro Norte,Aventureiro,-23.180132000000000,-44.304428000000001,3.5,4,Left,Point-break,All surfers,10000.000000000000000,374,62831.853071795863798,314159265.358979284763336,203.826366890336004,0.648799476461185
375,374,Sudeste,Rio De Janeiro City,Lopes Mendes,-23.171453000000000,-44.128990000000002,3.5,4,Right and left,Beach-break,Experienced surfers,10000.000000000000000,375,62831.853071795863798,314159265.358979284763336,114.918222810014001,0.365796064230991
376,375,Sudeste,Rio De Janeiro City,Barra de Guaratiba,-23.064018000000001,-43.569374000000003,4,2,Left,Rivermouth,Experienced surfers,10000.000000000000000,376,62831.853071795863798,314159265.358979284763336,120.793335370950004,0.384497128336876
377,376,Sudeste,Rio De Janeiro City,Laje do Dramin,-23.055999000000000,-44.366816000000000,3.5,2,Left,Reef-rocky,Pros or kamikaze only...,10000.000000000000000,377,62831.853071795863798,314159265.358979284763336,57.579331797121100,0.183280705508804
378,377,Sudeste,Rio De Janeiro City,Grumari,-23.049130999999999,-43.526673000000002,3.5,3,Right and left,Beach-break,Experienced surfers,10000.000000000000000,378,62831.853071795863798,314159265.358979284763336,117.082532297434994,0.372685275297066
379,378,Sudeste,Rio De Janeiro City,Prainha,-23.040759000000001,-43.505259000000002,3.5,4,Right and left,Beach-break,All surfers,10000.000000000000000,379,62831.853071795863798,314159265.358979284763336,115.831661629310005,0.368703630297051
380,379,Sudeste,Rio De Janeiro City,CcB,-23.034576999999999,-43.488737999999998,3.5,4,Right and left,Sand-bar,All surfers,10000.000000000000000,380,62831.853071795863798,314159265.358979284763336,107.471168625686005,0.342091354532811
381,380,Sudeste,Rio De Janeiro City,Macumba (Curvão),-23.034085000000001,-43.472729000000001,3,3,Right and left,Beach-break,All surfers,10000.000000000000000,381,62831.853071795863798,314159265.358979284763336,88.982384497182693,0.283239726816606
382,381,Sudeste,Rio De Janeiro City,Farorinha,-23.033829000000001,-43.470989000000003,3,2,Left,Beach-break,All surfers,10000.000000000000000,382,62831.853071795863798,314159265.358979284763336,86.952225656519602,0.276777530521541
383,382,Sudeste,Rio De Janeiro City,Canto do recreio,-23.033294999999999,-43.467430000000000,3.5,NA,Right and left,Beach-break,All surfers,10000.000000000000000,383,62831.853071795863798,314159265.358979284763336,82.975527741445703,0.264119307914196
384,383,Sudeste,Rio De Janeiro City,Praia da Macumba,-23.032031000000000,-43.475603999999997,4,4,Right and left,Beach-break,All surfers,10000.000000000000000,384,62831.853071795863798,314159265.358979284763336,94.735779845043396,0.301553353000084
385,384,Sudeste,Rio De Janeiro City,posto 11 (Atlântico sul),-23.030000000000001,-43.466442999999998,3.5,3,Right and left,Sand-bar,All surfers,10000.000000000000000,385,62831.853071795863798,314159265.358979284763336,85.217655802165993,0.271256223192369
386,385,Sudeste,Rio De Janeiro City,Mambucaba,-23.029266000000000,-44.519992000000002,3.5,2,Right and left,Sand-bar,All surfers,10000.000000000000000,386,62831.853071795863798,314159265.358979284763336,117.230297497593995,0.373155626537511
387,386,Sudeste,Rio De Janeiro City,Posto 10 - Recreio,-23.026218000000000,-43.458039999999997,3.5,2,Right and left,Beach-break,Experienced surfers,10000.000000000000000,387,62831.853071795863798,314159265.358979284763336,81.013627050182194,0.257874384056796
388,387,Sudeste,Rio De Janeiro City,Recreio Posto 9,-23.023638999999999,-43.448228999999998,3,3,Right and left,Beach-break,Experienced surfers,10000.000000000000000,388,62831.853071795863798,314159265.358979284763336,75.896690726854402,0.241586669869914
389,388,Sudeste,Rio De Janeiro City,Lage Postinho,-23.015481999999999,-43.306539000000001,3.5,2,Right and left,Reef-rocky,Experienced surfers,10000.000000000000000,389,62831.853071795863798,314159265.358979284763336,32.985199017312397,0.104995149449504
390,389,Sudeste,Rio De Janeiro City,Joatinga,-23.015205000000002,-43.291089999999997,3.5,4,Right and left,Beach-break,All surfers,10000.000000000000000,390,62831.853071795863798,314159265.358979284763336,32.068449454290601,0.102077044958859
391,390,Sudeste,Rio De Janeiro City,Tropical (posto 1),-23.014824999999998,-43.301845000000000,3.5,4,Right and left,Beach-break,Experienced surfers,10000.000000000000000,391,62831.853071795863798,314159265.358979284763336,33.097032972417097,0.105351127984713
392,391,Sudeste,Rio De Janeiro City,Barra da Tijuca - Posto 8,-23.010857000000001,-43.361874000000000,3.5,4,Right and left,Sand-bar,All surfers,10000.000000000000000,392,62831.853071795863798,314159265.358979284763336,28.882008053153701,0.091934286961587
393,392,Sudeste,Rio De Janeiro City,Sao Conrado,-22.999800000000000,-43.254353999999999,3.5,NA,Right and left,Beach-break,Experienced surfers,10000.000000000000000,393,62831.853071795863798,314159265.358979284763336,45.510407966488998,0.144864127799910
394,393,Sudeste,Rio De Janeiro City,Laje do sheraton,-22.995671000000002,-43.231243999999997,4,1,Right and left,Reef-rocky,Pros or kamikaze only...,10000.000000000000000,394,62831.853071795863798,314159265.358979284763336,48.937294791258601,0.155772247351482
395,394,Sudeste,Rio De Janeiro City,Pontão do leblon,-22.989962999999999,-43.226480000000002,3.5,3,Right,Point-break,Experienced surfers,10000.000000000000000,395,62831.853071795863798,314159265.358979284763336,48.995825710597302,0.155958557054211
396,395,Sudeste,Rio De Janeiro City,Arpoador,-22.989913000000001,-43.191654999999997,3.5,NA,Right and left,Beach-break,All surfers,10000.000000000000000,396,62831.853071795863798,314159265.358979284763336,35.792417961112598,0.113930804874444
397,396,Sudeste,Rio De Janeiro City,Praia do Diabo,-22.988817000000001,-43.189143999999999,3.5,4,Right and left,Beach-break,All surfers,10000.000000000000000,397,62831.853071795863798,314159265.358979284763336,35.586429394095298,0.113275122901220
398,397,Sudeste,Rio De Janeiro City,Leblon,-22.987947999999999,-43.219527999999997,3,4,Right and left,Beach-break,All surfers,10000.000000000000000,398,62831.853071795863798,314159265.358979284763336,47.356715950563803,0.150741108642621
399,398,Sudeste,Rio De Janeiro City,Ipanema,-22.987552999999998,-43.205409000000003,3,3,Right and left,Beach-break,All surfers,10000.000000000000000,399,62831.853071795863798,314159265.358979284763336,41.837655350838503,0.133173393129221
400,399,Sudeste,Rio De Janeiro City,Shore break expresso escorpiao,-22.986037000000000,-43.182017000000002,3.5,2,Right,Reef-rocky,Pros or kamikaze only...,10000.000000000000000,400,62831.853071795863798,314159265.358979284763336,39.446029237724801,0.125560610770627
401,400,Sudeste,Rio De Janeiro City,Forte de Copacabana,-22.985102999999999,-43.185538999999999,3,2,Right,Point-break,All surfers,10000.000000000000000,401,62831.853071795863798,314159265.358979284763336,37.488782561798203,0.119330501104149
402,401,Sudeste,Rio De Janeiro City,Posto 5 - Copacabana,-22.983917999999999,-43.188457000000000,3.5,3,Right and left,Beach-break,Experienced surfers,10000.000000000000000,402,62831.853071795863798,314159265.358979284763336,36.186380207832698,0.115184825653586
403,402,Sudeste,Rio De Janeiro Norte,Praia Brava - Pontal do Atalaia,-22.982970000000002,-42.021675000000002,3.5,2,Left,Point-break,Experienced surfers,10000.000000000000000,403,62831.853071795863798,314159265.358979284763336,220.114869283408012,0.700647389889616
404,403,Sudeste,Rio De Janeiro City,Shock,-22.975815999999998,-43.040492999999998,5,2,Right,Reef-rocky,Pros or kamikaze only...,10000.000000000000000,404,62831.853071795863798,314159265.358979284763336,79.450157151649904,0.252897704802260
405,404,Sudeste,Rio De Janeiro Norte,Praia Grande - Arraial do Cabo,-22.975325000000002,-42.033842000000000,3.5,3,Right and left,Beach-break,All surfers,10000.000000000000000,405,62831.853071795863798,314159265.358979284763336,205.481537883053988,0.654068049364253
406,405,Sudeste,Rio De Janeiro City,Itacoatiara,-22.972618000000001,-43.033447000000002,3.5,3,Right and left,Beach-break,Experienced surfers,10000.000000000000000,406,62831.853071795863798,314159265.358979284763336,81.358598313961195,0.258972461693898
407,406,Sudeste,Rio De Janeiro City,Canal de Camboinhas,-22.968074000000001,-43.048166999999999,2,3,Right and left,breakwater/jetty,Beginners wave,10000.000000000000000,407,62831.853071795863798,314159265.358979284763336,79.466552492714200,0.252949892793741
408,407,Sudeste,Rio De Janeiro City,Camboinhas,-22.966612000000001,-43.052588000000000,3.5,2,Right and left,Sand-bar,Experienced surfers,10000.000000000000000,408,62831.853071795863798,314159265.358979284763336,78.721895622115397,0.250579576356478
409,408,Sudeste,Rio De Janeiro City,Leme,-22.963639000000001,-43.166666999999997,3,3,Left,Sand-bar,All surfers,10000.000000000000000,409,62831.853071795863798,314159265.358979284763336,45.388756750976903,0.144476899954272
410,409,Sudeste,Rio De Janeiro Norte,Ponta Negra - Maricá - RJ,-22.957750999999998,-42.696787000000000,3,3,Right and left,Beach-break,All surfers,10000.000000000000000,410,62831.853071795863798,314159265.358979284763336,38.173695689304303,0.121510647300771
411,410,Sudeste,Rio De Janeiro City,Piratininga,-22.954699000000002,-43.095675000000000,3,3,Right and left,Beach-break,All surfers,10000.000000000000000,411,62831.853071795863798,314159265.358979284763336,73.371499666532202,0.233548737079879
412,411,Sudeste,Rio De Janeiro Norte,Massambaba,-22.947170000000000,-42.166815000000000,3.5,4,Right and left,Sand-bar,Experienced surfers,10000.000000000000000,412,62831.853071795863798,314159265.358979284763336,168.501836971142012,0.536358005480439
413,412,Sudeste,Rio De Janeiro Norte,Lage de fora,-22.944344999999998,-42.468187999999998,4,2,Left,Reef-rocky,Don't know,10000.000000000000000,413,62831.853071795863798,314159265.358979284763336,60.256464818457502,0.191802284582008
414,413,Sudeste,Rio De Janeiro Norte,Arraial do Cabo,-22.942665000000002,-42.030054000000000,3.5,2,Left,Reef-coral,Experienced surfers,10000.000000000000000,414,62831.853071795863798,314159265.358979284763336,160.835958333972997,0.511956755915479
415,414,Sudeste,Rio De Janeiro Norte,Itauna,-22.938835999999998,-42.476208000000000,4,4,Right and left,Point-break,All surfers,10000.000000000000000,415,62831.853071795863798,314159265.358979284763336,54.649027957122101,0.173953258690864
416,415,Sudeste,Rio De Janeiro Norte,Backdoor,-22.938421000000002,-42.472313000000000,3,3,Right,Reef-rocky,Experienced surfers,10000.000000000000000,416,62831.853071795863798,314159265.358979284763336,59.116511561446103,0.188173700667067
417,416,Sudeste,Rio De Janeiro Norte,Saquarema - Itauna Beach,-22.938317999999999,-42.479990000000001,3.5,4,Right and left,Beach-break,All surfers,10000.000000000000000,417,62831.853071795863798,314159265.358979284763336,50.946445650446798,0.162167573164624
418,417,Sudeste,Rio De Janeiro Norte,Saquarema - Praia da Vila,-22.936169000000000,-42.495224000000000,3.5,3,Right and left,Beach-break,All surfers,10000.000000000000000,418,62831.853071795863798,314159265.358979284763336,38.919414130612402,0.123884342822551
419,418,Sudeste,Rio De Janeiro Norte,Praia do Foguete - Cabo Frio,-22.929735999999998,-42.037751999999998,3,3,Right and left,Sand-bar,NA,10000.000000000000000,419,62831.853071795863798,314159265.358979284763336,139.959466239787986,0.445504817691311
420,419,Sudeste,Rio De Janeiro City,Flamengo,-22.928832000000000,-43.170261000000004,3.5,1,Left,Point-break,Experienced surfers,10000.000000000000000,420,62831.853071795863798,314159265.358979284763336,36.416545491366897,0.115917464505638
421,420,Sudeste,Rio De Janeiro City,prainha de adão e eva,-22.927765000000001,-43.123311999999999,3.5,1,Right and left,Beach-break,All surfers,10000.000000000000000,421,62831.853071795863798,314159265.358979284763336,55.457177201178403,0.176525677629814
422,421,Sudeste,Rio De Janeiro City,Itapuca,-22.906618000000002,-43.119706999999998,3.5,2,Right and left,Reef-rocky,All surfers,10000.000000000000000,422,62831.853071795863798,314159265.358979284763336,44.054331090620998,0.140229291153586
423,422,Sudeste,Rio De Janeiro Norte,Praia Brava - Cabo Frio,-22.884557000000001,-41.998072000000001,3.5,2,Right and left,Beach-break,All surfers,10000.000000000000000,423,62831.853071795863798,314159265.358979284763336,125.378715633105003,0.399092847030436
424,423,Sudeste,Rio De Janeiro Norte,Praia do Forte - Cabo Frio,-22.884167000000001,-42.013055999999999,3.5,4,Right and left,Beach-break,All surfers,10000.000000000000000,424,62831.853071795863798,314159265.358979284763336,109.741912383482003,0.349319356403777
425,424,Sudeste,Rio De Janeiro Norte,Dunas do Peró - Cabo Frio -RJ,-22.842631000000001,-41.981335000000001,NA,NA,NA,NA,NA,10000.000000000000000,425,62831.853071795863798,314159265.358979284763336,123.954403861388997,0.394559121850984
426,425,Sudeste,Rio De Janeiro Norte,Geriba,-22.779070000000001,-41.910524000000002,3.5,3,Right and left,Beach-break,All surfers,10000.000000000000000,426,62831.853071795863798,314159265.358979284763336,72.415563884298706,0.230505898979462
427,426,Sudeste,Rio De Janeiro Norte,Laje da Rasa,-22.726395000000000,-41.971463999999997,3,1,NA,Reef-rocky,Experienced surfers,10000.000000000000000,427,62831.853071795863798,314159265.358979284763336,15.342470872400400,0.048836601571719
428,427,Sudeste,Rio De Janeiro Norte,praia de unamar,-22.609524000000000,-41.997760999999997,2,2,Right and left,Beach-break,Beginners wave,10000.000000000000000,428,62831.853071795863798,314159265.358979284763336,57.807747067578397,0.184007773896223
429,428,Sudeste,Rio De Janeiro Norte,Costazul,-22.525117999999999,-41.920347999999997,3.5,4,Right and left,Beach-break,Experienced surfers,10000.000000000000000,429,62831.853071795863798,314159265.358979284763336,9.125131369007221,0.029046195274808
430,429,Sudeste,Rio De Janeiro Norte,Pecado,-22.410544999999999,-41.808256999999998,3.5,4,Right and left,Beach-break,All surfers,10000.000000000000000,430,62831.853071795863798,314159265.358979284763336,44.232026316866502,0.140794912626002
431,430,Sudeste,Rio De Janeiro Norte,Cavaleiros,-22.405111000000002,-41.798358999999998,3.5,4,Right and left,Beach-break,All surfers,10000.000000000000000,431,62831.853071795863798,314159265.358979284763336,51.555821566577698,0.164107276949692
432,431,Sudeste,Rio De Janeiro Norte,Grussaí,-21.690031000000001,-41.022263000000002,3,3,Right and left,Beach-break,All surfers,10000.000000000000000,432,62831.853071795863798,314159265.358979284763336,13.851454855110999,0.044090550184103
433,432,Sudeste,Esperito Santo,Setiba Pina,-20.635263999999999,-40.425728999999997,3.5,3,Right and left,Beach-break,Experienced surfers,10000.000000000000000,433,62831.853071795863798,314159265.358979284763336,85.534433625642095,0.272264558321732
434,433,Sudeste,Esperito Santo,Barra Sol,-20.384262000000000,-40.310088000000000,3.5,2,Right and left,Sand-bar,Experienced surfers,10000.000000000000000,434,62831.853071795863798,314159265.358979284763336,11.993404093846300,0.038176190920684
435,434,Sudeste,Esperito Santo,Secret,-20.379057000000000,-40.307132000000003,3,2,Right and left,Sand-bar,All surfers,10000.000000000000000,435,62831.853071795863798,314159265.358979284763336,14.322876141414699,0.045591130743982
436,435,Sudeste,Esperito Santo,Coral do Céu,-20.378699999999998,-40.286881000000001,3.5,2,Left,Reef-rocky,Pros or kamikaze only...,10000.000000000000000,436,62831.853071795863798,314159265.358979284763336,12.891210738269800,0.041033998228699
437,436,Sudeste,Esperito Santo,Pompeia,-20.356919000000001,-40.289633000000002,3.5,3,Right and left,Beach-break,All surfers,10000.000000000000000,437,62831.853071795863798,314159265.358979284763336,28.586619721958201,0.090994036700758
438,437,Sudeste,Esperito Santo,D2,-20.348965000000000,-40.270665000000001,3.5,3,Right,Reef-rocky,Experienced surfers,10000.000000000000000,438,62831.853071795863798,314159265.358979284763336,29.608574467664301,0.094247019688665
439,438,Sudeste,Esperito Santo,Canal de Vitória,-20.317523999999999,-40.288539000000000,3,1,Left,Sand-bar,All surfers,10000.000000000000000,439,62831.853071795863798,314159265.358979284763336,46.246781847104401,0.147208078661184
440,439,Sudeste,Esperito Santo,Praia de Camburi,-20.275804000000001,-40.270986999999998,3,1,Right and left,Beach-break,All surfers,10000.000000000000000,440,62831.853071795863798,314159265.358979284763336,56.264231263954400,0.179094610498478
441,440,Sudeste,Esperito Santo,Prainha de Carapebus,-20.236550000000001,-40.215024999999997,3.5,2,Right,Point-break,Experienced surfers,10000.000000000000000,441,62831.853071795863798,314159265.358979284763336,32.257690693859701,0.102679418533144
442,441,Sudeste,Esperito Santo,Barrote-Jacaraipe,-20.151101000000001,-40.183461000000001,3,3,Right and left,Beach-break,All surfers,10000.000000000000000,442,62831.853071795863798,314159265.358979284763336,45.770838929347697,0.145693105301373
443,442,Sudeste,Esperito Santo,Jacaraípe- Solemar,-20.135649999999998,-40.180627999999999,3,3,Right and left,Sand-bar,All surfers,10000.000000000000000,443,62831.853071795863798,314159265.358979284763336,60.259134940518400,0.191810783844501
444,443,Sudeste,Esperito Santo,Regencia,-19.659238999999999,-39.841576000000003,3.5,4,Right and left,Beach-break,Experienced surfers,10000.000000000000000,444,62831.853071795863798,314159265.358979284763336,6.044741186662810,0.019241008791371
445,444,Sudeste,Esperito Santo,Guriri,-18.739377999999999,-39.746389000000001,3,2,Right and left,Beach-break,All surfers,10000.000000000000000,445,62831.853071795863798,314159265.358979284763336,37.960484169921401,0.120831973956093
446,445,Nordeste,Bahia Sul,Backdoor,-14.840603000000000,-39.001465000000003,3.5,2,Right,Point-break,Experienced surfers,10000.000000000000000,446,62831.853071795863798,314159265.358979284763336,0.696112310146533,0.002215794302139
447,446,Nordeste,Bahia Sul,Itacarezinho,-14.370585000000000,-39.006014000000000,3,4,Right and left,Beach-break,All surfers,10000.000000000000000,447,62831.853071795863798,314159265.358979284763336,175.454842137096989,0.558490108310544
448,447,Nordeste,Bahia Sul,Engenhoca,-14.352541000000000,-39.000950000000003,NA,4,Right and left,Beach-break,All surfers,10000.000000000000000,448,62831.853071795863798,314159265.358979284763336,171.249521649889999,0.545104157454051
449,448,Nordeste,Bahia Sul,Jeribucaçu,-14.344391999999999,-39.001379000000000,3,4,Right and left,Beach-break,All surfers,10000.000000000000000,449,62831.853071795863798,314159265.358979284763336,181.060414517287001,0.576333199373877
450,449,Nordeste,Bahia Sul,Prainha,-14.297738000000001,-38.981037000000001,3.5,3,Right and left,Beach-break,All surfers,10000.000000000000000,450,62831.853071795863798,314159265.358979284763336,153.134717598625997,0.487442945296056
