OBJECTID,Name,Lat,Lon,Zone,Surf_Spot,Surfline_n,Quality__0,Frequency_,Direction,Type,Experience,Latitude,Longitude,BUFF_DIST,ORIG_FID,Shape_Leng,Shape_Area,SUM_Area_S,ramsar_per
1,Cardoso,-28.585450000000002,-48.798270000000002, , , ,0.000000000000000,0, , , ,0.000000000000000,0.000000000000000,10000.000000000000000,0,62831.853071795863798,314159265.358979284763336,0.000000000000000,0.000000000000000
2,Ravena,-28.454780000000000,-48.751339999999999, , , ,0.000000000000000,0, , , ,0.000000000000000,0.000000000000000,10000.000000000000000,1,62831.853071795863798,314159265.358979284763336,0.000000000000000,0.000000000000000
3,Praia da Vila Imbituba,-28.252472220000001,-48.661850000000001, , , ,0.000000000000000,0, , , ,0.000000000000000,0.000000000000000,10000.000000000000000,2,62831.853071795863798,314159265.358979284763336,0.000000000000000,0.000000000000000
4,Praia do Porto Imbituba,-28.220199000000001,-48.663214000000004, , , ,0.000000000000000,0, , , ,0.000000000000000,0.000000000000000,10000.000000000000000,3,62831.853071795863798,314159265.358979284763336,0.000000000000000,0.000000000000000
5,Ponta da Pinheira,-27.878140999999999,-48.576442000000000, , , ,0.000000000000000,0, , , ,0.000000000000000,0.000000000000000,10000.000000000000000,4,62831.853071795863798,314159265.358979284763336,0.000000000000000,0.000000000000000
6,Mocambique,-27.518350000000002,-48.392183330000002, , , ,0.000000000000000,0, , , ,0.000000000000000,0.000000000000000,10000.000000000000000,5,62831.853071795863798,314159265.358979284763336,0.000000000000000,0.000000000000000
7,Ponta das Canas,-27.394818999999998,-48.435709000000003, , , ,0.000000000000000,0, , , ,0.000000000000000,0.000000000000000,10000.000000000000000,6,62831.853071795863798,314159265.358979284763336,0.000000000000000,0.000000000000000
8,Itagua&ccedil;u,-26.184728000000000,-48.526327999999999, , , ,0.000000000000000,0, , , ,0.000000000000000,0.000000000000000,10000.000000000000000,7,62831.853071795863798,314159265.358979284763336,0.000000000000000,0.000000000000000
9,Ilha Comprida,-24.783999999999999,-47.594999999999999, , , ,0.000000000000000,0, , , ,0.000000000000000,0.000000000000000,10000.000000000000000,8,62831.853071795863798,314159265.358979284763336,24.656471576991301,0.078483986613660
10,Iguape,-24.753211000000000,-47.542059000000002, , , ,0.000000000000000,0, , , ,0.000000000000000,0.000000000000000,10000.000000000000000,9,62831.853071795863798,314159265.358979284763336,34.044555379171101,0.108367185479217
11,Peruibe,-24.324427000000000,-46.978886000000003, , , ,0.000000000000000,0, , , ,0.000000000000000,0.000000000000000,10000.000000000000000,10,62831.853071795863798,314159265.358979284763336,39.175067079668203,0.124698111433716
12,Praia dos Pescadores,-24.194862000000001,-46.798881999999999, , , ,0.000000000000000,0, , , ,0.000000000000000,0.000000000000000,10000.000000000000000,11,62831.853071795863798,314159265.358979284763336,0.000000000000000,0.000000000000000
13,Itanhaem,-24.151427000000002,-46.707858000000002, , , ,0.000000000000000,0, , , ,0.000000000000000,0.000000000000000,10000.000000000000000,12,62831.853071795863798,314159265.358979284763336,0.000000000000000,0.000000000000000
14,Praia Grande,-24.028497000000002,-46.438310000000001, , , ,0.000000000000000,0, , , ,0.000000000000000,0.000000000000000,10000.000000000000000,13,62831.853071795863798,314159265.358979284763336,0.000000000000000,0.000000000000000
15,Praia do Forte dos Andradas,-24.028369000000001,-46.288159000000000, , , ,0.000000000000000,0, , , ,0.000000000000000,0.000000000000000,10000.000000000000000,14,62831.853071795863798,314159265.358979284763336,0.000000000000000,0.000000000000000
16,Praia do Forte dos Andradas,-24.025659999999998,-46.285460000000000, , , ,0.000000000000000,0, , , ,0.000000000000000,0.000000000000000,10000.000000000000000,15,62831.853071795863798,314159265.358979284763336,0.000000000000000,0.000000000000000
17,Praia da Ponta Grossa,-24.024816000000001,-46.314497000000003, , , ,0.000000000000000,0, , , ,0.000000000000000,0.000000000000000,10000.000000000000000,16,62831.853071795863798,314159265.358979284763336,0.000000000000000,0.000000000000000
18,Itaipu,-24.019545000000001,-46.386795999999997, , , ,0.000000000000000,0, , , ,0.000000000000000,0.000000000000000,10000.000000000000000,17,62831.853071795863798,314159265.358979284763336,0.000000000000000,0.000000000000000
19,Guaiuba,-24.017081999999998,-46.295202000000003, , , ,0.000000000000000,0, , , ,0.000000000000000,0.000000000000000,10000.000000000000000,18,62831.853071795863798,314159265.358979284763336,0.000000000000000,0.000000000000000
20,Santos,-24.015000000000001,-46.353999999999999, , , ,0.000000000000000,0, , , ,0.000000000000000,0.000000000000000,10000.000000000000000,19,62831.853071795863798,314159265.358979284763336,0.000000000000000,0.000000000000000
21,Morro do Maluf,-23.997560000000000,-46.251593999999997, , , ,0.000000000000000,0, , , ,0.000000000000000,0.000000000000000,10000.000000000000000,20,62831.853071795863798,314159265.358979284763336,0.000000000000000,0.000000000000000
22,Praia da Enseada,-23.990651000000000,-46.209406000000001, , , ,0.000000000000000,0, , , ,0.000000000000000,0.000000000000000,10000.000000000000000,21,62831.853071795863798,314159265.358979284763336,0.000000000000000,0.000000000000000
23,Embare,-23.980865999999999,-46.317684000000000, , , ,0.000000000000000,0, , , ,0.000000000000000,0.000000000000000,10000.000000000000000,22,62831.853071795863798,314159265.358979284763336,0.000000000000000,0.000000000000000
24,Gonzaga,-23.974027000000000,-46.330098000000000, , , ,0.000000000000000,0, , , ,0.000000000000000,0.000000000000000,10000.000000000000000,23,62831.853071795863798,314159265.358979284763336,0.000000000000000,0.000000000000000
25,Pereque,-23.927582999999998,-46.178826000000001, , , ,0.000000000000000,0, , , ,0.000000000000000,0.000000000000000,10000.000000000000000,24,62831.853071795863798,314159265.358979284763336,0.000000000000000,0.000000000000000
26,Praia Preta,-23.874700000000001,-46.138959000000000, , , ,0.000000000000000,0, , , ,0.000000000000000,0.000000000000000,10000.000000000000000,25,62831.853071795863798,314159265.358979284763336,0.000000000000000,0.000000000000000
27,Praia da Bertioga,-23.846986000000001,-46.126967999999998, , , ,0.000000000000000,0, , , ,0.000000000000000,0.000000000000000,10000.000000000000000,26,62831.853071795863798,314159265.358979284763336,0.000000000000000,0.000000000000000
28,Maresias,-23.793693260000001,-45.559764340000001, , , ,0.000000000000000,0, , , ,0.000000000000000,0.000000000000000,10000.000000000000000,27,62831.853071795863798,314159265.358979284763336,0.000000000000000,0.000000000000000
29,Canto de Moreira,-23.793056000000000,-45.587394000000003, , , ,0.000000000000000,0, , , ,0.000000000000000,0.000000000000000,10000.000000000000000,28,62831.853071795863798,314159265.358979284763336,0.000000000000000,0.000000000000000
30,Itaguere,-23.786995000000001,-45.971372000000002, , , ,0.000000000000000,0, , , ,0.000000000000000,0.000000000000000,10000.000000000000000,29,62831.853071795863798,314159265.358979284763336,0.000000000000000,0.000000000000000
31,Boicucanga,-23.784431000000001,-45.631354999999999, , , ,0.000000000000000,0, , , ,0.000000000000000,0.000000000000000,10000.000000000000000,30,62831.853071795863798,314159265.358979284763336,0.000000000000000,0.000000000000000
32,Praia de Baleia,-23.775839000000001,-45.683985999999997, , , ,0.000000000000000,0, , , ,0.000000000000000,0.000000000000000,10000.000000000000000,31,62831.853071795863798,314159265.358979284763336,0.000000000000000,0.000000000000000
33,Barra do Sahy,-23.774384999999999,-45.697569999999999, , , ,0.000000000000000,0, , , ,0.000000000000000,0.000000000000000,10000.000000000000000,32,62831.853071795863798,314159265.358979284763336,0.000000000000000,0.000000000000000
34,Praia Preta,-23.773009999999999,-45.715814999999999, , , ,0.000000000000000,0, , , ,0.000000000000000,0.000000000000000,10000.000000000000000,33,62831.853071795863798,314159265.358979284763336,0.000000000000000,0.000000000000000
35,Bananas Point,-23.771605000000001,-45.706209999999999, , , ,0.000000000000000,0, , , ,0.000000000000000,0.000000000000000,10000.000000000000000,34,62831.853071795863798,314159265.358979284763336,0.000000000000000,0.000000000000000
36,Praia do Juquei,-23.768115000000002,-45.745452999999998, , , ,0.000000000000000,0, , , ,0.000000000000000,0.000000000000000,10000.000000000000000,35,62831.853071795863798,314159265.358979284763336,0.000000000000000,0.000000000000000
37,Praia da Boracéia,-23.758372999999999,-45.828777000000002, , , ,0.000000000000000,0, , , ,0.000000000000000,0.000000000000000,10000.000000000000000,36,62831.853071795863798,314159265.358979284763336,0.000000000000000,0.000000000000000
38,Praia Dura,-23.496058000000001,-45.171014000000000, , , ,0.000000000000000,0, , , ,0.000000000000000,0.000000000000000,10000.000000000000000,37,62831.853071795863798,314159265.358979284763336,0.000000000000000,0.000000000000000
39,Pereque-Acu,-23.424565000000001,-45.062697000000000, , , ,0.000000000000000,0, , , ,0.000000000000000,0.000000000000000,10000.000000000000000,38,62831.853071795863798,314159265.358979284763336,0.000000000000000,0.000000000000000
40,Itamambuca,-23.406683000000001,-45.008741000000001, , , ,0.000000000000000,0, , , ,0.000000000000000,0.000000000000000,10000.000000000000000,39,62831.853071795863798,314159265.358979284763336,0.000000000000000,0.000000000000000
41,Praia da Fazenda,-23.361352000000000,-44.859766000000000, , , ,0.000000000000000,0, , , ,0.000000000000000,0.000000000000000,10000.000000000000000,40,62831.853071795863798,314159265.358979284763336,0.000000000000000,0.000000000000000
42,Aventureiro,-23.184405999999999,-44.315804000000000, , , ,0.000000000000000,0, , , ,0.000000000000000,0.000000000000000,10000.000000000000000,41,62831.853071795863798,314159265.358979284763336,0.000000000000000,0.000000000000000
43,Praia do Leste,-23.179746000000002,-44.274093999999998, , , ,0.000000000000000,0, , , ,0.000000000000000,0.000000000000000,10000.000000000000000,42,62831.853071795863798,314159265.358979284763336,0.000000000000000,0.000000000000000
44,Praia do Sul,-23.178656000000000,-44.296756999999999, , , ,0.000000000000000,0, , , ,0.000000000000000,0.000000000000000,10000.000000000000000,43,62831.853071795863798,314159265.358979284763336,0.000000000000000,0.000000000000000
45,Praia do Meio,-23.066913000000000,-43.549809000000003, , , ,0.000000000000000,0, , , ,0.000000000000000,0.000000000000000,10000.000000000000000,44,62831.853071795863798,314159265.358979284763336,0.000000000000000,0.000000000000000
46,Restinga a Marambaia,-23.061833000000000,-43.591673000000000, , , ,0.000000000000000,0, , , ,0.000000000000000,0.000000000000000,10000.000000000000000,45,62831.853071795863798,314159265.358979284763336,0.000000000000000,0.000000000000000
47,Grumari,-23.050469000000000,-43.533907999999997, , , ,0.000000000000000,0, , , ,0.000000000000000,0.000000000000000,10000.000000000000000,46,62831.853071795863798,314159265.358979284763336,0.000000000000000,0.000000000000000
48,Reserva,-23.022717000000000,-43.440916000000001, , , ,0.000000000000000,0, , , ,0.000000000000000,0.000000000000000,10000.000000000000000,47,62831.853071795863798,314159265.358979284763336,0.000000000000000,0.000000000000000
49,Barra da Tijuca,-23.020340120000000,-43.372478489999999, , , ,0.000000000000000,0, , , ,0.000000000000000,0.000000000000000,10000.000000000000000,48,62831.853071795863798,314159265.358979284763336,0.000000000000000,0.000000000000000
50,Barra da Tijuca,-23.014886109999999,-43.372222219999998, , , ,0.000000000000000,0, , , ,0.000000000000000,0.000000000000000,10000.000000000000000,49,62831.853071795863798,314159265.358979284763336,0.000000000000000,0.000000000000000
51,Sao Conrado,-23.000617999999999,-43.264187000000000, , , ,0.000000000000000,0, , , ,0.000000000000000,0.000000000000000,10000.000000000000000,50,62831.853071795863798,314159265.358979284763336,0.000000000000000,0.000000000000000
52,Bambui,-22.975255000000001,-42.916570000000000, , , ,0.000000000000000,0, , , ,0.000000000000000,0.000000000000000,10000.000000000000000,51,62831.853071795863798,314159265.358979284763336,0.000000000000000,0.000000000000000
53,Itaipuacu,-22.971149000000000,-43.011260000000000, , , ,0.000000000000000,0, , , ,0.000000000000000,0.000000000000000,10000.000000000000000,52,62831.853071795863798,314159265.358979284763336,0.000000000000000,0.000000000000000
54,Barra de Marica,-22.962100000000000,-42.809486999999997, , , ,0.000000000000000,0, , , ,0.000000000000000,0.000000000000000,10000.000000000000000,53,62831.853071795863798,314159265.358979284763336,0.000000000000000,0.000000000000000
55,Camboinhas,-22.961998000000001,-43.059922999999998, , , ,0.000000000000000,0, , , ,0.000000000000000,0.000000000000000,10000.000000000000000,54,62831.853071795863798,314159265.358979284763336,0.000000000000000,0.000000000000000
56,Pirantininga,-22.955044999999998,-43.088653999999998, , , ,0.000000000000000,0, , , ,0.000000000000000,0.000000000000000,10000.000000000000000,55,62831.853071795863798,314159265.358979284763336,0.000000000000000,0.000000000000000
57,Jacone,-22.946556000000001,-42.679789000000000, , , ,0.000000000000000,0, , , ,0.000000000000000,0.000000000000000,10000.000000000000000,56,62831.853071795863798,314159265.358979284763336,0.000000000000000,0.000000000000000
58,Figueira,-22.944991999999999,-42.188828000000001, , , ,0.000000000000000,0, , , ,0.000000000000000,0.000000000000000,10000.000000000000000,57,62831.853071795863798,314159265.358979284763336,0.000000000000000,0.000000000000000
59,Praia do Fora,-22.944794000000002,-43.155304000000001, , , ,0.000000000000000,0, , , ,0.000000000000000,0.000000000000000,10000.000000000000000,58,62831.853071795863798,314159265.358979284763336,0.000000000000000,0.000000000000000
60,Laje do Pao de Acucar,-22.938409000000000,-43.151797000000002, , , ,0.000000000000000,0, , , ,0.000000000000000,0.000000000000000,10000.000000000000000,59,62831.853071795863798,314159265.358979284763336,0.000000000000000,0.000000000000000
61,Canal,-22.937418999999998,-42.487813000000003, , , ,0.000000000000000,0, , , ,0.000000000000000,0.000000000000000,10000.000000000000000,60,62831.853071795863798,314159265.358979284763336,0.000000000000000,0.000000000000000
62,Praia Seca,-22.936126000000002,-42.361598000000001, , , ,0.000000000000000,0, , , ,0.000000000000000,0.000000000000000,10000.000000000000000,61,62831.853071795863798,314159265.358979284763336,0.000000000000000,0.000000000000000
63,Caravelas,-22.814850000000000,-41.953901999999999, , , ,0.000000000000000,0, , , ,0.000000000000000,0.000000000000000,10000.000000000000000,62,62831.853071795863798,314159265.358979284763336,0.000000000000000,0.000000000000000
64,Tucuns,-22.799863999999999,-41.929282000000001, , , ,0.000000000000000,0, , , ,0.000000000000000,0.000000000000000,10000.000000000000000,63,62831.853071795863798,314159265.358979284763336,0.000000000000000,0.000000000000000
65,Praia Brava,-22.754252000000001,-41.872608999999997, , , ,0.000000000000000,0, , , ,0.000000000000000,0.000000000000000,10000.000000000000000,64,62831.853071795863798,314159265.358979284763336,0.000000000000000,0.000000000000000
66,Marataizes,-21.044882999999999,-40.827455999999998, , , ,0.000000000000000,0, , , ,0.000000000000000,0.000000000000000,10000.000000000000000,65,62831.853071795863798,314159265.358979284763336,0.000000000000000,0.000000000000000
67,Ponta do Ubu,-20.793246000000000,-40.579551000000002, , , ,0.000000000000000,0, , , ,0.000000000000000,0.000000000000000,10000.000000000000000,66,62831.853071795863798,314159265.358979284763336,0.000000000000000,0.000000000000000
68,Ponta dos Castelhanos,-20.755085000000001,-40.560755000000000, , , ,0.000000000000000,0, , , ,0.000000000000000,0.000000000000000,10000.000000000000000,67,62831.853071795863798,314159265.358979284763336,0.000000000000000,0.000000000000000
69,Maimba,-20.707021999999998,-40.514367999999997, , , ,0.000000000000000,0, , , ,0.000000000000000,0.000000000000000,10000.000000000000000,68,62831.853071795863798,314159265.358979284763336,0.000000000000000,0.000000000000000
70,Praia do Morro,-20.659787999999999,-40.493842999999998, , , ,0.000000000000000,0, , , ,0.000000000000000,0.000000000000000,10000.000000000000000,69,62831.853071795863798,314159265.358979284763336,0.000000000000000,0.000000000000000
71,Ponta de Bororo,-20.614518000000000,-40.415382000000001, , , ,0.000000000000000,0, , , ,0.000000000000000,0.000000000000000,10000.000000000000000,70,62831.853071795863798,314159265.358979284763336,0.000000000000000,0.000000000000000
72,Tropical,-20.559543999999999,-40.391810000000000, , , ,0.000000000000000,0, , , ,0.000000000000000,0.000000000000000,10000.000000000000000,71,62831.853071795863798,314159265.358979284763336,0.000000000000000,0.000000000000000
73,Dunas de Ule,-20.542100000000001,-40.379860999999998, , , ,0.000000000000000,0, , , ,0.000000000000000,0.000000000000000,10000.000000000000000,72,62831.853071795863798,314159265.358979284763336,0.000000000000000,0.000000000000000
74,Guarapari - Ule,-20.541319000000001,-40.378385999999999, , , ,0.000000000000000,0, , , ,0.000000000000000,0.000000000000000,10000.000000000000000,73,62831.853071795863798,314159265.358979284763336,0.000000000000000,0.000000000000000
75,Ponta da Fruta,-20.516836999999999,-40.358133000000002, , , ,0.000000000000000,0, , , ,0.000000000000000,0.000000000000000,10000.000000000000000,74,62831.853071795863798,314159265.358979284763336,0.000000000000000,0.000000000000000
76,Coral Dois,-20.448948000000001,-40.330300000000001, , , ,0.000000000000000,0, , , ,0.000000000000000,0.000000000000000,10000.000000000000000,75,62831.853071795863798,314159265.358979284763336,0.000000000000000,0.000000000000000
77,Ponta da Belina,-20.445827000000001,-40.329245000000000, , , ,0.000000000000000,0, , , ,0.000000000000000,0.000000000000000,10000.000000000000000,76,62831.853071795863798,314159265.358979284763336,0.000000000000000,0.000000000000000
78,Coral Um,-20.437659000000000,-40.326006999999997, , , ,0.000000000000000,0, , , ,0.000000000000000,0.000000000000000,10000.000000000000000,77,62831.853071795863798,314159265.358979284763336,0.000000000000000,0.000000000000000
79,Barrinha,-20.422540999999999,-40.321933999999999, , , ,0.000000000000000,0, , , ,0.000000000000000,0.000000000000000,10000.000000000000000,78,62831.853071795863798,314159265.358979284763336,0.000000000000000,0.000000000000000
80,Praia de Camburi,-20.279677000000000,-40.248994000000003, , , ,0.000000000000000,0, , , ,0.000000000000000,0.000000000000000,10000.000000000000000,79,62831.853071795863798,314159265.358979284763336,0.000000000000000,0.000000000000000
81,Velzyland,-20.244838999999999,-40.216205000000002, , , ,0.000000000000000,0, , , ,0.000000000000000,0.000000000000000,10000.000000000000000,80,62831.853071795863798,314159265.358979284763336,0.000000000000000,0.000000000000000
82,Ponta da Cacao,-20.219573000000000,-40.196268000000003, , , ,0.000000000000000,0, , , ,0.000000000000000,0.000000000000000,10000.000000000000000,81,62831.853071795863798,314159265.358979284763336,0.000000000000000,0.000000000000000
83,"Manguinhos, Brazil",-20.199344000000000,-40.190266999999999, , , ,0.000000000000000,0, , , ,0.000000000000000,0.000000000000000,10000.000000000000000,82,62831.853071795863798,314159265.358979284763336,0.000000000000000,0.000000000000000
84,Praia da Baleia,-20.171105000000001,-40.184866000000000, , , ,0.000000000000000,0, , , ,0.000000000000000,0.000000000000000,10000.000000000000000,83,62831.853071795863798,314159265.358979284763336,0.000000000000000,0.000000000000000
85,Jacaraipe - Solemar,-20.109774999999999,-40.171481000000000, , , ,0.000000000000000,0, , , ,0.000000000000000,0.000000000000000,10000.000000000000000,84,62831.853071795863798,314159265.358979284763336,0.000000000000000,0.000000000000000
86,Xa,-20.107229000000000,-40.171174999999998, , , ,0.000000000000000,0, , , ,0.000000000000000,0.000000000000000,10000.000000000000000,85,62831.853071795863798,314159265.358979284763336,0.000000000000000,0.000000000000000
87,Nova Almeida,-20.058461999999999,-40.183000999999997, , , ,0.000000000000000,0, , , ,0.000000000000000,0.000000000000000,10000.000000000000000,86,62831.853071795863798,314159265.358979284763336,0.000000000000000,0.000000000000000
88,Praia Grande,-20.047100000000000,-40.182743000000002, , , ,0.000000000000000,0, , , ,0.000000000000000,0.000000000000000,10000.000000000000000,87,62831.853071795863798,314159265.358979284763336,0.000000000000000,0.000000000000000
89,Regencia,-19.562811000000000,-39.764263999999997, , , ,0.000000000000000,0, , , ,0.000000000000000,0.000000000000000,10000.000000000000000,88,62831.853071795863798,314159265.358979284763336,0.000000000000000,0.000000000000000
90,Guriri,-18.910750000000000,-39.738563999999997, , , ,0.000000000000000,0, , , ,0.000000000000000,0.000000000000000,10000.000000000000000,89,62831.853071795863798,314159265.358979284763336,0.000000000000000,0.000000000000000
91,Milionarios,-14.847631000000000,-39.022942000000000, , , ,0.000000000000000,0, , , ,0.000000000000000,0.000000000000000,10000.000000000000000,90,62831.853071795863798,314159265.358979284763336,0.000000000000000,0.000000000000000
92,Sul,-14.831120000000000,-39.022562999999998, , , ,0.000000000000000,0, , , ,0.000000000000000,0.000000000000000,10000.000000000000000,91,62831.853071795863798,314159265.358979284763336,0.000000000000000,0.000000000000000
93,Pedra da Cachorra,-14.821026000000000,-39.023632999999997, , , ,0.000000000000000,0, , , ,0.000000000000000,0.000000000000000,10000.000000000000000,92,62831.853071795863798,314159265.358979284763336,0.000000000000000,0.000000000000000
94,Jardim Atlantico,-14.815026000000000,-39.023400000000002, , , ,0.000000000000000,0, , , ,0.000000000000000,0.000000000000000,10000.000000000000000,93,62831.853071795863798,314159265.358979284763336,0.000000000000000,0.000000000000000
95,Baduska,-14.809442000000001,-39.023423000000001, , , ,0.000000000000000,0, , , ,0.000000000000000,0.000000000000000,10000.000000000000000,94,62831.853071795863798,314159265.358979284763336,0.000000000000000,0.000000000000000
96,Norte,-14.660090000000000,-39.063006999999999, , , ,0.000000000000000,0, , , ,0.000000000000000,0.000000000000000,10000.000000000000000,95,62831.853071795863798,314159265.358979284763336,0.000000000000000,0.000000000000000
97,Havaizinho,-14.468062000000000,-39.023161000000002, , , ,0.000000000000000,0, , , ,0.000000000000000,0.000000000000000,10000.000000000000000,96,62831.853071795863798,314159265.358979284763336,0.000000000000000,0.000000000000000
98,Sao Jose,-14.316062000000001,-38.990701000000001, , , ,0.000000000000000,0, , , ,0.000000000000000,0.000000000000000,10000.000000000000000,97,62831.853071795863798,314159265.358979284763336,0.000000000000000,0.000000000000000
99,Corals,-14.275408000000001,-38.982568999999998, , , ,0.000000000000000,0, , , ,0.000000000000000,0.000000000000000,10000.000000000000000,98,62831.853071795863798,314159265.358979284763336,0.000000000000000,0.000000000000000
100,Tony,-13.016731999999999,-38.488781000000003, , , ,0.000000000000000,0, , , ,0.000000000000000,0.000000000000000,10000.000000000000000,99,62831.853071795863798,314159265.358979284763336,0.000000000000000,0.000000000000000
101,Meridien,-13.016598000000000,-38.484878999999999, , , ,0.000000000000000,0, , , ,0.000000000000000,0.000000000000000,10000.000000000000000,100,62831.853071795863798,314159265.358979284763336,0.000000000000000,0.000000000000000
102,Amaralina,-13.015369000000000,-38.471834000000001, , , ,0.000000000000000,0, , , ,0.000000000000000,0.000000000000000,10000.000000000000000,101,62831.853071795863798,314159265.358979284763336,0.000000000000000,0.000000000000000
103,Tubao,-13.010683999999999,-38.461410999999998, , , ,0.000000000000000,0, , , ,0.000000000000000,0.000000000000000,10000.000000000000000,102,62831.853071795863798,314159265.358979284763336,0.000000000000000,0.000000000000000
104,Psiu,-12.995919000000001,-38.439390000000003, , , ,0.000000000000000,0, , , ,0.000000000000000,0.000000000000000,10000.000000000000000,103,62831.853071795863798,314159265.358979284763336,0.000000000000000,0.000000000000000
105,Alex,-12.973279000000000,-38.406477000000002, , , ,0.000000000000000,0, , , ,0.000000000000000,0.000000000000000,10000.000000000000000,104,62831.853071795863798,314159265.358979284763336,0.000000000000000,0.000000000000000
106,Terceira Ponte,-12.963839999999999,-38.396822000000000, , , ,0.000000000000000,0, , , ,0.000000000000000,0.000000000000000,10000.000000000000000,105,62831.853071795863798,314159265.358979284763336,0.000000000000000,0.000000000000000
107,SESC,-12.960485000000000,-38.390998000000003, , , ,0.000000000000000,0, , , ,0.000000000000000,0.000000000000000,10000.000000000000000,106,62831.853071795863798,314159265.358979284763336,0.000000000000000,0.000000000000000
108,Farol,-12.958147000000000,-38.352812999999998, , , ,0.000000000000000,0, , , ,0.000000000000000,0.000000000000000,10000.000000000000000,107,62831.853071795863798,314159265.358979284763336,0.000000000000000,0.000000000000000
109,Pedro do Sal,-12.954224000000000,-38.347234000000000, , , ,0.000000000000000,0, , , ,0.000000000000000,0.000000000000000,10000.000000000000000,108,62831.853071795863798,314159265.358979284763336,0.000000000000000,0.000000000000000
110,Itapoa,-12.952339000000000,-38.369608999999997, , , ,0.000000000000000,0, , , ,0.000000000000000,0.000000000000000,10000.000000000000000,109,62831.853071795863798,314159265.358979284763336,0.000000000000000,0.000000000000000
111,Seper,-12.952040999999999,-38.343243999999999, , , ,0.000000000000000,0, , , ,0.000000000000000,0.000000000000000,10000.000000000000000,110,62831.853071795863798,314159265.358979284763336,0.000000000000000,0.000000000000000
112,Corrente,-12.948985000000000,-38.339199999999998, , , ,0.000000000000000,0, , , ,0.000000000000000,0.000000000000000,10000.000000000000000,111,62831.853071795863798,314159265.358979284763336,0.000000000000000,0.000000000000000
113,Stela Maris,-12.947385000000001,-38.337372000000002, , , ,0.000000000000000,0, , , ,0.000000000000000,0.000000000000000,10000.000000000000000,112,62831.853071795863798,314159265.358979284763336,0.000000000000000,0.000000000000000
114,Plator,-12.946393000000000,-38.333083999999999, , , ,0.000000000000000,0, , , ,0.000000000000000,0.000000000000000,10000.000000000000000,113,62831.853071795863798,314159265.358979284763336,0.000000000000000,0.000000000000000
115,Aleluia,-12.926800999999999,-38.312618999999998, , , ,0.000000000000000,0, , , ,0.000000000000000,0.000000000000000,10000.000000000000000,114,62831.853071795863798,314159265.358979284763336,0.000000000000000,0.000000000000000
116,Ipitanga,-12.920477000000000,-38.309717999999997, , , ,0.000000000000000,0, , , ,0.000000000000000,0.000000000000000,10000.000000000000000,115,62831.853071795863798,314159265.358979284763336,0.000000000000000,0.000000000000000
117,Vilas,-12.894546000000000,-38.290790999999999, , , ,0.000000000000000,0, , , ,0.000000000000000,0.000000000000000,10000.000000000000000,116,62831.853071795863798,314159265.358979284763336,0.000000000000000,0.000000000000000
118,Busca Vida,-12.863464000000000,-38.255961999999997, , , ,0.000000000000000,0, , , ,0.000000000000000,0.000000000000000,10000.000000000000000,117,62831.853071795863798,314159265.358979284763336,0.000000000000000,0.000000000000000
119,Itacimirim,-12.639232000000000,-38.048194000000002, , , ,0.000000000000000,0, , , ,0.000000000000000,0.000000000000000,10000.000000000000000,118,62831.853071795863798,314159265.358979284763336,0.000000000000000,0.000000000000000
120,Praia do Forte,-12.583304999999999,-38.005077999999997, , , ,0.000000000000000,0, , , ,0.000000000000000,0.000000000000000,10000.000000000000000,119,62831.853071795863798,314159265.358979284763336,0.000000000000000,0.000000000000000
121,Imbassai,-12.342055000000000,-37.846200000000003, , , ,0.000000000000000,0, , , ,0.000000000000000,0.000000000000000,10000.000000000000000,120,62831.853071795863798,314159265.358979284763336,0.000000000000000,0.000000000000000
122,Costa do Sauipe,-12.022171000000000,-37.645508000000000, , , ,0.000000000000000,0, , , ,0.000000000000000,0.000000000000000,10000.000000000000000,121,62831.853071795863798,314159265.358979284763336,0.000000000000000,0.000000000000000
123,Marlin,-11.939802999999999,-37.602476000000003, , , ,0.000000000000000,0, , , ,0.000000000000000,0.000000000000000,10000.000000000000000,122,62831.853071795863798,314159265.358979284763336,0.000000000000000,0.000000000000000
124,Conde,-11.848141000000000,-37.558169999999997, , , ,0.000000000000000,0, , , ,0.000000000000000,0.000000000000000,10000.000000000000000,123,62831.853071795863798,314159265.358979284763336,0.000000000000000,0.000000000000000
125,Mangue Seco,-11.483613999999999,-37.364454000000002, , , ,0.000000000000000,0, , , ,0.000000000000000,0.000000000000000,10000.000000000000000,124,62831.853071795863798,314159265.358979284763336,0.000000000000000,0.000000000000000
126,Mosqueiro,-11.138116000000000,-37.145493000000002, , , ,0.000000000000000,0, , , ,0.000000000000000,0.000000000000000,10000.000000000000000,125,62831.853071795863798,314159265.358979284763336,0.000000000000000,0.000000000000000
127,Aruana,-11.067069000000000,-37.101289000000001, , , ,0.000000000000000,0, , , ,0.000000000000000,0.000000000000000,10000.000000000000000,126,62831.853071795863798,314159265.358979284763336,0.000000000000000,0.000000000000000
128,Hawaiizinho,-11.043927999999999,-37.082977999999997, , , ,0.000000000000000,0, , , ,0.000000000000000,0.000000000000000,10000.000000000000000,127,62831.853071795863798,314159265.358979284763336,0.000000000000000,0.000000000000000
129,Praia do Meio,-10.999541000000001,-37.050151000000000, , , ,0.000000000000000,0, , , ,0.000000000000000,0.000000000000000,10000.000000000000000,128,62831.853071795863798,314159265.358979284763336,0.000000000000000,0.000000000000000
130,Pirambu,-10.746346000000001,-36.855099000000003, , , ,0.000000000000000,0, , , ,0.000000000000000,0.000000000000000,10000.000000000000000,129,62831.853071795863798,314159265.358979284763336,0.000000000000000,0.000000000000000
131,Ponta do Mangue,-10.639483000000000,-36.678539000000001, , , ,0.000000000000000,0, , , ,0.000000000000000,0.000000000000000,10000.000000000000000,130,62831.853071795863798,314159265.358979284763336,0.000000000000000,0.000000000000000
132,Pontal de Peba,-10.367584000000001,-36.303941000000002, , , ,0.000000000000000,0, , , ,0.000000000000000,0.000000000000000,10000.000000000000000,131,62831.853071795863798,314159265.358979284763336,0.000000000000000,0.000000000000000
133,Mihai,-10.196728000000000,-36.181641999999997, , , ,0.000000000000000,0, , , ,0.000000000000000,0.000000000000000,10000.000000000000000,132,62831.853071795863798,314159265.358979284763336,0.000000000000000,0.000000000000000
134,Pontal do Coruripe,-10.160774999999999,-36.150663999999999, , , ,0.000000000000000,0, , , ,0.000000000000000,0.000000000000000,10000.000000000000000,133,62831.853071795863798,314159265.358979284763336,0.000000000000000,0.000000000000000
135,Forjos,-10.107661999999999,-36.097672000000003, , , ,0.000000000000000,0, , , ,0.000000000000000,0.000000000000000,10000.000000000000000,134,62831.853071795863798,314159265.358979284763336,0.000000000000000,0.000000000000000
136,Poxim,-10.063563000000000,-36.040908999999999, , , ,0.000000000000000,0, , , ,0.000000000000000,0.000000000000000,10000.000000000000000,135,62831.853071795863798,314159265.358979284763336,0.000000000000000,0.000000000000000
137,Jacarecica,-9.916383000000000,-35.945963999999996, , , ,0.000000000000000,0, , , ,0.000000000000000,0.000000000000000,10000.000000000000000,136,62831.853071795863798,314159265.358979284763336,0.000000000000000,0.000000000000000
138,Praia do Meio,-9.824446999999999,-35.877803000000000, , , ,0.000000000000000,0, , , ,0.000000000000000,0.000000000000000,10000.000000000000000,137,62831.853071795863798,314159265.358979284763336,0.000000000000000,0.000000000000000
139,Praia do Pontal,-9.682589999999999,-35.758536999999997, , , ,0.000000000000000,0, , , ,0.000000000000000,0.000000000000000,10000.000000000000000,138,62831.853071795863798,314159265.358979284763336,0.000000000000000,0.000000000000000
140,Salgema,-9.679629000000000,-35.718974000000003, , , ,0.000000000000000,0, , , ,0.000000000000000,0.000000000000000,10000.000000000000000,139,62831.853071795863798,314159265.358979284763336,0.000000000000000,0.000000000000000
141,Pier do Emissario,-9.673301000000000,-35.715234000000002, , , ,0.000000000000000,0, , , ,0.000000000000000,0.000000000000000,10000.000000000000000,140,62831.853071795863798,314159265.358979284763336,0.000000000000000,0.000000000000000
142,Praia do Sobral,-9.666869000000000,-35.710735000000000, , , ,0.000000000000000,0, , , ,0.000000000000000,0.000000000000000,10000.000000000000000,141,62831.853071795863798,314159265.358979284763336,0.000000000000000,0.000000000000000
143,"Pico da Barra, Brazil",-9.665630000000000,-35.697186000000002, , , ,0.000000000000000,0, , , ,0.000000000000000,0.000000000000000,10000.000000000000000,142,62831.853071795863798,314159265.358979284763336,0.000000000000000,0.000000000000000
144,Pedra Virada,-9.585521999999999,-35.660038000000000, , , ,0.000000000000000,0, , , ,0.000000000000000,0.000000000000000,10000.000000000000000,143,62831.853071795863798,314159265.358979284763336,0.000000000000000,0.000000000000000
145,Praia de Jatiuca,-9.531449000000000,-35.590927999999998, , , ,0.000000000000000,0, , , ,0.000000000000000,0.000000000000000,10000.000000000000000,144,62831.853071795863798,314159265.358979284763336,0.000000000000000,0.000000000000000
146,Garca Torta,-9.487114000000000,-35.557476999999999, , , ,0.000000000000000,0, , , ,0.000000000000000,0.000000000000000,10000.000000000000000,145,62831.853071795863798,314159265.358979284763336,0.000000000000000,0.000000000000000
147,Mirante da Sirena,-9.430906000000000,-35.503683000000002, , , ,0.000000000000000,0, , , ,0.000000000000000,0.000000000000000,10000.000000000000000,146,62831.853071795863798,314159265.358979284763336,0.000000000000000,0.000000000000000
148,Japaratinga,-9.261582000000001,-35.353366000000001, , , ,0.000000000000000,0, , , ,0.000000000000000,0.000000000000000,10000.000000000000000,147,62831.853071795863798,314159265.358979284763336,0.000000000000000,0.000000000000000
149,Impossivel,-8.615505000000001,-35.020375000000001, , , ,0.000000000000000,0, , , ,0.000000000000000,0.000000000000000,10000.000000000000000,148,62831.853071795863798,314159265.358979284763336,0.000000000000000,0.000000000000000
150,Serrambi,-8.576358000000001,-35.028714999999998, , , ,0.000000000000000,0, , , ,0.000000000000000,0.000000000000000,10000.000000000000000,149,62831.853071795863798,314159265.358979284763336,0.000000000000000,0.000000000000000
151,Porto de Galinhas,-8.488678000000000,-34.999501000000002, , , ,0.000000000000000,0, , , ,0.000000000000000,0.000000000000000,10000.000000000000000,150,62831.853071795863798,314159265.358979284763336,0.000000000000000,0.000000000000000
152,Cupe,-8.479708000000000,-34.996577000000002, , , ,0.000000000000000,0, , , ,0.000000000000000,0.000000000000000,10000.000000000000000,151,62831.853071795863798,314159265.358979284763336,0.000000000000000,0.000000000000000
153,Gaibu,-8.341567000000000,-34.948825999999997, , , ,0.000000000000000,0, , , ,0.000000000000000,0.000000000000000,10000.000000000000000,152,62831.853071795863798,314159265.358979284763336,0.000000000000000,0.000000000000000
154,Bessa,-7.091138000000000,-34.832765000000002, , , ,0.000000000000000,0, , , ,0.000000000000000,0.000000000000000,10000.000000000000000,153,62831.853071795863798,314159265.358979284763336,0.000000000000000,0.000000000000000
155,Saji,-6.466880000000000,-34.970449000000002, , , ,0.000000000000000,0, , , ,0.000000000000000,0.000000000000000,10000.000000000000000,154,62831.853071795863798,314159265.358979284763336,0.000000000000000,0.000000000000000
156,Farol,-6.408908000000000,-34.979016999999999, , , ,0.000000000000000,0, , , ,0.000000000000000,0.000000000000000,10000.000000000000000,155,62831.853071795863798,314159265.358979284763336,0.000000000000000,0.000000000000000
157,Xilauzinho,-6.395101000000000,-34.983204999999998, , , ,0.000000000000000,0, , , ,0.000000000000000,0.000000000000000,10000.000000000000000,156,62831.853071795863798,314159265.358979284763336,0.000000000000000,0.000000000000000
158,Mar Aberto,-6.379758000000000,-34.989437000000002, , , ,0.000000000000000,0, , , ,0.000000000000000,0.000000000000000,10000.000000000000000,157,62831.853071795863798,314159265.358979284763336,0.000000000000000,0.000000000000000
159,Pontal,-6.368680000000000,-34.993423999999997, , , ,0.000000000000000,0, , , ,0.000000000000000,0.000000000000000,10000.000000000000000,158,62831.853071795863798,314159265.358979284763336,0.000000000000000,0.000000000000000
160,Mar da Frente,-6.365217000000000,-35.006211999999998, , , ,0.000000000000000,0, , , ,0.000000000000000,0.000000000000000,10000.000000000000000,159,62831.853071795863798,314159265.358979284763336,0.000000000000000,0.000000000000000
161,Lajinha,-6.278960000000000,-35.033028000000002, , , ,0.000000000000000,0, , , ,0.000000000000000,0.000000000000000,10000.000000000000000,160,62831.853071795863798,314159265.358979284763336,0.000000000000000,0.000000000000000
162,Afogados,-6.244350000000000,-35.036464000000002, , , ,0.000000000000000,0, , , ,0.000000000000000,0.000000000000000,10000.000000000000000,161,62831.853071795863798,314159265.358979284763336,0.000000000000000,0.000000000000000
163,Sororoca,-6.238074000000000,-35.035608000000003, , , ,0.000000000000000,0, , , ,0.000000000000000,0.000000000000000,10000.000000000000000,162,62831.853071795863798,314159265.358979284763336,0.000000000000000,0.000000000000000
164,Abacateiro,-6.233891000000000,-35.036746999999998, , , ,0.000000000000000,0, , , ,0.000000000000000,0.000000000000000,10000.000000000000000,163,62831.853071795863798,314159265.358979284763336,0.000000000000000,0.000000000000000
165,Tibau do Sul,-6.180279000000000,-35.089708999999999, , , ,0.000000000000000,0, , , ,0.000000000000000,0.000000000000000,10000.000000000000000,164,62831.853071795863798,314159265.358979284763336,0.000000000000000,0.000000000000000
166,Tabatinga,-6.049479000000000,-35.108238000000000, , , ,0.000000000000000,0, , , ,0.000000000000000,0.000000000000000,10000.000000000000000,165,62831.853071795863798,314159265.358979284763336,0.000000000000000,0.000000000000000
167,Xoxoline,-6.005800000000000,-35.105258999999997, , , ,0.000000000000000,0, , , ,0.000000000000000,0.000000000000000,10000.000000000000000,166,62831.853071795863798,314159265.358979284763336,0.000000000000000,0.000000000000000
168,Pirangi Reef,-5.980259000000000,-35.107796000000000, , , ,0.000000000000000,0, , , ,0.000000000000000,0.000000000000000,10000.000000000000000,167,62831.853071795863798,314159265.358979284763336,0.000000000000000,0.000000000000000
169,Cotovelo,-5.949906000000000,-35.151975000000000, , , ,0.000000000000000,0, , , ,0.000000000000000,0.000000000000000,10000.000000000000000,168,62831.853071795863798,314159265.358979284763336,0.000000000000000,0.000000000000000
170,Miami,-5.794834000000000,-35.181663999999998, , , ,0.000000000000000,0, , , ,0.000000000000000,0.000000000000000,10000.000000000000000,169,62831.853071795863798,314159265.358979284763336,0.000000000000000,0.000000000000000
171,Areia Preta,-5.792249000000000,-35.184387000000001, , , ,0.000000000000000,0, , , ,0.000000000000000,0.000000000000000,10000.000000000000000,170,62831.853071795863798,314159265.358979284763336,0.000000000000000,0.000000000000000
172,Praia dos Artistas,-5.781239000000000,-35.192050000000002, , , ,0.000000000000000,0, , , ,0.000000000000000,0.000000000000000,10000.000000000000000,171,62831.853071795863798,314159265.358979284763336,0.000000000000000,0.000000000000000
173,Genipabu,-5.694407000000000,-35.201922000000003, , , ,0.000000000000000,0, , , ,0.000000000000000,0.000000000000000,10000.000000000000000,172,62831.853071795863798,314159265.358979284763336,0.000000000000000,0.000000000000000
174,Touros Area,-5.197434000000000,-35.457929999999998, , , ,0.000000000000000,0, , , ,0.000000000000000,0.000000000000000,10000.000000000000000,173,62831.853071795863798,314159265.358979284763336,0.000000000000000,0.000000000000000
175,Urca da Concei&ccedil;&atilde;o,-5.069617000000000,-35.800230999999997, , , ,0.000000000000000,0, , , ,0.000000000000000,0.000000000000000,10000.000000000000000,174,62831.853071795863798,314159265.358979284763336,0.000000000000000,0.000000000000000
176,Cocoa das Lavadeiras,-5.066515000000000,-35.862005000000003, , , ,0.000000000000000,0, , , ,0.000000000000000,0.000000000000000,10000.000000000000000,175,62831.853071795863798,314159265.358979284763336,0.000000000000000,0.000000000000000
177,Baia das Ratas,-3.813000000000000,-32.393000000000001, , , ,0.000000000000000,0, , , ,0.000000000000000,0.000000000000000,10000.000000000000000,176,62831.853071795863798,314159265.358979284763336,93.522952355697797,0.297692803199143
178,Volta da Jurema,-3.724294000000000,-38.496071999999998, , , ,0.000000000000000,0, , , ,0.000000000000000,0.000000000000000,10000.000000000000000,177,62831.853071795863798,314159265.358979284763336,0.000000000000000,0.000000000000000
179,Portao,-3.719326000000000,-38.510655000000000, , , ,0.000000000000000,0, , , ,0.000000000000000,0.000000000000000,10000.000000000000000,178,62831.853071795863798,314159265.358979284763336,0.000000000000000,0.000000000000000
180,Barra do Ceara,-3.692659000000000,-38.584716000000000, , , ,0.000000000000000,0, , , ,0.000000000000000,0.000000000000000,10000.000000000000000,179,62831.853071795863798,314159265.358979284763336,0.000000000000000,0.000000000000000
181,Praia do Pecem,-3.546170000000000,-38.806919000000001, , , ,0.000000000000000,0, , , ,0.000000000000000,0.000000000000000,10000.000000000000000,180,62831.853071795863798,314159265.358979284763336,0.000000000000000,0.000000000000000
182,Tabinha,-3.500935000000000,-38.911282000000000, , , ,0.000000000000000,0, , , ,0.000000000000000,0.000000000000000,10000.000000000000000,181,62831.853071795863798,314159265.358979284763336,0.000000000000000,0.000000000000000
183,Pedra do Meio,-3.410858000000000,-39.040807000000001, , , ,0.000000000000000,0, , , ,0.000000000000000,0.000000000000000,10000.000000000000000,182,62831.853071795863798,314159265.358979284763336,0.000000000000000,0.000000000000000
184,Havaizinho,-3.403507000000000,-39.022171000000000, , , ,0.000000000000000,0, , , ,0.000000000000000,0.000000000000000,10000.000000000000000,183,62831.853071795863798,314159265.358979284763336,0.000000000000000,0.000000000000000
185,Curral,-3.403353000000000,-39.025868000000003, , , ,0.000000000000000,0, , , ,0.000000000000000,0.000000000000000,10000.000000000000000,184,62831.853071795863798,314159265.358979284763336,0.000000000000000,0.000000000000000
186,Outside,-3.398539000000000,-39.013306000000000, , , ,0.000000000000000,0, , , ,0.000000000000000,0.000000000000000,10000.000000000000000,185,62831.853071795863798,314159265.358979284763336,0.000000000000000,0.000000000000000
187,Atins,-2.555789000000000,-42.727836000000003, , , ,0.000000000000000,0, , , ,0.000000000000000,0.000000000000000,10000.000000000000000,186,62831.853071795863798,314159265.358979284763336,102.825935453371002,0.327305118109044
188,Ponta d'Areia,-2.497384000000000,-44.311779000000001, , , ,0.000000000000000,0, , , ,0.000000000000000,0.000000000000000,10000.000000000000000,187,62831.853071795863798,314159265.358979284763336,157.745996627333994,0.502121102323954
189,S&atilde;o Marcos,-2.485445000000000,-44.297899999999998, , , ,0.000000000000000,0, , , ,0.000000000000000,0.000000000000000,10000.000000000000000,188,62831.853071795863798,314159265.358979284763336,121.779081801123994,0.387634856676824
190,Calhau,-2.480673000000000,-44.249679999999998, , , ,0.000000000000000,0, , , ,0.000000000000000,0.000000000000000,10000.000000000000000,189,62831.853071795863798,314159265.358979284763336,71.568751763357199,0.227810412281102
191,Olho D'Agu,-2.477097000000000,-44.230155000000003, , , ,0.000000000000000,0, , , ,0.000000000000000,0.000000000000000,10000.000000000000000,190,62831.853071795863798,314159265.358979284763336,80.215640027746204,0.255334312473918
192,Ponta do Farol,-2.456442000000000,-44.173347999999997, , , ,0.000000000000000,0, , , ,0.000000000000000,0.000000000000000,10000.000000000000000,191,62831.853071795863798,314159265.358979284763336,121.333750384362006,0.386217322750988
193, ,0.000000000000000,0.000000000000000,Rio Grande Do Sul,Hermenegildo, ,3.000000000000000,3,Right and left,Beach-break,All surfers,-33.668354000000001,-53.262405000000001,10000.000000000000000,192,62831.853071795863798,314159265.358979284763336,0.000000000000000,0.000000000000000
194, ,0.000000000000000,0.000000000000000,Rio Grande Do Sul,Navio, ,3.000000000000000,2,Right and left,Beach-break,All surfers,-32.290560999999997,-52.258674999999997,10000.000000000000000,193,62831.853071795863798,314159265.358979284763336,0.000000000000000,0.000000000000000
195, ,0.000000000000000,0.000000000000000,Rio Grande Do Sul,Tres Marias, ,5.000000000000000,2,Right and left,Sand-bar,Pros or kamikaze only...,-32.192610999999999,-52.085065999999998,10000.000000000000000,194,62831.853071795863798,314159265.358979284763336,0.000000000000000,0.000000000000000
196, ,0.000000000000000,0.000000000000000,Rio Grande Do Sul,Praia do Cassino, ,3.000000000000000,2,Right and left,Sand-bar,All surfers,-32.178336999999999,-52.142142999999997,10000.000000000000000,195,62831.853071795863798,314159265.358979284763336,0.000000000000000,0.000000000000000
197, ,0.000000000000000,0.000000000000000,Rio Grande Do Sul,Sao Jose do Norte, ,3.000000000000000,0,Right and left,Beach-break,All surfers,-32.008076000000003,-52.018889999999999,10000.000000000000000,196,62831.853071795863798,314159265.358979284763336,0.000000000000000,0.000000000000000
198, ,0.000000000000000,0.000000000000000,Rio Grande Do Sul,Quintão, ,3.500000000000000,3,Right and left,Sand-bar,Experienced surfers,-30.410782000000001,-50.292664000000002,10000.000000000000000,197,62831.853071795863798,314159265.358979284763336,0.000000000000000,0.000000000000000
199, ,0.000000000000000,0.000000000000000,Rio Grande Do Sul,Nova Tramandaí, ,3.000000000000000,3,Right and left,Beach-break,All surfers,-30.045256999999999,-50.150033999999998,10000.000000000000000,198,62831.853071795863798,314159265.358979284763336,0.000000000000000,0.000000000000000
200, ,0.000000000000000,0.000000000000000,Rio Grande Do Sul,Oasis Sul, ,3.000000000000000,3,Right and left,Beach-break,All surfers,-30.039822999999998,-50.147266000000002,10000.000000000000000,199,62831.853071795863798,314159265.358979284763336,0.000000000000000,0.000000000000000
201, ,0.000000000000000,0.000000000000000,Rio Grande Do Sul,Tramandai - Malvina, ,3.500000000000000,3,Right and left,Beach-break,All surfers,-30.005490000000002,-50.129156000000002,10000.000000000000000,200,62831.853071795863798,314159265.358979284763336,0.000000000000000,0.000000000000000
202, ,0.000000000000000,0.000000000000000,Rio Grande Do Sul,Tramandai,"Tramandai Pier, Northside",3.000000000000000,3,Right and left,Beach-break,All surfers,-29.993077000000000,-50.125508000000004,10000.000000000000000,201,62831.853071795863798,314159265.358979284763336,0.000000000000000,0.000000000000000
203, ,0.000000000000000,0.000000000000000,Rio Grande Do Sul,Rainha do Mar, ,3.500000000000000,5,Right and left,Beach-break,All surfers,-29.859477999999999,-50.064568999999999,10000.000000000000000,202,62831.853071795863798,314159265.358979284763336,0.000000000000000,0.000000000000000
204, ,0.000000000000000,0.000000000000000,Rio Grande Do Sul,Xangri-lá, ,3.000000000000000,3,Right and left,Beach-break,All surfers,-29.785982000000001,-50.024636000000001,10000.000000000000000,203,62831.853071795863798,314159265.358979284763336,0.000000000000000,0.000000000000000
205, ,0.000000000000000,0.000000000000000,Rio Grande Do Sul,Atlântida - Pier, ,3.000000000000000,3,Right and left,Sand-bar,All surfers,-29.784716000000000,-50.022554000000000,10000.000000000000000,204,62831.853071795863798,314159265.358979284763336,0.000000000000000,0.000000000000000
206, ,0.000000000000000,0.000000000000000,Rio Grande Do Sul,Capao da Canoa, ,3.000000000000000,3,Right and left,Sand-bar,All surfers,-29.758676999999999,-50.010967000000001,10000.000000000000000,205,62831.853071795863798,314159265.358979284763336,0.000000000000000,0.000000000000000
207, ,0.000000000000000,0.000000000000000,Rio Grande Do Sul,Capao Novo, ,3.000000000000000,3,Right and left,Beach-break,All surfers,-29.686972000000001,-49.972558999999997,10000.000000000000000,206,62831.853071795863798,314159265.358979284763336,0.000000000000000,0.000000000000000
208, ,0.000000000000000,0.000000000000000,Rio Grande Do Sul,Curumim, ,3.000000000000000,4,Right and left,Beach-break,Experienced surfers,-29.625605000000000,-49.935744999999997,10000.000000000000000,207,62831.853071795863798,314159265.358979284763336,0.000000000000000,0.000000000000000
209, ,0.000000000000000,0.000000000000000,Rio Grande Do Sul,Itapeva, ,3.000000000000000,3,Right and left,Beach-break,All surfers,-29.372975000000000,-49.784109999999998,10000.000000000000000,208,62831.853071795863798,314159265.358979284763336,0.000000000000000,0.000000000000000
210, ,0.000000000000000,0.000000000000000,Rio Grande Do Sul,Guarita, ,3.000000000000000,2,Right and left,Beach-break,All surfers,-29.357804999999999,-49.733997000000002,10000.000000000000000,209,62831.853071795863798,314159265.358979284763336,0.000000000000000,0.000000000000000
211, ,0.000000000000000,0.000000000000000,Rio Grande Do Sul,Cal, ,3.500000000000000,3,Right and left,Beach-break,All surfers,-29.349421000000000,-49.729849999999999,10000.000000000000000,210,62831.853071795863798,314159265.358979284763336,0.000000000000000,0.000000000000000
212, ,0.000000000000000,0.000000000000000,Rio Grande Do Sul,Ilha dos Lobos, ,5.000000000000000,2,Left,Reef-rocky,Pros or kamikaze only...,-29.346876999999999,-49.704411999999998,10000.000000000000000,211,62831.853071795863798,314159265.358979284763336,0.000000000000000,0.000000000000000
213, ,0.000000000000000,0.000000000000000,Rio Grande Do Sul,Prainha, ,3.500000000000000,3,Right and left,Beach-break,Experienced surfers,-29.342434999999998,-49.724497000000000,10000.000000000000000,212,62831.853071795863798,314159265.358979284763336,0.000000000000000,0.000000000000000
214, ,0.000000000000000,0.000000000000000,Rio Grande Do Sul,Saraiva, ,3.500000000000000,3,Right and left,Beach-break,Experienced surfers,-29.340395999999998,-49.723241000000002,10000.000000000000000,213,62831.853071795863798,314159265.358979284763336,0.000000000000000,0.000000000000000
215, ,0.000000000000000,0.000000000000000,Rio Grande Do Sul,Molhes, ,3.500000000000000,3,Right and left,Beach-break,All surfers,-29.327311000000002,-49.712007999999997,10000.000000000000000,214,62831.853071795863798,314159265.358979284763336,0.000000000000000,0.000000000000000
216, ,0.000000000000000,0.000000000000000,Rio Grande Do Sul,Passo de Torres, ,3.500000000000000,2,Right and left,Rivermouth,Experienced surfers,-29.324159000000002,-49.712415999999997,10000.000000000000000,215,62831.853071795863798,314159265.358979284763336,0.000000000000000,0.000000000000000
217, ,0.000000000000000,0.000000000000000,Santa Catarina South,Gaivota, ,3.000000000000000,2,Right and left,Beach-break,Experienced surfers,-29.164828000000000,-49.582157000000002,10000.000000000000000,216,62831.853071795863798,314159265.358979284763336,0.000000000000000,0.000000000000000
218, ,0.000000000000000,0.000000000000000,Santa Catarina South,Arroio do Silva, ,3.500000000000000,2,Right and left,Beach-break,Experienced surfers,-28.943866000000000,-49.385604999999998,10000.000000000000000,217,62831.853071795863798,314159265.358979284763336,0.000000000000000,0.000000000000000
219, ,0.000000000000000,0.000000000000000,Santa Catarina South,Morro dos Conventos, ,3.500000000000000,3,Right and left,Beach-break,All surfers,-28.937256000000001,-49.329642999999997,10000.000000000000000,218,62831.853071795863798,314159265.358979284763336,0.000000000000000,0.000000000000000
220, ,0.000000000000000,0.000000000000000,Santa Catarina South,Rincão, ,3.500000000000000,4,Right and left,Beach-break,Experienced surfers,-28.833846999999999,-49.216003000000001,10000.000000000000000,219,62831.853071795863798,314159265.358979284763336,0.000000000000000,0.000000000000000
221, ,0.000000000000000,0.000000000000000,Santa Catarina South,Jaguaruna, ,3.500000000000000,3,Right and left,Beach-break,All surfers,-28.635157000000000,-48.948211999999998,10000.000000000000000,220,62831.853071795863798,314159265.358979284763336,0.000000000000000,0.000000000000000
222, ,0.000000000000000,0.000000000000000,Santa Catarina South,Camacho, ,3.000000000000000,2, ,Beach-break,All surfers,-28.615946000000001,-48.859506000000003,10000.000000000000000,221,62831.853071795863798,314159265.358979284763336,0.000000000000000,0.000000000000000
223, ,0.000000000000000,0.000000000000000,Santa Catarina South,Cigana, ,3.000000000000000,3,Right and left,Beach-break,Experienced surfers,-28.613534999999999,-48.845387000000002,10000.000000000000000,222,62831.853071795863798,314159265.358979284763336,0.000000000000000,0.000000000000000
224, ,0.000000000000000,0.000000000000000,Santa Catarina South,Cardozo, ,3.500000000000000,4,Right and left,Beach-break,All surfers,-28.607516000000000,-48.822994999999999,10000.000000000000000,223,62831.853071795863798,314159265.358979284763336,0.000000000000000,0.000000000000000
225, ,0.000000000000000,0.000000000000000,Santa Catarina South,Cemiterio, ,5.000000000000000,1,Right,Point-break,Pros or kamikaze only...,-28.604341999999999,-48.811998000000003,10000.000000000000000,224,62831.853071795863798,314159265.358979284763336,0.000000000000000,0.000000000000000
226, ,0.000000000000000,0.000000000000000,Santa Catarina South,Prainha do Farol, ,3.000000000000000,1,Right,Beach-break,All surfers,-28.600442000000001,-48.816654999999997,10000.000000000000000,225,62831.853071795863798,314159265.358979284763336,0.000000000000000,0.000000000000000
227, ,0.000000000000000,0.000000000000000,Santa Catarina South,Ipoa, ,3.000000000000000,4,Right and left,Beach-break,All surfers,-28.536688999999999,-48.765521000000000,10000.000000000000000,226,62831.853071795863798,314159265.358979284763336,0.000000000000000,0.000000000000000
228, ,0.000000000000000,0.000000000000000,Santa Catarina South,Teresa, ,3.000000000000000,3,Right and left,Beach-break,All surfers,-28.524982000000001,-48.762453000000001,10000.000000000000000,227,62831.853071795863798,314159265.358979284763336,0.000000000000000,0.000000000000000
229, ,0.000000000000000,0.000000000000000,Santa Catarina South,Praia de Cima, ,3.500000000000000,2,Right and left,Beach-break,All surfers,-28.497350000000001,-48.748752000000003,10000.000000000000000,228,62831.853071795863798,314159265.358979284763336,0.000000000000000,0.000000000000000
230, ,0.000000000000000,0.000000000000000,Santa Catarina South,Laguna, ,3.500000000000000,3,Right and left,Beach-break,All surfers,-28.473973000000001,-48.762645999999997,10000.000000000000000,229,62831.853071795863798,314159265.358979284763336,0.000000000000000,0.000000000000000
231, ,0.000000000000000,0.000000000000000,Santa Catarina South,Cavalinho, ,3.500000000000000,3,Right,Point-break,Experienced surfers,-28.419032000000001,-48.744278000000001,10000.000000000000000,230,62831.853071795863798,314159265.358979284763336,0.000000000000000,0.000000000000000
232, ,0.000000000000000,0.000000000000000,Santa Catarina South,Itapirubá, ,3.500000000000000,4,Right and left,Beach-break,All surfers,-28.342309000000000,-48.707799999999999,10000.000000000000000,231,62831.853071795863798,314159265.358979284763336,0.000000000000000,0.000000000000000
233, ,0.000000000000000,0.000000000000000,Santa Catarina South,Itapirubá Norte, ,3.500000000000000,3,Right and left,Beach-break,All surfers,-28.336776000000000,-48.704709999999999,10000.000000000000000,232,62831.853071795863798,314159265.358979284763336,0.000000000000000,0.000000000000000
234, ,0.000000000000000,0.000000000000000,Santa Catarina South,Castelinho, ,4.000000000000000,4,Right and left,Beach-break,Experienced surfers,-28.256232000000001,-48.672694999999997,10000.000000000000000,233,62831.853071795863798,314159265.358979284763336,0.000000000000000,0.000000000000000
235, ,0.000000000000000,0.000000000000000,Santa Catarina South,Praia da Vila, ,4.000000000000000,4,Right and left,Sand-bar,Experienced surfers,-28.241149000000000,-48.653877000000001,10000.000000000000000,234,62831.853071795863798,314159265.358979284763336,0.000000000000000,0.000000000000000
236, ,0.000000000000000,0.000000000000000,Santa Catarina South,Ribanceira, ,3.000000000000000,2,Right and left,Sand-bar,All surfers,-28.191742000000001,-48.661344000000000,10000.000000000000000,235,62831.853071795863798,314159265.358979284763336,0.000000000000000,0.000000000000000
237, ,0.000000000000000,0.000000000000000,Santa Catarina South,Ibiraquera, ,4.000000000000000,4,Right and left,Point-break,Experienced surfers,-28.153732000000002,-48.645895000000003,10000.000000000000000,236,62831.853071795863798,314159265.358979284763336,0.000000000000000,0.000000000000000
238, ,0.000000000000000,0.000000000000000,Santa Catarina South,Rosa Sul, ,3.500000000000000,4,Right and left,Beach-break,All surfers,-28.135401999999999,-48.642691999999997,10000.000000000000000,237,62831.853071795863798,314159265.358979284763336,0.000000000000000,0.000000000000000
239, ,0.000000000000000,0.000000000000000,Santa Catarina South,Rosa Norte, ,3.500000000000000,2,Right and left,Beach-break,All surfers,-28.124375000000001,-48.637675999999999,10000.000000000000000,238,62831.853071795863798,314159265.358979284763336,0.000000000000000,0.000000000000000
240, ,0.000000000000000,0.000000000000000,Santa Catarina South,Vermelha, ,3.500000000000000,2,Left,Beach-break,Experienced surfers,-28.114457999999999,-48.635573000000001,10000.000000000000000,239,62831.853071795863798,314159265.358979284763336,0.000000000000000,0.000000000000000
241, ,0.000000000000000,0.000000000000000,Santa Catarina South,Ouvidor, ,2.000000000000000,2,Right and left,Beach-break,Beginners wave,-28.105449000000000,-48.635272999999998,10000.000000000000000,240,62831.853071795863798,314159265.358979284763336,0.000000000000000,0.000000000000000
242, ,0.000000000000000,0.000000000000000,Santa Catarina South,Barrinha, ,3.500000000000000,3,Right and left,Beach-break, ,-28.085384000000001,-48.630896000000000,10000.000000000000000,241,62831.853071795863798,314159265.358979284763336,0.000000000000000,0.000000000000000
243, ,0.000000000000000,0.000000000000000,Santa Catarina South,Ferrugem, ,3.500000000000000,4,Right and left,Sand-bar,All surfers,-28.077736000000002,-48.626604000000000,10000.000000000000000,242,62831.853071795863798,314159265.358979284763336,0.000000000000000,0.000000000000000
244, ,0.000000000000000,0.000000000000000,Santa Catarina South,Praia do Silveira,Silveira Garopaba,4.000000000000000,4,Right,Point-break,Pros or kamikaze only...,-28.039069000000001,-48.606862999999997,10000.000000000000000,243,62831.853071795863798,314159265.358979284763336,0.000000000000000,0.000000000000000
245, ,0.000000000000000,0.000000000000000,Santa Catarina South,Garopaba Centro, ,3.000000000000000,2,Right and left,Beach-break,All surfers,-28.021577000000001,-48.619447999999998,10000.000000000000000,244,62831.853071795863798,314159265.358979284763336,0.000000000000000,0.000000000000000
246, ,0.000000000000000,0.000000000000000,Santa Catarina South,Siriu, ,3.500000000000000,3,Right and left,Beach-break,All surfers,-27.976248999999999,-48.627999000000003,10000.000000000000000,245,62831.853071795863798,314159265.358979284763336,0.000000000000000,0.000000000000000
247, ,0.000000000000000,0.000000000000000,Santa Catarina South,Gamboa, ,3.500000000000000,1,Right and left,Beach-break,All surfers,-27.958926999999999,-48.624662000000001,10000.000000000000000,246,62831.853071795863798,314159265.358979284763336,0.000000000000000,0.000000000000000
248, ,0.000000000000000,0.000000000000000,Santa Catarina South,Guarda do embau,Guarda do Embauacute,4.000000000000000,3,Left,Rivermouth,Experienced surfers,-27.905540999999999,-48.586779000000000,10000.000000000000000,247,62831.853071795863798,314159265.358979284763336,0.000000000000000,0.000000000000000
249, ,0.000000000000000,0.000000000000000,Santa Catarina South,Costão da Pinheira,Ponta da Pinheira,3.500000000000000,1,Right,Point-break,Experienced surfers,-27.881077000000001,-48.586542999999999,10000.000000000000000,248,62831.853071795863798,314159265.358979284763336,0.000000000000000,0.000000000000000
250, ,0.000000000000000,0.000000000000000,Florianopolis,Naufragados, ,5.000000000000000,3,Right,Beach-break,Pros or kamikaze only...,-27.834740000000000,-48.566747999999997,10000.000000000000000,249,62831.853071795863798,314159265.358979284763336,0.000000000000000,0.000000000000000
251, ,0.000000000000000,0.000000000000000,Florianopolis,Solidao - Caladinho, ,3.500000000000000,3,Right,Point-break,Experienced surfers,-27.793519000000000,-48.533456000000001,10000.000000000000000,250,62831.853071795863798,314159265.358979284763336,0.000000000000000,0.000000000000000
252, ,0.000000000000000,0.000000000000000,Florianopolis,Praia dos Açores, ,3.000000000000000,3,Right and left,Beach-break,All surfers,-27.784758000000000,-48.525989000000003,10000.000000000000000,251,62831.853071795863798,314159265.358979284763336,0.000000000000000,0.000000000000000
253, ,0.000000000000000,0.000000000000000,Florianopolis,Lagoinha do Leste, ,3.500000000000000,4,Right and left,Beach-break,All surfers,-27.773575999999998,-48.486528000000000,10000.000000000000000,252,62831.853071795863798,314159265.358979284763336,0.000000000000000,0.000000000000000
254, ,0.000000000000000,0.000000000000000,Florianopolis,Matadeiro, ,3.500000000000000,4,Right and left,Beach-break,Experienced surfers,-27.755140000000001,-48.498522999999999,10000.000000000000000,253,62831.853071795863798,314159265.358979284763336,0.000000000000000,0.000000000000000
255, ,0.000000000000000,0.000000000000000,Florianopolis,Armação, ,3.000000000000000,2,Right and left,Beach-break,All surfers,-27.741619000000000,-48.508114999999997,10000.000000000000000,254,62831.853071795863798,314159265.358979284763336,0.000000000000000,0.000000000000000
256, ,0.000000000000000,0.000000000000000,Florianopolis,Caldeirao, ,3.500000000000000,3,Left,Beach-break,Experienced surfers,-27.723690000000001,-48.504595999999999,10000.000000000000000,255,62831.853071795863798,314159265.358979284763336,0.000000000000000,0.000000000000000
257, ,0.000000000000000,0.000000000000000,Florianopolis,Morro das Pedras, ,3.000000000000000,4,Right and left,Sand-bar,Experienced surfers,-27.715522000000000,-48.502257000000000,10000.000000000000000,256,62831.853071795863798,314159265.358979284763336,0.000000000000000,0.000000000000000
258, ,0.000000000000000,0.000000000000000,Florianopolis,Campeche Rights, ,4.000000000000000,2,Right,Sand-bar,Experienced surfers,-27.693864000000001,-48.482686999999999,10000.000000000000000,257,62831.853071795863798,314159265.358979284763336,0.000000000000000,0.000000000000000
259, ,0.000000000000000,0.000000000000000,Florianopolis,Riozinho, ,5.000000000000000,3,Right and left,Beach-break,Experienced surfers,-27.685523000000000,-48.479598000000003,10000.000000000000000,258,62831.853071795863798,314159265.358979284763336,0.000000000000000,0.000000000000000
260, ,0.000000000000000,0.000000000000000,Florianopolis,Joaquina, ,4.000000000000000,4,Left,Sand-bar,Experienced surfers,-27.629588999999999,-48.448768000000001,10000.000000000000000,259,62831.853071795863798,314159265.358979284763336,0.000000000000000,0.000000000000000
261, ,0.000000000000000,0.000000000000000,Florianopolis,Praia Mole, ,3.500000000000000,3,Right and left,Sand-bar,All surfers,-27.602475999999999,-48.432583999999999,10000.000000000000000,260,62831.853071795863798,314159265.358979284763336,0.000000000000000,0.000000000000000
262, ,0.000000000000000,0.000000000000000,Florianopolis,Galheta, ,3.500000000000000,4,Right and left,Beach-break,All surfers,-27.593482000000002,-48.425224000000000,10000.000000000000000,261,62831.853071795863798,314159265.358979284763336,0.000000000000000,0.000000000000000
263, ,0.000000000000000,0.000000000000000,Florianopolis,Barra da Lagoa, ,3.000000000000000,3,Right and left,Beach-break,Beginners wave,-27.572818000000002,-48.424376000000002,10000.000000000000000,262,62831.853071795863798,314159265.358979284763336,0.000000000000000,0.000000000000000
264, ,0.000000000000000,0.000000000000000,Florianopolis,Mocambique, ,3.500000000000000,4,Right and left,Beach-break,All surfers,-27.525323000000000,-48.410567999999998,10000.000000000000000,263,62831.853071795863798,314159265.358979284763336,0.000000000000000,0.000000000000000
265, ,0.000000000000000,0.000000000000000,Florianopolis,Ponta das Aranhas, ,3.500000000000000,4,Right and left,Beach-break,All surfers,-27.482099999999999,-48.380892000000003,10000.000000000000000,264,62831.853071795863798,314159265.358979284763336,0.000000000000000,0.000000000000000
266, ,0.000000000000000,0.000000000000000,Florianopolis,Santinho, ,3.500000000000000,4,Right and left,Beach-break,Experienced surfers,-27.457940000000001,-48.372630999999998,10000.000000000000000,265,62831.853071795863798,314159265.358979284763336,0.000000000000000,0.000000000000000
267, ,0.000000000000000,0.000000000000000,Florianopolis,Canasvieiras, ,3.500000000000000,1,Right,Sand-bar,All surfers,-27.430966000000002,-48.479661999999998,10000.000000000000000,266,62831.853071795863798,314159265.358979284763336,0.000000000000000,0.000000000000000
268, ,0.000000000000000,0.000000000000000,Florianopolis,Praia do Forte, ,3.500000000000000,1,Right,Point-break,All surfers,-27.430747000000000,-48.519658999999997,10000.000000000000000,267,62831.853071795863798,314159265.358979284763336,0.000000000000000,0.000000000000000
269, ,0.000000000000000,0.000000000000000,Florianopolis,Ingleses, ,3.000000000000000,2,Right and left,Beach-break,All surfers,-27.429832999999999,-48.390569999999997,10000.000000000000000,268,62831.853071795863798,314159265.358979284763336,0.000000000000000,0.000000000000000
270, ,0.000000000000000,0.000000000000000,Florianopolis,Praia Brava, ,3.500000000000000,3,Right and left,Beach-break,Experienced surfers,-27.400804000000001,-48.413401000000000,10000.000000000000000,269,62831.853071795863798,314159265.358979284763336,0.000000000000000,0.000000000000000
271, ,0.000000000000000,0.000000000000000,Florianopolis,Lambe lambe, ,4.000000000000000,1,Right,Point-break,Experienced surfers,-27.387601000000000,-48.433185000000002,10000.000000000000000,270,62831.853071795863798,314159265.358979284763336,0.000000000000000,0.000000000000000
272, ,0.000000000000000,0.000000000000000,Florianopolis,Ponta Do Rapa, ,4.000000000000000,1,Right,Reef-rocky,Pros or kamikaze only...,-27.380837000000000,-48.420524999999998,10000.000000000000000,271,62831.853071795863798,314159265.358979284763336,0.000000000000000,0.000000000000000
273, ,0.000000000000000,0.000000000000000,Santa Catarina North,Tingua, ,3.500000000000000,1,Left,Beach-break,Experienced surfers,-27.368165999999999,-48.532501000000003,10000.000000000000000,272,62831.853071795863798,314159265.358979284763336,0.000000000000000,0.000000000000000
274, ,0.000000000000000,0.000000000000000,Santa Catarina North,Palmas, ,3.500000000000000,2,Right and left,Beach-break,Experienced surfers,-27.321984000000000,-48.535451999999999,10000.000000000000000,273,62831.853071795863798,314159265.358979284763336,0.000000000000000,0.000000000000000
275, ,0.000000000000000,0.000000000000000,Santa Catarina North,Mariscal, ,3.500000000000000,3,Right and left,Beach-break,All surfers,-27.166504000000000,-48.494833000000000,10000.000000000000000,274,62831.853071795863798,314159265.358979284763336,0.000000000000000,0.000000000000000
276, ,0.000000000000000,0.000000000000000,Santa Catarina North,Quatro Ilhas, ,3.500000000000000,3,Right,Point-break,Experienced surfers,-27.156195000000000,-48.482923999999997,10000.000000000000000,275,62831.853071795863798,314159265.358979284763336,0.000000000000000,0.000000000000000
277, ,0.000000000000000,0.000000000000000,Santa Catarina North,Bombinhas, ,2.000000000000000,2,Right and left,Beach-break,Beginners wave,-27.148367000000000,-48.489531999999997,10000.000000000000000,276,62831.853071795863798,314159265.358979284763336,0.000000000000000,0.000000000000000
278, ,0.000000000000000,0.000000000000000,Santa Catarina North,Bombas, ,3.000000000000000,2,Right and left,Beach-break,All surfers,-27.140118000000001,-48.506784000000003,10000.000000000000000,277,62831.853071795863798,314159265.358979284763336,0.000000000000000,0.000000000000000
279, ,0.000000000000000,0.000000000000000,Santa Catarina North,Meia Praia, ,3.000000000000000,3,Right and left,Sand-bar,All surfers,-27.104825000000002,-48.609009000000000,10000.000000000000000,278,62831.853071795863798,314159265.358979284763336,0.000000000000000,0.000000000000000
280, ,0.000000000000000,0.000000000000000,Santa Catarina North,Itapema, ,3.000000000000000,3,Right and left,Beach-break,All surfers,-27.095541000000001,-48.609738000000000,10000.000000000000000,279,62831.853071795863798,314159265.358979284763336,0.000000000000000,0.000000000000000
281, ,0.000000000000000,0.000000000000000,Santa Catarina North,Ponta do Cabeço, ,4.000000000000000,2,Left,Reef-rocky,Experienced surfers,-27.093436000000001,-48.601959999999998,10000.000000000000000,280,62831.853071795863798,314159265.358979284763336,0.000000000000000,0.000000000000000
282, ,0.000000000000000,0.000000000000000,Santa Catarina North,Mocó, ,4.000000000000000,2,Left,Reef-rocky,Experienced surfers,-27.080182000000001,-48.588451999999997,10000.000000000000000,281,62831.853071795863798,314159265.358979284763336,0.000000000000000,0.000000000000000
283, ,0.000000000000000,0.000000000000000,Santa Catarina North,Estaleirinho, ,3.000000000000000,4,Right and left,Beach-break,Pros or kamikaze only...,-27.049112000000001,-48.586779000000000,10000.000000000000000,282,62831.853071795863798,314159265.358979284763336,0.000000000000000,0.000000000000000
284, ,0.000000000000000,0.000000000000000,Santa Catarina North,Estaleiro (reef), ,3.500000000000000,2,Left,Reef-rocky,Experienced surfers,-27.025050000000000,-48.574064999999997,10000.000000000000000,283,62831.853071795863798,314159265.358979284763336,0.000000000000000,0.000000000000000
285, ,0.000000000000000,0.000000000000000,Santa Catarina North,Balneário Camboriú,Camboriu,3.000000000000000,3,Right and left,Beach-break,All surfers,-26.987711999999998,-48.629950999999998,10000.000000000000000,284,62831.853071795863798,314159265.358979284763336,0.000000000000000,0.000000000000000
286, ,0.000000000000000,0.000000000000000,Santa Catarina North,Parcel, ,4.000000000000000,1,Right and left,Reef-rocky,Pros or kamikaze only...,-26.976469000000002,-48.623170999999999,10000.000000000000000,285,62831.853071795863798,314159265.358979284763336,0.000000000000000,0.000000000000000
287, ,0.000000000000000,0.000000000000000,Santa Catarina North,Praia dos Amores, ,3.000000000000000,2,Right and left,Beach-break,Experienced surfers,-26.957191000000002,-48.629221999999999,10000.000000000000000,286,62831.853071795863798,314159265.358979284763336,0.000000000000000,0.000000000000000
288, ,0.000000000000000,0.000000000000000,Santa Catarina North,Praia Brava, ,3.000000000000000,3,Right and left,Beach-break,Experienced surfers,-26.941659999999999,-48.628234999999997,10000.000000000000000,287,62831.853071795863798,314159265.358979284763336,0.000000000000000,0.000000000000000
289, ,0.000000000000000,0.000000000000000,Santa Catarina North,Morcego, ,3.500000000000000,0,Left,Point-break,Pros or kamikaze only...,-26.931052000000001,-48.625214999999997,10000.000000000000000,288,62831.853071795863798,314159265.358979284763336,0.000000000000000,0.000000000000000
290, ,0.000000000000000,0.000000000000000,Santa Catarina North,Atalaia, ,3.500000000000000,2,Left,breakwater/jetty,All surfers,-26.915163000000000,-48.639361000000001,10000.000000000000000,289,62831.853071795863798,314159265.358979284763336,0.000000000000000,0.000000000000000
291, ,0.000000000000000,0.000000000000000,Santa Catarina North,Pracinha, ,3.500000000000000,4,Right and left,Beach-break,All surfers,-26.901883999999999,-48.641613999999997,10000.000000000000000,290,62831.853071795863798,314159265.358979284763336,0.000000000000000,0.000000000000000
292, ,0.000000000000000,0.000000000000000,Santa Catarina North,Navegantes, ,3.500000000000000,3,Right and left,Beach-break,All surfers,-26.897577999999999,-48.638705999999999,10000.000000000000000,291,62831.853071795863798,314159265.358979284763336,0.000000000000000,0.000000000000000
293, ,0.000000000000000,0.000000000000000,Santa Catarina North,Garrincha, ,3.000000000000000,2,Right and left,Sand-bar,Experienced surfers,-26.858702999999998,-48.634619000000001,10000.000000000000000,292,62831.853071795863798,314159265.358979284763336,0.000000000000000,0.000000000000000
294, ,0.000000000000000,0.000000000000000,Santa Catarina North,Gravatá (1 e 2), ,3.000000000000000,3,Right and left,Beach-break,All surfers,-26.831883000000001,-48.621969000000000,10000.000000000000000,293,62831.853071795863798,314159265.358979284763336,0.000000000000000,0.000000000000000
295, ,0.000000000000000,0.000000000000000,Santa Catarina North,Gravatá, ,3.000000000000000,3,Right and left,Beach-break,All surfers,-26.831730000000000,-48.623427999999997,10000.000000000000000,294,62831.853071795863798,314159265.358979284763336,0.000000000000000,0.000000000000000
296, ,0.000000000000000,0.000000000000000,Santa Catarina North,Quilombo, ,3.500000000000000,2,Left,Beach-break,All surfers,-26.766992999999999,-48.639414000000002,10000.000000000000000,295,62831.853071795863798,314159265.358979284763336,0.000000000000000,0.000000000000000
297, ,0.000000000000000,0.000000000000000,Santa Catarina North,Quilombo (reef), ,3.500000000000000,2,Right,Point-break,All surfers,-26.765743000000001,-48.640143999999999,10000.000000000000000,296,62831.853071795863798,314159265.358979284763336,0.000000000000000,0.000000000000000
298, ,0.000000000000000,0.000000000000000,Santa Catarina North,molhe de Piçarras, ,3.000000000000000,1,Right,Point-break,All surfers,-26.757026000000000,-48.673434999999998,10000.000000000000000,297,62831.853071795863798,314159265.358979284763336,0.000000000000000,0.000000000000000
299, ,0.000000000000000,0.000000000000000,Santa Catarina North,Laje do Jacques, ,4.000000000000000,2,Right and left,Reef-rocky,Experienced surfers,-26.726915999999999,-48.673060000000000,10000.000000000000000,298,62831.853071795863798,314159265.358979284763336,0.000000000000000,0.000000000000000
300, ,0.000000000000000,0.000000000000000,Santa Catarina North,Syphodys, ,3.000000000000000,2,Right and left,Beach-break,Experienced surfers,-26.701371000000002,-48.680247999999999,10000.000000000000000,299,62831.853071795863798,314159265.358979284763336,0.000000000000000,0.000000000000000
301, ,0.000000000000000,0.000000000000000,Santa Catarina North,ilha do grants, ,3.500000000000000,1,Left,Reef-rocky,Pros or kamikaze only...,-26.696031999999999,-48.674990999999999,10000.000000000000000,300,62831.853071795863798,314159265.358979284763336,0.000000000000000,0.000000000000000
302, ,0.000000000000000,0.000000000000000,Santa Catarina North,barra de Itajuba, ,3.000000000000000,1,Right,Point-break,All surfers,-26.691344999999998,-48.684164000000003,10000.000000000000000,301,62831.853071795863798,314159265.358979284763336,0.000000000000000,0.000000000000000
303, ,0.000000000000000,0.000000000000000,Santa Catarina North,Praia do Sol, ,2.000000000000000,3,Right and left,Point-break,All surfers,-26.679962000000000,-48.688166000000002,10000.000000000000000,302,62831.853071795863798,314159265.358979284763336,0.000000000000000,0.000000000000000
304, ,0.000000000000000,0.000000000000000,Santa Catarina North,Praia do Tabuleiro, ,3.000000000000000,2,Right and left,Beach-break,Beginners wave,-26.643014000000001,-48.682051000000001,10000.000000000000000,303,62831.853071795863798,314159265.358979284763336,0.000000000000000,0.000000000000000
305, ,0.000000000000000,0.000000000000000,Santa Catarina North,Canoas, ,2.000000000000000,3,Right and left,Beach-break,Beginners wave,-26.639403000000001,-48.682501000000002,10000.000000000000000,304,62831.853071795863798,314159265.358979284763336,0.000000000000000,0.000000000000000
306, ,0.000000000000000,0.000000000000000,Santa Catarina North,Barrinha, ,3.500000000000000,3,Right and left,Beach-break,All surfers,-26.623905000000001,-48.679991000000001,10000.000000000000000,305,62831.853071795863798,314159265.358979284763336,0.000000000000000,0.000000000000000
307, ,0.000000000000000,0.000000000000000,Santa Catarina North,Foz do Itapocu, ,3.000000000000000,3,Left,breakwater/jetty,All surfers,-26.580708000000001,-48.663769000000002,10000.000000000000000,306,62831.853071795863798,314159265.358979284763336,0.000000000000000,0.000000000000000
308, ,0.000000000000000,0.000000000000000,Santa Catarina North,Praia do Bispo, ,3.000000000000000,4,Right and left,Beach-break,All surfers,-26.469248000000000,-48.607056000000000,10000.000000000000000,307,62831.853071795863798,314159265.358979284763336,0.000000000000000,0.000000000000000
309, ,0.000000000000000,0.000000000000000,Santa Catarina North,Picama, ,3.000000000000000,3,Right and left,Sand-bar,Experienced surfers,-26.458086999999999,-48.596874000000000,10000.000000000000000,308,62831.853071795863798,314159265.358979284763336,0.000000000000000,0.000000000000000
310, ,0.000000000000000,0.000000000000000,Santa Catarina North,"Praia Grande, São Francisco do Sul",Praia Grande,3.000000000000000,3,Right and left,Beach-break,All surfers,-26.235880000000002,-48.502600000000001,10000.000000000000000,309,62831.853071795863798,314159265.358979284763336,0.000000000000000,0.000000000000000
311, ,0.000000000000000,0.000000000000000,Santa Catarina North,Praia da Saudade, ,3.500000000000000,4,Right and left,Beach-break,All surfers,-26.230606000000002,-48.498888000000001,10000.000000000000000,310,62831.853071795863798,314159265.358979284763336,0.000000000000000,0.000000000000000
312, ,0.000000000000000,0.000000000000000,Santa Catarina North,Sao Francisco do Sul, ,3.000000000000000,1,Right,Sand-bar,Beginners wave,-26.219557999999999,-48.502107000000002,10000.000000000000000,311,62831.853071795863798,314159265.358979284763336,0.000000000000000,0.000000000000000
313, ,0.000000000000000,0.000000000000000,Santa Catarina North,Píer da Petrobras, ,3.500000000000000,2,Right,Point-break,All surfers,-26.217386999999999,-48.500518999999997,10000.000000000000000,312,62831.853071795863798,314159265.358979284763336,0.000000000000000,0.000000000000000
314, ,0.000000000000000,0.000000000000000,Santa Catarina North,Sumidouro, ,3.500000000000000,1,Right and left,Beach-break,Experienced surfers,-26.169526000000001,-48.552478999999998,10000.000000000000000,313,62831.853071795863798,314159265.358979284763336,0.000000000000000,0.000000000000000
315, ,0.000000000000000,0.000000000000000,Santa Catarina North,Praia do Forte, ,3.500000000000000,1,Right,Point-break,All surfers,-26.163305999999999,-48.533220000000000,10000.000000000000000,314,62831.853071795863798,314159265.358979284763336,0.000000000000000,0.000000000000000
316, ,0.000000000000000,0.000000000000000,Santa Catarina North,Terceira Pedra, ,3.500000000000000,3,Right,Point-break,All surfers,-26.067008999999999,-48.607646000000003,10000.000000000000000,315,62831.853071795863798,314159265.358979284763336,0.000000000000000,0.000000000000000
317, ,0.000000000000000,0.000000000000000,Santa Catarina North,Barra do sai mirim, ,3.000000000000000,3,Right and left,Beach-break,All surfers,-26.007832000000001,-48.604061000000002,10000.000000000000000,316,62831.853071795863798,314159265.358979284763336,16.294362396400398,0.051866566398357
318, ,0.000000000000000,0.000000000000000,Parana,Barrinha, ,3.000000000000000,2,Right,Beach-break,Experienced surfers,-25.976699000000000,-48.590727000000001,10000.000000000000000,317,62831.853071795863798,314159265.358979284763336,35.182014833546802,0.111987831373827
319, ,0.000000000000000,0.000000000000000,Parana,Praia Brava Guaratuba, ,3.500000000000000,3,Right and left,Beach-break,All surfers,-25.892817000000001,-48.561458999999999,10000.000000000000000,318,62831.853071795863798,314159265.358979284763336,68.249702625407494,0.217245550747710
320, ,0.000000000000000,0.000000000000000,Parana,Direitas de Guaratuba,Guaratuba,4.000000000000000,2,Right,Point-break,Experienced surfers,-25.890046000000002,-48.560288999999997,10000.000000000000000,319,62831.853071795863798,314159265.358979284763336,67.449574521115196,0.214698663889613
321, ,0.000000000000000,0.000000000000000,Parana,Pico de Matinhos,Matinos,3.500000000000000,3,Right,Point-break,Experienced surfers,-25.817817999999999,-48.529701000000003,10000.000000000000000,320,62831.853071795863798,314159265.358979284763336,32.763712042519103,0.104290134512128
322, ,0.000000000000000,0.000000000000000,Parana,Balneario Costa azul, ,3.000000000000000,3,Right and left,Beach-break,All surfers,-25.733239999999999,-48.489176000000000,10000.000000000000000,321,62831.853071795863798,314159265.358979284763336,0.000000000000000,0.000000000000000
323, ,0.000000000000000,0.000000000000000,Parana,Ilha do Mel, ,3.500000000000000,3,Right and left,Beach-break,All surfers,-25.548327000000000,-48.295383000000001,10000.000000000000000,322,62831.853071795863798,314159265.358979284763336,0.127482799579357,0.000405790354245
324, ,0.000000000000000,0.000000000000000,Parana,Farolete, ,3.500000000000000,4,Left,Point-break,Experienced surfers,-25.515314000000000,-48.286113999999998,10000.000000000000000,323,62831.853071795863798,314159265.358979284763336,0.127482799579357,0.000405790354245
325, ,0.000000000000000,0.000000000000000,Sao Paolo South,"Guarau, Peruibe SP", ,3.000000000000000,4,Right and left,Beach-break,All surfers,-24.369537000000001,-47.011699999999998,10000.000000000000000,324,62831.853071795863798,314159265.358979284763336,63.519565780062898,0.202189057538956
326, ,0.000000000000000,0.000000000000000,Sao Paolo South,Pier de Mongaguá,Mongagua,3.500000000000000,4,Right and left,Beach-break,All surfers,-24.095718000000002,-46.618552000000001,10000.000000000000000,325,62831.853071795863798,314159265.358979284763336,0.000000000000000,0.000000000000000
327, ,0.000000000000000,0.000000000000000,Sao Paolo North,Tombo, ,3.500000000000000,4,Right and left,Beach-break,All surfers,-24.014990000000001,-46.272697000000001,10000.000000000000000,326,62831.853071795863798,314159265.358979284763336,0.000000000000000,0.000000000000000
328, ,0.000000000000000,0.000000000000000,Sao Paulo North,Astúrias, ,3.000000000000000,2,Right and left,Beach-break,All surfers,-24.007738000000000,-46.266475000000000,10000.000000000000000,327,62831.853071795863798,314159265.358979284763336,0.000000000000000,0.000000000000000
329, ,0.000000000000000,0.000000000000000,Sao Paolo North,Pitangueiras Beach, ,3.500000000000000,4,Right and left,Beach-break,Experienced surfers,-24.000935999999999,-46.260767000000001,10000.000000000000000,328,62831.853071795863798,314159265.358979284763336,0.000000000000000,0.000000000000000
330, ,0.000000000000000,0.000000000000000,Sao Paulo North,porta do sol, ,3.500000000000000,2,Right and left,Point-break,Experienced surfers,-23.981331999999998,-46.373762999999997,10000.000000000000000,329,62831.853071795863798,314159265.358979284763336,0.000000000000000,0.000000000000000
331, ,0.000000000000000,0.000000000000000,Sao Paolo North,Itarare, ,3.000000000000000,3,Right and left,Beach-break,All surfers,-23.972332999999999,-46.362003999999999,10000.000000000000000,330,62831.853071795863798,314159265.358979284763336,0.000000000000000,0.000000000000000
332, ,0.000000000000000,0.000000000000000,Sao Paolo North,Santos,Quebra Mar,3.000000000000000,3,Right and left,Beach-break,All surfers,-23.971744000000001,-46.347208999999999,10000.000000000000000,331,62831.853071795863798,314159265.358979284763336,0.000000000000000,0.000000000000000
333, ,0.000000000000000,0.000000000000000,Sao Paolo North,Praia de Pernambuco, ,3.500000000000000,4,Right and left,Beach-break,All surfers,-23.963431000000000,-46.184033999999997,10000.000000000000000,332,62831.853071795863798,314159265.358979284763336,0.000000000000000,0.000000000000000
334, ,0.000000000000000,0.000000000000000,Sao Paulo North,Bonete, ,3.500000000000000,4,Right and left,Beach-break,Experienced surfers,-23.917383000000001,-45.347785999999999,10000.000000000000000,333,62831.853071795863798,314159265.358979284763336,0.000000000000000,0.000000000000000
335, ,0.000000000000000,0.000000000000000,Sao Paulo North,Sao Pedro, ,4.000000000000000,3,Right and left,Sand-bar,All surfers,-23.908522000000001,-46.166581000000001,10000.000000000000000,334,62831.853071795863798,314159265.358979284763336,0.000000000000000,0.000000000000000
336, ,0.000000000000000,0.000000000000000,Sao Paolo North,Praia de Iporanga, ,3.500000000000000,2,Left,Reef-rocky,Pros or kamikaze only...,-23.902191999999999,-46.152724999999997,10000.000000000000000,335,62831.853071795863798,314159265.358979284763336,0.000000000000000,0.000000000000000
337, ,0.000000000000000,0.000000000000000,Sao Paolo North,Taguaíba, ,3.500000000000000,4,Right and left,Beach-break,All surfers,-23.896726000000001,-46.151353999999998,10000.000000000000000,336,62831.853071795863798,314159265.358979284763336,0.000000000000000,0.000000000000000
338, ,0.000000000000000,0.000000000000000,Sao Paolo North,praia branca, ,3.500000000000000,3,Left,Beach-break,All surfers,-23.863427999999999,-46.130795999999997,10000.000000000000000,337,62831.853071795863798,314159265.358979284763336,0.000000000000000,0.000000000000000
339, ,0.000000000000000,0.000000000000000,Sao Paulo North,Castelhanos, ,3.500000000000000,3,Right and left,Beach-break,Experienced surfers,-23.857582000000001,-45.288905999999997,10000.000000000000000,338,62831.853071795863798,314159265.358979284763336,0.000000000000000,0.000000000000000
340, ,0.000000000000000,0.000000000000000,Sao Paulo North,Enseada - Bertioga, ,3.000000000000000,4,Right and left,Beach-break,All surfers,-23.839860000000002,-46.123674000000001,10000.000000000000000,339,62831.853071795863798,314159265.358979284763336,0.000000000000000,0.000000000000000
341, ,0.000000000000000,0.000000000000000,Sao Paulo North,Santiago, ,3.500000000000000,2,Right and left,Beach-break,Experienced surfers,-23.819897999999998,-45.541420000000002,10000.000000000000000,340,62831.853071795863798,314159265.358979284763336,0.000000000000000,0.000000000000000
342, ,0.000000000000000,0.000000000000000,Sao Paulo North,Guaecá, ,3.500000000000000,3,Right and left,Beach-break,All surfers,-23.819123000000001,-45.466200000000001,10000.000000000000000,341,62831.853071795863798,314159265.358979284763336,0.000000000000000,0.000000000000000
343, ,0.000000000000000,0.000000000000000,Sao Paulo North,Riviera de São Lourenço, ,3.000000000000000,3,Right and left,Beach-break,All surfers,-23.808668999999998,-46.022072000000001,10000.000000000000000,342,62831.853071795863798,314159265.358979284763336,0.000000000000000,0.000000000000000
344, ,0.000000000000000,0.000000000000000,Sao Paulo North,Paúba, ,4.000000000000000,2,Right and left,Beach-break,Pros or kamikaze only...,-23.802819000000000,-45.553167999999999,10000.000000000000000,343,62831.853071795863798,314159265.358979284763336,0.000000000000000,0.000000000000000
345, ,0.000000000000000,0.000000000000000,Sao Paulo North,Itaguaré, ,3.000000000000000,4,Right and left,Beach-break,All surfers,-23.796026000000001,-45.991173000000003,10000.000000000000000,344,62831.853071795863798,314159265.358979284763336,0.000000000000000,0.000000000000000
346, ,0.000000000000000,0.000000000000000,Sao Paulo North,Maresias, ,3.500000000000000,4,Right and left,Beach-break,All surfers,-23.791530000000002,-45.573456000000000,10000.000000000000000,345,62831.853071795863798,314159265.358979284763336,0.000000000000000,0.000000000000000
347, ,0.000000000000000,0.000000000000000,Sao Paulo North,Camburi, ,3.500000000000000,4,Right and left,Beach-break,All surfers,-23.778825999999999,-45.649137000000003,10000.000000000000000,346,62831.853071795863798,314159265.358979284763336,0.000000000000000,0.000000000000000
348, ,0.000000000000000,0.000000000000000,Sao Paulo North,Baleia, ,3.500000000000000,3,Right and left,Beach-break,All surfers,-23.777600000000000,-45.670217000000001,10000.000000000000000,347,62831.853071795863798,314159265.358979284763336,0.000000000000000,0.000000000000000
349, ,0.000000000000000,0.000000000000000,Sao Paulo North,Guaratuba, ,3.000000000000000,3,Right and left,Beach-break,Experienced surfers,-23.772306000000000,-45.922251000000003,10000.000000000000000,348,62831.853071795863798,314159265.358979284763336,0.000000000000000,0.000000000000000
350, ,0.000000000000000,0.000000000000000,Sao Paulo North,Juquehy,Praia do Juquei,3.000000000000000,4,Right and left,Beach-break,All surfers,-23.768065000000000,-45.738143999999998,10000.000000000000000,349,62831.853071795863798,314159265.358979284763336,0.000000000000000,0.000000000000000
351, ,0.000000000000000,0.000000000000000,Sao Paulo North,Massaguaçu, ,3.500000000000000,2,Right and left,Beach-break,Experienced surfers,-23.590772999999999,-45.334611000000002,10000.000000000000000,350,62831.853071795863798,314159265.358979284763336,0.000000000000000,0.000000000000000
352, ,0.000000000000000,0.000000000000000,Sao Paulo North,Simão, ,3.500000000000000,3,Right,Beach-break,Experienced surfers,-23.585149000000001,-45.238287000000000,10000.000000000000000,351,62831.853071795863798,314159265.358979284763336,0.000000000000000,0.000000000000000
353, ,0.000000000000000,0.000000000000000,Sao Paulo North,Praia do sape, ,3.500000000000000,3,Right and left,Beach-break,All surfers,-23.531963000000001,-45.222301000000002,10000.000000000000000,352,62831.853071795863798,314159265.358979284763336,0.000000000000000,0.000000000000000
354, ,0.000000000000000,0.000000000000000,Sao Paulo North,Lagoinha, ,3.500000000000000,2,Right and left,Beach-break,Beginners wave,-23.521339000000001,-45.205221000000002,10000.000000000000000,353,62831.853071795863798,314159265.358979284763336,0.000000000000000,0.000000000000000
355, ,0.000000000000000,0.000000000000000,Sao Paulo North,Sununga, ,3.500000000000000,3,Right,Beach-break,Pros or kamikaze only...,-23.511344000000001,-45.129432999999999,10000.000000000000000,354,62831.853071795863798,314159265.358979284763336,0.000000000000000,0.000000000000000
356, ,0.000000000000000,0.000000000000000,Sao Paulo North,Toninhas, ,3.000000000000000,2,Right and left,Beach-break,All surfers,-23.484739000000001,-45.073771000000001,10000.000000000000000,355,62831.853071795863798,314159265.358979284763336,0.000000000000000,0.000000000000000
357, ,0.000000000000000,0.000000000000000,Sao Paulo North,Praia Grande (PG), ,3.000000000000000,3,Right and left,Beach-break,All surfers,-23.478835000000000,-45.067290999999997,10000.000000000000000,356,62831.853071795863798,314159265.358979284763336,0.000000000000000,0.000000000000000
358, ,0.000000000000000,0.000000000000000,Sao Paulo North,Praia Grande North,Ponta do Baguari,3.000000000000000,3,Left,Beach-break,All surfers,-23.467497999999999,-45.062055999999998,10000.000000000000000,357,62831.853071795863798,314159265.358979284763336,0.000000000000000,0.000000000000000
359, ,0.000000000000000,0.000000000000000,Sao Paulo North,Vermelha do Centro,Vermelha do Sul,3.500000000000000,4,Right and left,Beach-break,All surfers,-23.463128000000001,-45.049353000000004,10000.000000000000000,358,62831.853071795863798,314159265.358979284763336,0.000000000000000,0.000000000000000
360, ,0.000000000000000,0.000000000000000,Sao Paulo North,Patiero, ,3.500000000000000,2, ,Reef-rocky,Experienced surfers,-23.456318000000000,-45.021242999999998,10000.000000000000000,359,62831.853071795863798,314159265.358979284763336,0.000000000000000,0.000000000000000
361, ,0.000000000000000,0.000000000000000,Sao Paulo North,Vermelha do Norte, ,3.000000000000000,3,Right and left,Beach-break,All surfers,-23.416982000000001,-45.035876999999999,10000.000000000000000,360,62831.853071795863798,314159265.358979284763336,0.000000000000000,0.000000000000000
362, ,0.000000000000000,0.000000000000000,Sao Paulo North,Itamambuca, ,3.500000000000000,4,Right and left,Beach-break,All surfers,-23.402332000000001,-45.001458999999997,10000.000000000000000,361,62831.853071795863798,314159265.358979284763336,0.000000000000000,0.000000000000000
363, ,0.000000000000000,0.000000000000000,Sao Paulo North,Praia do Felix, ,3.500000000000000,3,Right and left,Beach-break,All surfers,-23.389334000000002,-44.972405000000002,10000.000000000000000,362,62831.853071795863798,314159265.358979284763336,0.000000000000000,0.000000000000000
364, ,0.000000000000000,0.000000000000000,Sao Paulo North,Brava do Camburi, ,3.000000000000000,3,Right and left,Beach-break,Experienced surfers,-23.370963000000000,-44.799858999999998,10000.000000000000000,363,62831.853071795863798,314159265.358979284763336,0.000000000000000,0.000000000000000
365, ,0.000000000000000,0.000000000000000,Rio De Janeiro City,Ponta do Cepílio, ,3.500000000000000,3,Right and left,Beach-break,Experienced surfers,-23.343990000000002,-44.711781000000002,10000.000000000000000,364,62831.853071795863798,314159265.358979284763336,0.000000000000000,0.000000000000000
366, ,0.000000000000000,0.000000000000000,Rio De Janeiro City,Laranjeiras, ,3.500000000000000,3,Right,Beach-break,All surfers,-23.336050000000000,-44.674294000000003,10000.000000000000000,365,62831.853071795863798,314159265.358979284763336,0.000000000000000,0.000000000000000
367, ,0.000000000000000,0.000000000000000,Rio De Janeiro City,Martim de Sa, ,3.500000000000000,3,Right and left,Beach-break,All surfers,-23.304048999999999,-44.553486999999997,10000.000000000000000,366,62831.853071795863798,314159265.358979284763336,0.000000000000000,0.000000000000000
368, ,0.000000000000000,0.000000000000000,Rio De Janeiro City,Aventureiro, ,3.500000000000000,4,Left,Point-break,All surfers,-23.180132000000000,-44.304428000000001,10000.000000000000000,367,62831.853071795863798,314159265.358979284763336,0.000000000000000,0.000000000000000
369, ,0.000000000000000,0.000000000000000,Rio De Janeiro City,Lopes Mendes, ,3.500000000000000,4,Right and left,Beach-break,Experienced surfers,-23.171453000000000,-44.128990000000002,10000.000000000000000,368,62831.853071795863798,314159265.358979284763336,0.000000000000000,0.000000000000000
370, ,0.000000000000000,0.000000000000000,Rio De Janeiro City,Barra de Guaratiba, ,4.000000000000000,2,Left,Rivermouth,Experienced surfers,-23.064018000000001,-43.569374000000003,10000.000000000000000,369,62831.853071795863798,314159265.358979284763336,0.000000000000000,0.000000000000000
371, ,0.000000000000000,0.000000000000000,Rio De Janeiro City,Laje do Dramin, ,3.500000000000000,2,Left,Reef-rocky,Pros or kamikaze only...,-23.055999000000000,-44.366816000000000,10000.000000000000000,370,62831.853071795863798,314159265.358979284763336,0.000000000000000,0.000000000000000
372, ,0.000000000000000,0.000000000000000,Rio De Janeiro City,Grumari, ,3.500000000000000,3,Right and left,Beach-break,Experienced surfers,-23.049130999999999,-43.526673000000002,10000.000000000000000,371,62831.853071795863798,314159265.358979284763336,0.000000000000000,0.000000000000000
373, ,0.000000000000000,0.000000000000000,Rio De Janeiro City,Prainha, ,3.500000000000000,4,Right and left,Beach-break,All surfers,-23.040759000000001,-43.505259000000002,10000.000000000000000,372,62831.853071795863798,314159265.358979284763336,0.000000000000000,0.000000000000000
374, ,0.000000000000000,0.000000000000000,Rio De Janeiro City,CcB, ,3.500000000000000,4,Right and left,Sand-bar,All surfers,-23.034576999999999,-43.488737999999998,10000.000000000000000,373,62831.853071795863798,314159265.358979284763336,0.000000000000000,0.000000000000000
375, ,0.000000000000000,0.000000000000000,Rio De Janeiro City,Farorinha, ,3.000000000000000,2,Left,Beach-break,All surfers,-23.033829000000001,-43.470989000000003,10000.000000000000000,374,62831.853071795863798,314159265.358979284763336,0.000000000000000,0.000000000000000
376, ,0.000000000000000,0.000000000000000,Rio De Janeiro City,Canto do recreio,Macumba Curvao,3.500000000000000,3,Right and left,Beach-break,All surfers,-23.033294999999999,-43.467430000000000,10000.000000000000000,375,62831.853071795863798,314159265.358979284763336,0.000000000000000,0.000000000000000
377, ,0.000000000000000,0.000000000000000,Rio De Janeiro City,Praia da Macumba, ,4.000000000000000,4,Right and left,Beach-break,All surfers,-23.032031000000000,-43.475603999999997,10000.000000000000000,376,62831.853071795863798,314159265.358979284763336,0.000000000000000,0.000000000000000
378, ,0.000000000000000,0.000000000000000,Rio De Janeiro City,Mambucaba, ,3.500000000000000,2,Right and left,Sand-bar,All surfers,-23.029266000000000,-44.519992000000002,10000.000000000000000,377,62831.853071795863798,314159265.358979284763336,0.000000000000000,0.000000000000000
379, ,0.000000000000000,0.000000000000000,Rio De Janeiro City,Posto 10 - Recreio,Glaucio Gil,3.500000000000000,2,Right and left,Beach-break,Experienced surfers,-23.026218000000000,-43.458039999999997,10000.000000000000000,378,62831.853071795863798,314159265.358979284763336,0.000000000000000,0.000000000000000
380, ,0.000000000000000,0.000000000000000,Rio De Janeiro City,Recreio Posto 9,Reserva,3.000000000000000,3,Right and left,Beach-break,Experienced surfers,-23.023638999999999,-43.448228999999998,10000.000000000000000,379,62831.853071795863798,314159265.358979284763336,0.000000000000000,0.000000000000000
381, ,0.000000000000000,0.000000000000000,Rio De Janeiro City,Lage Postinho,Postinho,3.500000000000000,2,Right and left,Reef-rocky,Experienced surfers,-23.015481999999999,-43.306539000000001,10000.000000000000000,380,62831.853071795863798,314159265.358979284763336,0.000000000000000,0.000000000000000
382, ,0.000000000000000,0.000000000000000,Rio De Janeiro City,Joatinga, ,3.500000000000000,4,Right and left,Beach-break,All surfers,-23.015205000000002,-43.291089999999997,10000.000000000000000,381,62831.853071795863798,314159265.358979284763336,0.000000000000000,0.000000000000000
383, ,0.000000000000000,0.000000000000000,Rio De Janeiro City,Tropical (posto 1),Quebra-Mar,3.500000000000000,4,Right and left,Beach-break,Experienced surfers,-23.014824999999998,-43.301845000000000,10000.000000000000000,382,62831.853071795863798,314159265.358979284763336,0.000000000000000,0.000000000000000
