OBJECTID,Join_Count,TARGET_FID,id,region,zone,name,lat,long,quality,frequency,direction,type,experience,BUFF_DIST,ORIG_FID,ogc_fid,idi_tuaria,idseq,cdi_tuaria,nome,tipo,cdbigrama,cdtrigrama,cdterminal,situacao,gestao,modalidade,companhia,cnpj,legislacao,pro_didade,endereco,com_emento,numero,bairro,cep,idcidade,cidade,idestado,estado,idr_rafica,reg_rafica,loc_izacao,latitude,longitude,observacao,fonte,cdc_troide,Shape_Leng,Shape_Area
1,0,1,0,Sul,NA,Cardoso,-28.585450000000002,-48.798270000000002,NA,NA,NA,NA,NA,10000.000000000000000,1,,,,,,,,,,,,,,,,,,,,,,,,,,,,,,,,,,62831.853071795863798,314159265.358979284763336
2,1,2,1,Sul,NA,Ravena,-28.454780000000000,-48.751339999999999,NA,NA,NA,NA,NA,10000.000000000000000,2,13,15.000000000000000,0.000000000000000,BRLAG,Laguna,Organized Port,BR,LAG, ,In operation,SEP,http://www.portodesantos.com.br/, , ,Lei 5.917/73,0.000000000000000, , ,0.000000000000000, , ,BR420940,Laguna,BR42,SC,2.000000000000000,Regi, ,-28.496666r,-48.76972199999999a, ,ANTAQ, ,62831.853071795863798,314159265.358979284763336
3,2,3,2,Sul,NA,Praia da Vila Imbituba,-28.252472220000001,-48.661850000000001,NA,NA,NA,NA,NA,10000.000000000000000,3,137,204.000000000000000,0.000000000000000,BRSC014,Terminal Privativo de Imbituba,Terminal for private use,BR,BRS,BRSC014,Unknown,Privada,Terminal de uso privado,IMBITUBA EMPREENDIMENTOS E PARTICIPAOUES S.A,27276211000108,CA 013/2017-ANTAQ,0.000000000000000,RUA ITAGIBA, ,1500.000000000000000,AGUADA,88780000,4207304, , , ,0.000000000000000, , ,-28.2264,-48.657,"CA 013/2017-ANTAQ: adaptaE o do TA 362/2007-ANTAQ, de 06/06/2007",Antaq, ,62831.853071795863798,314159265.358979284763336
4,2,4,3,Sul,NA,Praia do Porto Imbituba,-28.220199000000001,-48.663214000000004,NA,NA,NA,NA,NA,10000.000000000000000,4,137,204.000000000000000,0.000000000000000,BRSC014,Terminal Privativo de Imbituba,Terminal for private use,BR,BRS,BRSC014,Unknown,Privada,Terminal de uso privado,IMBITUBA EMPREENDIMENTOS E PARTICIPAOUES S.A,27276211000108,CA 013/2017-ANTAQ,0.000000000000000,RUA ITAGIBA, ,1500.000000000000000,AGUADA,88780000,4207304, , , ,0.000000000000000, , ,-28.2264,-48.657,"CA 013/2017-ANTAQ: adaptaE o do TA 362/2007-ANTAQ, de 06/06/2007",Antaq, ,62831.853071795863798,314159265.358979284763336
5,0,5,4,Sul,NA,Ponta da Pinheira,-27.878140999999999,-48.576442000000000,NA,NA,NA,NA,NA,10000.000000000000000,5,,,,,,,,,,,,,,,,,,,,,,,,,,,,,,,,,,62831.853071795863798,314159265.358979284763336
6,0,6,5,Sul,NA,Mocambique,-27.518350000000002,-48.392183330000002,NA,NA,NA,NA,NA,10000.000000000000000,6,,,,,,,,,,,,,,,,,,,,,,,,,,,,,,,,,,62831.853071795863798,314159265.358979284763336
7,0,7,6,Sul,NA,Ponta das Canas,-27.394818999999998,-48.435709000000003,NA,NA,NA,NA,NA,10000.000000000000000,7,,,,,,,,,,,,,,,,,,,,,,,,,,,,,,,,,,62831.853071795863798,314159265.358979284763336
8,3,8,7,Sul,NA,Itagua&ccedil;u,-26.184728000000000,-48.526327999999999,NA,NA,NA,NA,NA,10000.000000000000000,8,81,145.000000000000000,0.000000000000000,BRSC007,Terminal Aquavi rio de S2o Francisco do Sul,Terminal for private use,BR,BRS,BRSC007,In operation,Privada,Terminal de uso privado,PETROBRAS TRANSPORTE S.A - TRANSPETRO,02709449002011,CA 79/2015-ANTAQ,0.000000000000000,Avenida Felipe Musse, ,803.000000000000000,Ubatuba,89240000,4216206, , , ,0.000000000000000, , ,-26.2279,-48.5299,Atualiza,Antaq, ,62831.853071795863798,314159265.358979284763336
9,0,9,8,Sul,NA,Caioba,-25.838000000000001,-48.534999999999997,NA,NA,NA,NA,NA,10000.000000000000000,9,,,,,,,,,,,,,,,,,,,,,,,,,,,,,,,,,,62831.853071795863798,314159265.358979284763336
10,0,10,9,Sudeste,NA,Ilha Comprida,-24.783999999999999,-47.594999999999999,NA,NA,NA,NA,NA,10000.000000000000000,10,,,,,,,,,,,,,,,,,,,,,,,,,,,,,,,,,,62831.853071795863798,314159265.358979284763336
11,0,11,10,Sudeste,NA,Iguape,-24.753211000000000,-47.542059000000002,NA,NA,NA,NA,NA,10000.000000000000000,11,,,,,,,,,,,,,,,,,,,,,,,,,,,,,,,,,,62831.853071795863798,314159265.358979284763336
12,0,12,11,Sudeste,NA,Peruibe,-24.324427000000000,-46.978886000000003,NA,NA,NA,NA,NA,10000.000000000000000,12,,,,,,,,,,,,,,,,,,,,,,,,,,,,,,,,,,62831.853071795863798,314159265.358979284763336
13,0,13,12,Sudeste,NA,Praia dos Pescadores,-24.194862000000001,-46.798881999999999,NA,NA,NA,NA,NA,10000.000000000000000,13,,,,,,,,,,,,,,,,,,,,,,,,,,,,,,,,,,62831.853071795863798,314159265.358979284763336
14,0,14,13,Sudeste,NA,Itanhaem,-24.151427000000002,-46.707858000000002,NA,NA,NA,NA,NA,10000.000000000000000,14,,,,,,,,,,,,,,,,,,,,,,,,,,,,,,,,,,62831.853071795863798,314159265.358979284763336
15,0,15,14,Sudeste,NA,Praia Grande,-24.028497000000002,-46.438310000000001,NA,NA,NA,NA,NA,10000.000000000000000,15,,,,,,,,,,,,,,,,,,,,,,,,,,,,,,,,,,62831.853071795863798,314159265.358979284763336
16,8,16,15,Sudeste,NA,Praia do Forte dos Andradas,-24.028369000000001,-46.288159000000000,NA,NA,NA,NA,NA,10000.000000000000000,16,57,121.000000000000000,0.000000000000000,BRSP004,Sucoc0trico Cutrale,Terminal for private use,BR,BRS,BRSP004,In operation,Privada,Terminal de uso privado,SUCOCITRICO CUTRALE LTDA,61649810001806,CA 042/2014-ANTAQ,0.000000000000000,VIA SANTOS DUMONT,MARGEM ESQUERDA DO PORTO DE SANTOS,4364.000000000000000,CONCEI EOZINHA,11460006,3518701, , , ,0.000000000000000, , ,-23.9797,-46.2864,"Atualizado pela GAP em 05/11/2020, por Maria Luiza Tanizaki
Atu",Antaq, ,62831.853071795863798,314159265.358979284763336
17,8,17,16,Sudeste,NA,Praia do Forte dos Andradas,-24.025659999999998,-46.285460000000000,NA,NA,NA,NA,NA,10000.000000000000000,17,57,121.000000000000000,0.000000000000000,BRSP004,Sucoc0trico Cutrale,Terminal for private use,BR,BRS,BRSP004,In operation,Privada,Terminal de uso privado,SUCOCITRICO CUTRALE LTDA,61649810001806,CA 042/2014-ANTAQ,0.000000000000000,VIA SANTOS DUMONT,MARGEM ESQUERDA DO PORTO DE SANTOS,4364.000000000000000,CONCEI EOZINHA,11460006,3518701, , , ,0.000000000000000, , ,-23.9797,-46.2864,"Atualizado pela GAP em 05/11/2020, por Maria Luiza Tanizaki
Atu",Antaq, ,62831.853071795863798,314159265.358979284763336
18,8,18,17,Sudeste,NA,Praia da Ponta Grossa,-24.024816000000001,-46.314497000000003,NA,NA,NA,NA,NA,10000.000000000000000,18,57,121.000000000000000,0.000000000000000,BRSP004,Sucoc0trico Cutrale,Terminal for private use,BR,BRS,BRSP004,In operation,Privada,Terminal de uso privado,SUCOCITRICO CUTRALE LTDA,61649810001806,CA 042/2014-ANTAQ,0.000000000000000,VIA SANTOS DUMONT,MARGEM ESQUERDA DO PORTO DE SANTOS,4364.000000000000000,CONCEI EOZINHA,11460006,3518701, , , ,0.000000000000000, , ,-23.9797,-46.2864,"Atualizado pela GAP em 05/11/2020, por Maria Luiza Tanizaki
Atu",Antaq, ,62831.853071795863798,314159265.358979284763336
19,0,19,18,Sudeste,NA,Itaipu,-24.019545000000001,-46.386795999999997,NA,NA,NA,NA,NA,10000.000000000000000,19,,,,,,,,,,,,,,,,,,,,,,,,,,,,,,,,,,62831.853071795863798,314159265.358979284763336
20,8,20,19,Sudeste,NA,Guaiuba,-24.017081999999998,-46.295202000000003,NA,NA,NA,NA,NA,10000.000000000000000,20,57,121.000000000000000,0.000000000000000,BRSP004,Sucoc0trico Cutrale,Terminal for private use,BR,BRS,BRSP004,In operation,Privada,Terminal de uso privado,SUCOCITRICO CUTRALE LTDA,61649810001806,CA 042/2014-ANTAQ,0.000000000000000,VIA SANTOS DUMONT,MARGEM ESQUERDA DO PORTO DE SANTOS,4364.000000000000000,CONCEI EOZINHA,11460006,3518701, , , ,0.000000000000000, , ,-23.9797,-46.2864,"Atualizado pela GAP em 05/11/2020, por Maria Luiza Tanizaki
Atu",Antaq, ,62831.853071795863798,314159265.358979284763336
21,8,21,20,Sudeste,NA,Santos,-24.015000000000001,-46.353999999999999,NA,NA,NA,NA,NA,10000.000000000000000,21,57,121.000000000000000,0.000000000000000,BRSP004,Sucoc0trico Cutrale,Terminal for private use,BR,BRS,BRSP004,In operation,Privada,Terminal de uso privado,SUCOCITRICO CUTRALE LTDA,61649810001806,CA 042/2014-ANTAQ,0.000000000000000,VIA SANTOS DUMONT,MARGEM ESQUERDA DO PORTO DE SANTOS,4364.000000000000000,CONCEI EOZINHA,11460006,3518701, , , ,0.000000000000000, , ,-23.9797,-46.2864,"Atualizado pela GAP em 05/11/2020, por Maria Luiza Tanizaki
Atu",Antaq, ,62831.853071795863798,314159265.358979284763336
22,8,22,21,Sudeste,NA,Morro do Maluf,-23.997560000000000,-46.251593999999997,NA,NA,NA,NA,NA,10000.000000000000000,22,57,121.000000000000000,0.000000000000000,BRSP004,Sucoc0trico Cutrale,Terminal for private use,BR,BRS,BRSP004,In operation,Privada,Terminal de uso privado,SUCOCITRICO CUTRALE LTDA,61649810001806,CA 042/2014-ANTAQ,0.000000000000000,VIA SANTOS DUMONT,MARGEM ESQUERDA DO PORTO DE SANTOS,4364.000000000000000,CONCEI EOZINHA,11460006,3518701, , , ,0.000000000000000, , ,-23.9797,-46.2864,"Atualizado pela GAP em 05/11/2020, por Maria Luiza Tanizaki
Atu",Antaq, ,62831.853071795863798,314159265.358979284763336
23,7,23,22,Sudeste,NA,Praia da Enseada,-23.990651000000000,-46.209406000000001,NA,NA,NA,NA,NA,10000.000000000000000,23,57,121.000000000000000,0.000000000000000,BRSP004,Sucoc0trico Cutrale,Terminal for private use,BR,BRS,BRSP004,In operation,Privada,Terminal de uso privado,SUCOCITRICO CUTRALE LTDA,61649810001806,CA 042/2014-ANTAQ,0.000000000000000,VIA SANTOS DUMONT,MARGEM ESQUERDA DO PORTO DE SANTOS,4364.000000000000000,CONCEI EOZINHA,11460006,3518701, , , ,0.000000000000000, , ,-23.9797,-46.2864,"Atualizado pela GAP em 05/11/2020, por Maria Luiza Tanizaki
Atu",Antaq, ,62831.853071795863798,314159265.358979284763336
24,9,24,23,Sudeste,NA,Embare,-23.980865999999999,-46.317684000000000,NA,NA,NA,NA,NA,10000.000000000000000,24,57,121.000000000000000,0.000000000000000,BRSP004,Sucoc0trico Cutrale,Terminal for private use,BR,BRS,BRSP004,In operation,Privada,Terminal de uso privado,SUCOCITRICO CUTRALE LTDA,61649810001806,CA 042/2014-ANTAQ,0.000000000000000,VIA SANTOS DUMONT,MARGEM ESQUERDA DO PORTO DE SANTOS,4364.000000000000000,CONCEI EOZINHA,11460006,3518701, , , ,0.000000000000000, , ,-23.9797,-46.2864,"Atualizado pela GAP em 05/11/2020, por Maria Luiza Tanizaki
Atu",Antaq, ,62831.853071795863798,314159265.358979284763336
25,11,25,24,Sudeste,NA,Gonzaga,-23.974027000000000,-46.330098000000000,NA,NA,NA,NA,NA,10000.000000000000000,25,57,121.000000000000000,0.000000000000000,BRSP004,Sucoc0trico Cutrale,Terminal for private use,BR,BRS,BRSP004,In operation,Privada,Terminal de uso privado,SUCOCITRICO CUTRALE LTDA,61649810001806,CA 042/2014-ANTAQ,0.000000000000000,VIA SANTOS DUMONT,MARGEM ESQUERDA DO PORTO DE SANTOS,4364.000000000000000,CONCEI EOZINHA,11460006,3518701, , , ,0.000000000000000, , ,-23.9797,-46.2864,"Atualizado pela GAP em 05/11/2020, por Maria Luiza Tanizaki
Atu",Antaq, ,62831.853071795863798,314159265.358979284763336
26,0,26,25,Sudeste,NA,Pereque,-23.927582999999998,-46.178826000000001,NA,NA,NA,NA,NA,10000.000000000000000,26,,,,,,,,,,,,,,,,,,,,,,,,,,,,,,,,,,62831.853071795863798,314159265.358979284763336
27,0,27,26,Sudeste,NA,Praia Preta,-23.874700000000001,-46.138959000000000,NA,NA,NA,NA,NA,10000.000000000000000,27,,,,,,,,,,,,,,,,,,,,,,,,,,,,,,,,,,62831.853071795863798,314159265.358979284763336
28,0,28,27,Sudeste,NA,Praia da Bertioga,-23.846986000000001,-46.126967999999998,NA,NA,NA,NA,NA,10000.000000000000000,28,,,,,,,,,,,,,,,,,,,,,,,,,,,,,,,,,,62831.853071795863798,314159265.358979284763336
29,0,29,28,Sudeste,NA,Maresias,-23.793693260000001,-45.559764340000001,NA,NA,NA,NA,NA,10000.000000000000000,29,,,,,,,,,,,,,,,,,,,,,,,,,,,,,,,,,,62831.853071795863798,314159265.358979284763336
30,0,30,29,Sudeste,NA,Canto de Moreira,-23.793056000000000,-45.587394000000003,NA,NA,NA,NA,NA,10000.000000000000000,30,,,,,,,,,,,,,,,,,,,,,,,,,,,,,,,,,,62831.853071795863798,314159265.358979284763336
31,0,31,30,Sudeste,NA,Itaguere,-23.786995000000001,-45.971372000000002,NA,NA,NA,NA,NA,10000.000000000000000,31,,,,,,,,,,,,,,,,,,,,,,,,,,,,,,,,,,62831.853071795863798,314159265.358979284763336
32,0,32,31,Sudeste,NA,Boicucanga,-23.784431000000001,-45.631354999999999,NA,NA,NA,NA,NA,10000.000000000000000,32,,,,,,,,,,,,,,,,,,,,,,,,,,,,,,,,,,62831.853071795863798,314159265.358979284763336
33,0,33,32,Sudeste,NA,Praia de Baleia,-23.775839000000001,-45.683985999999997,NA,NA,NA,NA,NA,10000.000000000000000,33,,,,,,,,,,,,,,,,,,,,,,,,,,,,,,,,,,62831.853071795863798,314159265.358979284763336
34,0,34,33,Sudeste,NA,Barra do Sahy,-23.774384999999999,-45.697569999999999,NA,NA,NA,NA,NA,10000.000000000000000,34,,,,,,,,,,,,,,,,,,,,,,,,,,,,,,,,,,62831.853071795863798,314159265.358979284763336
35,0,35,34,Sudeste,NA,Praia Preta,-23.773009999999999,-45.715814999999999,NA,NA,NA,NA,NA,10000.000000000000000,35,,,,,,,,,,,,,,,,,,,,,,,,,,,,,,,,,,62831.853071795863798,314159265.358979284763336
36,0,36,35,Sudeste,NA,Bananas Point,-23.771605000000001,-45.706209999999999,NA,NA,NA,NA,NA,10000.000000000000000,36,,,,,,,,,,,,,,,,,,,,,,,,,,,,,,,,,,62831.853071795863798,314159265.358979284763336
37,0,37,36,Sudeste,NA,Praia do Juquei,-23.768115000000002,-45.745452999999998,NA,NA,NA,NA,NA,10000.000000000000000,37,,,,,,,,,,,,,,,,,,,,,,,,,,,,,,,,,,62831.853071795863798,314159265.358979284763336
38,0,38,37,Sudeste,NA,Barra do Una,-23.763818000000001,-45.762779999999999,NA,NA,NA,NA,NA,10000.000000000000000,38,,,,,,,,,,,,,,,,,,,,,,,,,,,,,,,,,,62831.853071795863798,314159265.358979284763336
39,0,39,38,Sudeste,NA,Praia da Boracéia,-23.758372999999999,-45.828777000000002,NA,NA,NA,NA,NA,10000.000000000000000,39,,,,,,,,,,,,,,,,,,,,,,,,,,,,,,,,,,62831.853071795863798,314159265.358979284763336
40,0,40,39,Sudeste,NA,Praia Dura,-23.496058000000001,-45.171014000000000,NA,NA,NA,NA,NA,10000.000000000000000,40,,,,,,,,,,,,,,,,,,,,,,,,,,,,,,,,,,62831.853071795863798,314159265.358979284763336
41,1,41,40,Sudeste,NA,Pereque-Acu,-23.424565000000001,-45.062697000000000,NA,NA,NA,NA,NA,10000.000000000000000,41,919,300535.000000000000000,0.000000000000000,BRSP026,Terminal Maratimo Comodoro Magalhdes,Registereded Support Facility,BR,BRS,BRSP026,In operation,Privada,Registro - Instala Fo de apoio,COMPANHIA MUNICIPAL DE TURISMO - COMTUR,66736018000164,Res. 6518/2018,0.000000000000000,Av. Leovegildo Dias Vieira, ,1470.000000000000000,Itague,11680000,3555406, , , ,0.000000000000000, , ,-23.455,-45.058, ,Antaq, ,62831.853071795863798,314159265.358979284763336
42,1,42,41,Sudeste,NA,Itamambuca,-23.406683000000001,-45.008741000000001,NA,NA,NA,NA,NA,10000.000000000000000,42,919,300535.000000000000000,0.000000000000000,BRSP026,Terminal Maratimo Comodoro Magalhdes,Registereded Support Facility,BR,BRS,BRSP026,In operation,Privada,Registro - Instala Fo de apoio,COMPANHIA MUNICIPAL DE TURISMO - COMTUR,66736018000164,Res. 6518/2018,0.000000000000000,Av. Leovegildo Dias Vieira, ,1470.000000000000000,Itague,11680000,3555406, , , ,0.000000000000000, , ,-23.455,-45.058, ,Antaq, ,62831.853071795863798,314159265.358979284763336
43,0,43,42,Sudeste,NA,Praia da Fazenda,-23.361352000000000,-44.859766000000000,NA,NA,NA,NA,NA,10000.000000000000000,43,,,,,,,,,,,,,,,,,,,,,,,,,,,,,,,,,,62831.853071795863798,314159265.358979284763336
44,0,44,43,Sudeste,NA,Aventureiro,-23.184405999999999,-44.315804000000000,NA,NA,NA,NA,NA,10000.000000000000000,44,,,,,,,,,,,,,,,,,,,,,,,,,,,,,,,,,,62831.853071795863798,314159265.358979284763336
45,0,45,44,Sudeste,NA,Praia do Leste,-23.179746000000002,-44.274093999999998,NA,NA,NA,NA,NA,10000.000000000000000,45,,,,,,,,,,,,,,,,,,,,,,,,,,,,,,,,,,62831.853071795863798,314159265.358979284763336
46,0,46,45,Sudeste,NA,Praia do Sul,-23.178656000000000,-44.296756999999999,NA,NA,NA,NA,NA,10000.000000000000000,46,,,,,,,,,,,,,,,,,,,,,,,,,,,,,,,,,,62831.853071795863798,314159265.358979284763336
47,0,47,46,Sudeste,NA,Praia do Meio,-23.066913000000000,-43.549809000000003,NA,NA,NA,NA,NA,10000.000000000000000,47,,,,,,,,,,,,,,,,,,,,,,,,,,,,,,,,,,62831.853071795863798,314159265.358979284763336
48,0,48,47,Sudeste,NA,Restinga a Marambaia,-23.061833000000000,-43.591673000000000,NA,NA,NA,NA,NA,10000.000000000000000,48,,,,,,,,,,,,,,,,,,,,,,,,,,,,,,,,,,62831.853071795863798,314159265.358979284763336
49,0,49,48,Sudeste,NA,Grumari,-23.050469000000000,-43.533907999999997,NA,NA,NA,NA,NA,10000.000000000000000,49,,,,,,,,,,,,,,,,,,,,,,,,,,,,,,,,,,62831.853071795863798,314159265.358979284763336
50,0,50,49,Sudeste,NA,Reserva,-23.022717000000000,-43.440916000000001,NA,NA,NA,NA,NA,10000.000000000000000,50,,,,,,,,,,,,,,,,,,,,,,,,,,,,,,,,,,62831.853071795863798,314159265.358979284763336
51,0,51,50,Sudeste,NA,Barra da Tijuca,-23.020340120000000,-43.372478489999999,NA,NA,NA,NA,NA,10000.000000000000000,51,,,,,,,,,,,,,,,,,,,,,,,,,,,,,,,,,,62831.853071795863798,314159265.358979284763336
52,0,52,51,Sudeste,NA,Barra da Tijuca,-23.014886109999999,-43.372222219999998,NA,NA,NA,NA,NA,10000.000000000000000,52,,,,,,,,,,,,,,,,,,,,,,,,,,,,,,,,,,62831.853071795863798,314159265.358979284763336
53,0,53,52,Sudeste,NA,Sao Conrado,-23.000617999999999,-43.264187000000000,NA,NA,NA,NA,NA,10000.000000000000000,53,,,,,,,,,,,,,,,,,,,,,,,,,,,,,,,,,,62831.853071795863798,314159265.358979284763336
54,0,54,53,Sudeste,NA,Bambui,-22.975255000000001,-42.916570000000000,NA,NA,NA,NA,NA,10000.000000000000000,54,,,,,,,,,,,,,,,,,,,,,,,,,,,,,,,,,,62831.853071795863798,314159265.358979284763336
55,0,55,54,Sudeste,NA,Itaipuacu,-22.971149000000000,-43.011260000000000,NA,NA,NA,NA,NA,10000.000000000000000,55,,,,,,,,,,,,,,,,,,,,,,,,,,,,,,,,,,62831.853071795863798,314159265.358979284763336
56,0,56,55,Sudeste,NA,Barra de Marica,-22.962100000000000,-42.809486999999997,NA,NA,NA,NA,NA,10000.000000000000000,56,,,,,,,,,,,,,,,,,,,,,,,,,,,,,,,,,,62831.853071795863798,314159265.358979284763336
57,0,57,56,Sudeste,NA,Camboinhas,-22.961998000000001,-43.059922999999998,NA,NA,NA,NA,NA,10000.000000000000000,57,,,,,,,,,,,,,,,,,,,,,,,,,,,,,,,,,,62831.853071795863798,314159265.358979284763336
58,4,58,57,Sudeste,NA,Pirantininga,-22.955044999999998,-43.088653999999998,NA,NA,NA,NA,NA,10000.000000000000000,58,113,179.000000000000000,0.000000000000000,BRRJ014,Mac Laren Estaleiros,Terminal for private use,BR,BRR,BRRJ014,In operation,Privada,Terminal de uso privado,MAC LAREN ESTALEIROS EIRELI,05646148000111,CA 010/2014-ANTAQ,0.000000000000000,RUA MIGUEL LEMOS,"S/N , LOTE 616 - PARTE",0.000000000000000,PONTA D'AREIA,24040260,3303302, , , ,0.000000000000000, , ,-22.881,-43.12,"Atualizado pela GAP em 28/04/2015. 
Atualizado em 27/03/2015 pe",Antaq, ,62831.853071795863798,314159265.358979284763336
59,1,59,58,Sudeste,NA,Jacone,-22.946556000000001,-42.679789000000000,NA,NA,NA,NA,NA,10000.000000000000000,59,719,300313.000000000000000,0.000000000000000,BRRJ065,Terminais Ponta Negra,Terminal for private use,BR,BRR,BRRJ065,Unknown,Privada,Terminal de uso privado,DTA ENGENHARIA LTDA,02385674000187,CA 04/2018-MTPA,0.000000000000000,Estrada de JaconT, ,200.000000000000000,centro,24923710,3302700, , , ,0.000000000000000, , ,-22.946,-42.681,"Atualizado por Gustavo Eccard em 15/01/2021
Cadastro realizado",Antaq, ,62831.853071795863798,314159265.358979284763336
60,0,60,59,Sudeste,NA,Figueira,-22.944991999999999,-42.188828000000001,NA,NA,NA,NA,NA,10000.000000000000000,60,,,,,,,,,,,,,,,,,,,,,,,,,,,,,,,,,,62831.853071795863798,314159265.358979284763336
61,15,61,60,Sudeste,NA,Praia do Fora,-22.944794000000002,-43.155304000000001,NA,NA,NA,NA,NA,10000.000000000000000,61,75,139.000000000000000,0.000000000000000,BRRJ007,Terminal Estaleiro Mau,Terminal for private use,BR,BRR,BRRJ007,In operation,Privada,Terminal de uso privado,ESTALEIRO MAUs SA,02926485000174,CA 18/2018-ANTAQ,0.000000000000000,RUA DR. PAULO FRUMiNCIO,PARTE,28.000000000000000,PONTA DA AREIA,24040290,3303302, , , ,0.000000000000000, , ,-22.877,-43.129,Alterado pela GAP em 14/06/2018 - Atualiza po do CA MT/DP nr 095,Antaq, ,62831.853071795863798,314159265.358979284763336
62,19,62,61,Sudeste,NA,Laje do Pao de Acucar,-22.938409000000000,-43.151797000000002,NA,NA,NA,NA,NA,10000.000000000000000,62,75,139.000000000000000,0.000000000000000,BRRJ007,Terminal Estaleiro Mau,Terminal for private use,BR,BRR,BRRJ007,In operation,Privada,Terminal de uso privado,ESTALEIRO MAUs SA,02926485000174,CA 18/2018-ANTAQ,0.000000000000000,RUA DR. PAULO FRUMiNCIO,PARTE,28.000000000000000,PONTA DA AREIA,24040290,3303302, , , ,0.000000000000000, , ,-22.877,-43.129,Alterado pela GAP em 14/06/2018 - Atualiza po do CA MT/DP nr 095,Antaq, ,62831.853071795863798,314159265.358979284763336
63,0,63,62,Sudeste,NA,Canal,-22.937418999999998,-42.487813000000003,NA,NA,NA,NA,NA,10000.000000000000000,63,,,,,,,,,,,,,,,,,,,,,,,,,,,,,,,,,,62831.853071795863798,314159265.358979284763336
64,0,64,63,Sudeste,NA,Praia Seca,-22.936126000000002,-42.361598000000001,NA,NA,NA,NA,NA,10000.000000000000000,64,,,,,,,,,,,,,,,,,,,,,,,,,,,,,,,,,,62831.853071795863798,314159265.358979284763336
65,1,65,64,Sudeste,NA,Caravelas,-22.814850000000000,-41.953901999999999,NA,NA,NA,NA,NA,10000.000000000000000,65,892,300507.000000000000000,0.000000000000000,BRRJ073,PRer de TransatlRntico da Passagem de Cabo Frio,Registereded Support Facility,BR,BRR,BRRJ073,In operation,Privada,Registro - Instala Fo de apoio,MUNICIPIO DE CABO FRIO,28549483000105,Res. 6525/2018,0.000000000000000,Avenida Assun8, ,15.000000000000000,Passagem,28906200,3300704, , , ,0.000000000000000, , ,-22.874,-42.009, ,Antaq, ,62831.853071795863798,314159265.358979284763336
66,2,66,65,Sudeste,NA,Tucuns,-22.799863999999999,-41.929282000000001,NA,NA,NA,NA,NA,10000.000000000000000,66,663,300189.000000000000000,0.000000000000000,BRRJ050,Porto Veleiro Blzios,Port Tourism Facility,BR,BRR,BRRJ050,In operation,Pnblica,Instala,MARINA PORTO VELEIRO DE BUZIOS EMPREENDIMENT,29938297000112,CA 002/2015-SEP/PR,0.000000000000000,Travessa de Santana, ,1.000000000000000,Ossos,28950000,3300233, , , ,0.000000000000000, , ,-22.748,-41.8825,"Atualizado pela GAP por Maria Tanizaki em 25/11/2020
Cadastro a",Antaq, ,62831.853071795863798,314159265.358979284763336
67,2,67,66,Sudeste,NA,Praia Brava,-22.754252000000001,-41.872608999999997,NA,NA,NA,NA,NA,10000.000000000000000,67,663,300189.000000000000000,0.000000000000000,BRRJ050,Porto Veleiro Blzios,Port Tourism Facility,BR,BRR,BRRJ050,In operation,Pnblica,Instala,MARINA PORTO VELEIRO DE BUZIOS EMPREENDIMENT,29938297000112,CA 002/2015-SEP/PR,0.000000000000000,Travessa de Santana, ,1.000000000000000,Ossos,28950000,3300233, , , ,0.000000000000000, , ,-22.748,-41.8825,"Atualizado pela GAP por Maria Tanizaki em 25/11/2020
Cadastro a",Antaq, ,62831.853071795863798,314159265.358979284763336
68,1,68,67,Sudeste,NA,Marataizes,-21.044882999999999,-40.827455999999998,NA,NA,NA,NA,NA,10000.000000000000000,68,720,300315.000000000000000,0.000000000000000,BRES027,Itaoca Offshore,Terminal for private use,BR,BRE,BRES027,Unknown,Privada,Terminal de uso privado,ITAOCA TERMINAL MARvTIMO S.A.,13866318000100,CA 09/2018-MTPA,0.000000000000000,Fazenda Pinto,S/N,0.000000000000000,Piabinha do Norte,29330000,3202801, , , ,0.000000000000000, , ,-20.982,-40.812,"Cadastro feito pela GAP em 10/08/2018.
Atualizaaso em 05/01/202",Antaq, ,62831.853071795863798,314159265.358979284763336
69,1,69,68,Sudeste,NA,Ponta do Ubu,-20.793246000000000,-40.579551000000002,NA,NA,NA,NA,NA,10000.000000000000000,69,42,106.000000000000000,0.000000000000000,BRES002,Terminal Maretimo Ponta Ubu,Terminal for private use,BR,BRE,BRES002,In operation,Privada,Terminal de uso privado,SAMARCO MINERAo O S.A,16628281000676,CA 034/2014-ANTAQ,0.000000000000000,"RODOVIA ES 060 KM 14,4",CAIXA POSTAL 720004,0.000000000000000,PONTA UBU,29230000,3200409, , , ,0.000000000000000, , ,-20.787,-40.571,"Cadastro atualizado em 27/04/2015 pela GAP
Cadastro atualizado",Antaq, ,62831.853071795863798,314159265.358979284763336
70,1,70,69,Sudeste,NA,Ponta dos Castelhanos,-20.755085000000001,-40.560755000000000,NA,NA,NA,NA,NA,10000.000000000000000,70,42,106.000000000000000,0.000000000000000,BRES002,Terminal Maretimo Ponta Ubu,Terminal for private use,BR,BRE,BRES002,In operation,Privada,Terminal de uso privado,SAMARCO MINERAo O S.A,16628281000676,CA 034/2014-ANTAQ,0.000000000000000,"RODOVIA ES 060 KM 14,4",CAIXA POSTAL 720004,0.000000000000000,PONTA UBU,29230000,3200409, , , ,0.000000000000000, , ,-20.787,-40.571,"Cadastro atualizado em 27/04/2015 pela GAP
Cadastro atualizado",Antaq, ,62831.853071795863798,314159265.358979284763336
71,0,71,70,Sudeste,NA,Maimba,-20.707021999999998,-40.514367999999997,NA,NA,NA,NA,NA,10000.000000000000000,71,,,,,,,,,,,,,,,,,,,,,,,,,,,,,,,,,,62831.853071795863798,314159265.358979284763336
72,0,72,71,Sudeste,NA,Praia do Morro,-20.659787999999999,-40.493842999999998,NA,NA,NA,NA,NA,10000.000000000000000,72,,,,,,,,,,,,,,,,,,,,,,,,,,,,,,,,,,62831.853071795863798,314159265.358979284763336
73,0,73,72,Sudeste,NA,Ponta de Bororo,-20.614518000000000,-40.415382000000001,NA,NA,NA,NA,NA,10000.000000000000000,73,,,,,,,,,,,,,,,,,,,,,,,,,,,,,,,,,,62831.853071795863798,314159265.358979284763336
74,0,74,73,Sudeste,NA,Tropical,-20.559543999999999,-40.391810000000000,NA,NA,NA,NA,NA,10000.000000000000000,74,,,,,,,,,,,,,,,,,,,,,,,,,,,,,,,,,,62831.853071795863798,314159265.358979284763336
75,0,75,74,Sudeste,NA,Dunas de Ule,-20.542100000000001,-40.379860999999998,NA,NA,NA,NA,NA,10000.000000000000000,75,,,,,,,,,,,,,,,,,,,,,,,,,,,,,,,,,,62831.853071795863798,314159265.358979284763336
76,0,76,75,Sudeste,NA,Guarapari - Ule,-20.541319000000001,-40.378385999999999,NA,NA,NA,NA,NA,10000.000000000000000,76,,,,,,,,,,,,,,,,,,,,,,,,,,,,,,,,,,62831.853071795863798,314159265.358979284763336
77,0,77,76,Sudeste,NA,Ponta da Fruta,-20.516836999999999,-40.358133000000002,NA,NA,NA,NA,NA,10000.000000000000000,77,,,,,,,,,,,,,,,,,,,,,,,,,,,,,,,,,,62831.853071795863798,314159265.358979284763336
78,0,78,77,Sudeste,NA,Coral Dois,-20.448948000000001,-40.330300000000001,NA,NA,NA,NA,NA,10000.000000000000000,78,,,,,,,,,,,,,,,,,,,,,,,,,,,,,,,,,,62831.853071795863798,314159265.358979284763336
79,0,79,78,Sudeste,NA,Ponta da Belina,-20.445827000000001,-40.329245000000000,NA,NA,NA,NA,NA,10000.000000000000000,79,,,,,,,,,,,,,,,,,,,,,,,,,,,,,,,,,,62831.853071795863798,314159265.358979284763336
80,0,80,79,Sudeste,NA,Coral Um,-20.437659000000000,-40.326006999999997,NA,NA,NA,NA,NA,10000.000000000000000,80,,,,,,,,,,,,,,,,,,,,,,,,,,,,,,,,,,62831.853071795863798,314159265.358979284763336
81,0,81,80,Sudeste,NA,"Barrao, Brazil",-20.427381000000000,-40.320982000000001,NA,NA,NA,NA,NA,10000.000000000000000,81,,,,,,,,,,,,,,,,,,,,,,,,,,,,,,,,,,62831.853071795863798,314159265.358979284763336
82,0,82,81,Sudeste,NA,Barrinha,-20.422540999999999,-40.321933999999999,NA,NA,NA,NA,NA,10000.000000000000000,82,,,,,,,,,,,,,,,,,,,,,,,,,,,,,,,,,,62831.853071795863798,314159265.358979284763336
83,13,83,82,Sudeste,NA,Praia de Camburi,-20.279677000000000,-40.248994000000003,NA,NA,NA,NA,NA,10000.000000000000000,83,37,101.000000000000000,0.000000000000000,BRES001,Terminal de TubarAo,Terminal for private use,BR,BRE,BRES001,In operation,Privada,Terminal de uso privado,VALE S.A.,33592510002106,CA 026/2014-ANTAQ,0.000000000000000,AV DANTE MICHELINE,PONTA DE TUBARLO,5500.000000000000000,JARDIM CAMBURI,29090900,3205309, , , ,0.000000000000000, , ,-20.2881,-40.2489,"Atualizado pela GAP em 27/04/2015
SEI 0915699 - Comunicado de a",Antaq, ,62831.853071795863798,314159265.358979284763336
84,5,84,83,Sudeste,NA,Velzyland,-20.244838999999999,-40.216205000000002,NA,NA,NA,NA,NA,10000.000000000000000,84,37,101.000000000000000,0.000000000000000,BRES001,Terminal de TubarAo,Terminal for private use,BR,BRE,BRES001,In operation,Privada,Terminal de uso privado,VALE S.A.,33592510002106,CA 026/2014-ANTAQ,0.000000000000000,AV DANTE MICHELINE,PONTA DE TUBARLO,5500.000000000000000,JARDIM CAMBURI,29090900,3205309, , , ,0.000000000000000, , ,-20.2881,-40.2489,"Atualizado pela GAP em 27/04/2015
SEI 0915699 - Comunicado de a",Antaq, ,62831.853071795863798,314159265.358979284763336
85,5,85,84,Sudeste,NA,Ponta da Cacao,-20.219573000000000,-40.196268000000003,NA,NA,NA,NA,NA,10000.000000000000000,85,37,101.000000000000000,0.000000000000000,BRES001,Terminal de TubarAo,Terminal for private use,BR,BRE,BRES001,In operation,Privada,Terminal de uso privado,VALE S.A.,33592510002106,CA 026/2014-ANTAQ,0.000000000000000,AV DANTE MICHELINE,PONTA DE TUBARLO,5500.000000000000000,JARDIM CAMBURI,29090900,3205309, , , ,0.000000000000000, , ,-20.2881,-40.2489,"Atualizado pela GAP em 27/04/2015
SEI 0915699 - Comunicado de a",Antaq, ,62831.853071795863798,314159265.358979284763336
86,1,86,85,Sudeste,NA,"Manguinhos, Brazil",-20.199344000000000,-40.190266999999999,NA,NA,NA,NA,NA,10000.000000000000000,86,122,188.000000000000000,0.000000000000000,BRES007,Terminal de BarcaPas Oce/nicas,Terminal for private use,BR,BRE,BRES007,In operation,Privada,Terminal de uso privado,ARCELORMITTAL BRASIL S.A.,17469701010482,CA 063/2015-ANTAQ,0.000000000000000,AV BRIGADEIRO EDUARDO GOMES, ,930.000000000000000,JARDIM LIMOEIRO,29164072,3205002, , , ,0.000000000000000, , ,-20.258,-40.221,"Atualizado pela GAP em 28/04/2015.
Em 10/03/2015: CONTRATO DE A",Antaq, ,62831.853071795863798,314159265.358979284763336
87,0,87,86,Sudeste,NA,Praia da Baleia,-20.171105000000001,-40.184866000000000,NA,NA,NA,NA,NA,10000.000000000000000,87,,,,,,,,,,,,,,,,,,,,,,,,,,,,,,,,,,62831.853071795863798,314159265.358979284763336
88,0,88,87,Sudeste,NA,Jacaraipe - Solemar,-20.109774999999999,-40.171481000000000,NA,NA,NA,NA,NA,10000.000000000000000,88,,,,,,,,,,,,,,,,,,,,,,,,,,,,,,,,,,62831.853071795863798,314159265.358979284763336
89,0,89,88,Sudeste,NA,Xa,-20.107229000000000,-40.171174999999998,NA,NA,NA,NA,NA,10000.000000000000000,89,,,,,,,,,,,,,,,,,,,,,,,,,,,,,,,,,,62831.853071795863798,314159265.358979284763336
90,0,90,89,Sudeste,NA,Nova Almeida,-20.058461999999999,-40.183000999999997,NA,NA,NA,NA,NA,10000.000000000000000,90,,,,,,,,,,,,,,,,,,,,,,,,,,,,,,,,,,62831.853071795863798,314159265.358979284763336
91,0,91,90,Sudeste,NA,Praia Grande,-20.047100000000000,-40.182743000000002,NA,NA,NA,NA,NA,10000.000000000000000,91,,,,,,,,,,,,,,,,,,,,,,,,,,,,,,,,,,62831.853071795863798,314159265.358979284763336
92,0,92,91,Sudeste,NA,Regencia,-19.562811000000000,-39.764263999999997,NA,NA,NA,NA,NA,10000.000000000000000,92,,,,,,,,,,,,,,,,,,,,,,,,,,,,,,,,,,62831.853071795863798,314159265.358979284763336
93,1,93,92,Sudeste,NA,Guriri,-18.910750000000000,-39.738563999999997,NA,NA,NA,NA,NA,10000.000000000000000,93,127,193.000000000000000,0.000000000000000,BRES008,Terminal Aquavi rio do Norte Capixaba,Terminal for private use,BR,BRE,BRES008,In operation,Privada,Terminal de uso privado,PETROBRAS TRANSPORTE S/A,02709449007595,CA 077/2015-ANTAQ,0.000000000000000,ESTRADA DO CAMPO GRANDE (RUA CAMPO GRANDE NATIVO),KM 8  -  AREA RURAL DE CAMPO GRANDE,0.000000000000000,BARRA NOVA,29944370,3204906, , , ,0.000000000000000, , ,-18.9783,-39.7361,Atualizado pela GAP em 07/07/2015 (,Antaq, ,62831.853071795863798,314159265.358979284763336
94,1,94,93,Nordeste,NA,Milionarios,-14.847631000000000,-39.022942000000000,NA,NA,NA,NA,NA,10000.000000000000000,94,10,10.000000000000000,0.000000000000000,BRIOS,IlhOus 6,Organized Port,BR,IOS, ,In operation,SEP,http://www.codeba.com.br/,Companhia Docas do Estado da Bahia - Codeba, ,Lei 5.917/73,10.000000000000000,Avenida Almirante Aurtlio Linhares, ,432.000000000000000, ,45660000,BR291360,Ilh9us,BR29,BA,5.000000000000000,Regi,Ponta do Malhado,-14.778332a,-39.026389a, ,ANTAQ,BRIOS,62831.853071795863798,314159265.358979284763336
95,1,95,94,Nordeste,NA,Sul,-14.831120000000000,-39.022562999999998,NA,NA,NA,NA,NA,10000.000000000000000,95,10,10.000000000000000,0.000000000000000,BRIOS,IlhOus 6,Organized Port,BR,IOS, ,In operation,SEP,http://www.codeba.com.br/,Companhia Docas do Estado da Bahia - Codeba, ,Lei 5.917/73,10.000000000000000,Avenida Almirante Aurtlio Linhares, ,432.000000000000000, ,45660000,BR291360,Ilh9us,BR29,BA,5.000000000000000,Regi,Ponta do Malhado,-14.778332a,-39.026389a, ,ANTAQ,BRIOS,62831.853071795863798,314159265.358979284763336
96,1,96,95,Nordeste,NA,Pedra da Cachorra,-14.821026000000000,-39.023632999999997,NA,NA,NA,NA,NA,10000.000000000000000,96,10,10.000000000000000,0.000000000000000,BRIOS,IlhOus 6,Organized Port,BR,IOS, ,In operation,SEP,http://www.codeba.com.br/,Companhia Docas do Estado da Bahia - Codeba, ,Lei 5.917/73,10.000000000000000,Avenida Almirante Aurtlio Linhares, ,432.000000000000000, ,45660000,BR291360,Ilh9us,BR29,BA,5.000000000000000,Regi,Ponta do Malhado,-14.778332a,-39.026389a, ,ANTAQ,BRIOS,62831.853071795863798,314159265.358979284763336
97,1,97,96,Nordeste,NA,Jardim Atlantico,-14.815026000000000,-39.023400000000002,NA,NA,NA,NA,NA,10000.000000000000000,97,10,10.000000000000000,0.000000000000000,BRIOS,IlhOus 6,Organized Port,BR,IOS, ,In operation,SEP,http://www.codeba.com.br/,Companhia Docas do Estado da Bahia - Codeba, ,Lei 5.917/73,10.000000000000000,Avenida Almirante Aurtlio Linhares, ,432.000000000000000, ,45660000,BR291360,Ilh9us,BR29,BA,5.000000000000000,Regi,Ponta do Malhado,-14.778332a,-39.026389a, ,ANTAQ,BRIOS,62831.853071795863798,314159265.358979284763336
98,1,98,97,Nordeste,NA,Baduska,-14.809442000000001,-39.023423000000001,NA,NA,NA,NA,NA,10000.000000000000000,98,10,10.000000000000000,0.000000000000000,BRIOS,IlhOus 6,Organized Port,BR,IOS, ,In operation,SEP,http://www.codeba.com.br/,Companhia Docas do Estado da Bahia - Codeba, ,Lei 5.917/73,10.000000000000000,Avenida Almirante Aurtlio Linhares, ,432.000000000000000, ,45660000,BR291360,Ilh9us,BR29,BA,5.000000000000000,Regi,Ponta do Malhado,-14.778332a,-39.026389a, ,ANTAQ,BRIOS,62831.853071795863798,314159265.358979284763336
99,3,99,98,Nordeste,NA,Norte,-14.660090000000000,-39.063006999999999,NA,NA,NA,NA,NA,10000.000000000000000,99,591,300069.000000000000000,0.000000000000000,BRBA011,Terminal Bamin,Terminal for private use,BR,BRB,BRBA011,Built,Privada,Terminal de uso privado,BAHIA MINERACAO S/A,07392063000180,CA 3/2014-SEP/PR,0.000000000000000,Aritagu1, ,0.000000000000000,Aritagu1,45663000,2913606, , , ,0.000000000000000, ,Paragua,-14.7009,-39.085,"Obras: Quanto ao avando das obras iniciais, vale destacar que o",Antaq, ,62831.853071795863798,314159265.358979284763336
100,0,100,99,Nordeste,NA,Havaizinho,-14.468062000000000,-39.023161000000002,NA,NA,NA,NA,NA,10000.000000000000000,100,,,,,,,,,,,,,,,,,,,,,,,,,,,,,,,,,,62831.853071795863798,314159265.358979284763336
101,0,101,100,Nordeste,NA,Sao Jose,-14.316062000000001,-38.990701000000001,NA,NA,NA,NA,NA,10000.000000000000000,101,,,,,,,,,,,,,,,,,,,,,,,,,,,,,,,,,,62831.853071795863798,314159265.358979284763336
102,0,102,101,Nordeste,NA,Corals,-14.275408000000001,-38.982568999999998,NA,NA,NA,NA,NA,10000.000000000000000,102,,,,,,,,,,,,,,,,,,,,,,,,,,,,,,,,,,62831.853071795863798,314159265.358979284763336
103,1,103,102,Nordeste,NA,Tony,-13.016731999999999,-38.488781000000003,NA,NA,NA,NA,NA,10000.000000000000000,103,26,28.000000000000000,0.000000000000000,BRSSA,Salvador5,Organized Port,BR,SSA, ,In operation,SEP,http://www.codeba.com.br/eficiente/sites/portalcodeba/pt-br/home.php,Companhia Docas do Estado da Bahia - Codeba, , ,8.199999999999999,Avenida da Fran a,"Entre a Ponta do Monte Serrat, ao norte, e a ponta de Santo Antenio, ao sul",1551.000000000000000,Estae o Marttima / Com rcio,40010000,BR292740,Salvador,BR29,BA,5.000000000000000,Regi,Baga de Todos os Santos,-12.965277d,-38.509444d, ,ANTAQ,BRSSA,62831.853071795863798,314159265.358979284763336
104,1,104,103,Nordeste,NA,Meridien,-13.016598000000000,-38.484878999999999,NA,NA,NA,NA,NA,10000.000000000000000,104,26,28.000000000000000,0.000000000000000,BRSSA,Salvador5,Organized Port,BR,SSA, ,In operation,SEP,http://www.codeba.com.br/eficiente/sites/portalcodeba/pt-br/home.php,Companhia Docas do Estado da Bahia - Codeba, , ,8.199999999999999,Avenida da Fran a,"Entre a Ponta do Monte Serrat, ao norte, e a ponta de Santo Antenio, ao sul",1551.000000000000000,Estae o Marttima / Com rcio,40010000,BR292740,Salvador,BR29,BA,5.000000000000000,Regi,Baga de Todos os Santos,-12.965277d,-38.509444d, ,ANTAQ,BRSSA,62831.853071795863798,314159265.358979284763336
105,1,105,104,Nordeste,NA,Amaralina,-13.015369000000000,-38.471834000000001,NA,NA,NA,NA,NA,10000.000000000000000,105,26,28.000000000000000,0.000000000000000,BRSSA,Salvador5,Organized Port,BR,SSA, ,In operation,SEP,http://www.codeba.com.br/eficiente/sites/portalcodeba/pt-br/home.php,Companhia Docas do Estado da Bahia - Codeba, , ,8.199999999999999,Avenida da Fran a,"Entre a Ponta do Monte Serrat, ao norte, e a ponta de Santo Antenio, ao sul",1551.000000000000000,Estae o Marttima / Com rcio,40010000,BR292740,Salvador,BR29,BA,5.000000000000000,Regi,Baga de Todos os Santos,-12.965277d,-38.509444d, ,ANTAQ,BRSSA,62831.853071795863798,314159265.358979284763336
106,1,106,105,Nordeste,NA,Tubao,-13.010683999999999,-38.461410999999998,NA,NA,NA,NA,NA,10000.000000000000000,106,26,28.000000000000000,0.000000000000000,BRSSA,Salvador5,Organized Port,BR,SSA, ,In operation,SEP,http://www.codeba.com.br/eficiente/sites/portalcodeba/pt-br/home.php,Companhia Docas do Estado da Bahia - Codeba, , ,8.199999999999999,Avenida da Fran a,"Entre a Ponta do Monte Serrat, ao norte, e a ponta de Santo Antenio, ao sul",1551.000000000000000,Estae o Marttima / Com rcio,40010000,BR292740,Salvador,BR29,BA,5.000000000000000,Regi,Baga de Todos os Santos,-12.965277d,-38.509444d, ,ANTAQ,BRSSA,62831.853071795863798,314159265.358979284763336
107,1,107,106,Nordeste,NA,Psiu,-12.995919000000001,-38.439390000000003,NA,NA,NA,NA,NA,10000.000000000000000,107,26,28.000000000000000,0.000000000000000,BRSSA,Salvador5,Organized Port,BR,SSA, ,In operation,SEP,http://www.codeba.com.br/eficiente/sites/portalcodeba/pt-br/home.php,Companhia Docas do Estado da Bahia - Codeba, , ,8.199999999999999,Avenida da Fran a,"Entre a Ponta do Monte Serrat, ao norte, e a ponta de Santo Antenio, ao sul",1551.000000000000000,Estae o Marttima / Com rcio,40010000,BR292740,Salvador,BR29,BA,5.000000000000000,Regi,Baga de Todos os Santos,-12.965277d,-38.509444d, ,ANTAQ,BRSSA,62831.853071795863798,314159265.358979284763336
108,0,108,107,Nordeste,NA,Alex,-12.973279000000000,-38.406477000000002,NA,NA,NA,NA,NA,10000.000000000000000,108,,,,,,,,,,,,,,,,,,,,,,,,,,,,,,,,,,62831.853071795863798,314159265.358979284763336
109,0,109,108,Nordeste,NA,Terceira Ponte,-12.963839999999999,-38.396822000000000,NA,NA,NA,NA,NA,10000.000000000000000,109,,,,,,,,,,,,,,,,,,,,,,,,,,,,,,,,,,62831.853071795863798,314159265.358979284763336
110,0,110,109,Nordeste,NA,SESC,-12.960485000000000,-38.390998000000003,NA,NA,NA,NA,NA,10000.000000000000000,110,,,,,,,,,,,,,,,,,,,,,,,,,,,,,,,,,,62831.853071795863798,314159265.358979284763336
111,0,111,110,Nordeste,NA,Farol,-12.958147000000000,-38.352812999999998,NA,NA,NA,NA,NA,10000.000000000000000,111,,,,,,,,,,,,,,,,,,,,,,,,,,,,,,,,,,62831.853071795863798,314159265.358979284763336
112,0,112,111,Nordeste,NA,Pedro do Sal,-12.954224000000000,-38.347234000000000,NA,NA,NA,NA,NA,10000.000000000000000,112,,,,,,,,,,,,,,,,,,,,,,,,,,,,,,,,,,62831.853071795863798,314159265.358979284763336
113,0,113,112,Nordeste,NA,Itapoa,-12.952339000000000,-38.369608999999997,NA,NA,NA,NA,NA,10000.000000000000000,113,,,,,,,,,,,,,,,,,,,,,,,,,,,,,,,,,,62831.853071795863798,314159265.358979284763336
114,0,114,113,Nordeste,NA,Seper,-12.952040999999999,-38.343243999999999,NA,NA,NA,NA,NA,10000.000000000000000,114,,,,,,,,,,,,,,,,,,,,,,,,,,,,,,,,,,62831.853071795863798,314159265.358979284763336
115,0,115,114,Nordeste,NA,Corrente,-12.948985000000000,-38.339199999999998,NA,NA,NA,NA,NA,10000.000000000000000,115,,,,,,,,,,,,,,,,,,,,,,,,,,,,,,,,,,62831.853071795863798,314159265.358979284763336
116,0,116,115,Nordeste,NA,Stela Maris,-12.947385000000001,-38.337372000000002,NA,NA,NA,NA,NA,10000.000000000000000,116,,,,,,,,,,,,,,,,,,,,,,,,,,,,,,,,,,62831.853071795863798,314159265.358979284763336
117,0,117,116,Nordeste,NA,Plator,-12.946393000000000,-38.333083999999999,NA,NA,NA,NA,NA,10000.000000000000000,117,,,,,,,,,,,,,,,,,,,,,,,,,,,,,,,,,,62831.853071795863798,314159265.358979284763336
118,0,118,117,Nordeste,NA,Aleluia,-12.926800999999999,-38.312618999999998,NA,NA,NA,NA,NA,10000.000000000000000,118,,,,,,,,,,,,,,,,,,,,,,,,,,,,,,,,,,62831.853071795863798,314159265.358979284763336
119,0,119,118,Nordeste,NA,Ipitanga,-12.920477000000000,-38.309717999999997,NA,NA,NA,NA,NA,10000.000000000000000,119,,,,,,,,,,,,,,,,,,,,,,,,,,,,,,,,,,62831.853071795863798,314159265.358979284763336
120,0,120,119,Nordeste,NA,Vilas,-12.894546000000000,-38.290790999999999,NA,NA,NA,NA,NA,10000.000000000000000,120,,,,,,,,,,,,,,,,,,,,,,,,,,,,,,,,,,62831.853071795863798,314159265.358979284763336
121,0,121,120,Nordeste,NA,Busca Vida,-12.863464000000000,-38.255961999999997,NA,NA,NA,NA,NA,10000.000000000000000,121,,,,,,,,,,,,,,,,,,,,,,,,,,,,,,,,,,62831.853071795863798,314159265.358979284763336
122,0,122,121,Nordeste,NA,Itacimirim,-12.639232000000000,-38.048194000000002,NA,NA,NA,NA,NA,10000.000000000000000,122,,,,,,,,,,,,,,,,,,,,,,,,,,,,,,,,,,62831.853071795863798,314159265.358979284763336
123,0,123,122,Nordeste,NA,Praia do Forte,-12.583304999999999,-38.005077999999997,NA,NA,NA,NA,NA,10000.000000000000000,123,,,,,,,,,,,,,,,,,,,,,,,,,,,,,,,,,,62831.853071795863798,314159265.358979284763336
124,0,124,123,Nordeste,NA,Imbassai,-12.342055000000000,-37.846200000000003,NA,NA,NA,NA,NA,10000.000000000000000,124,,,,,,,,,,,,,,,,,,,,,,,,,,,,,,,,,,62831.853071795863798,314159265.358979284763336
125,0,125,124,Nordeste,NA,Costa do Sauipe,-12.022171000000000,-37.645508000000000,NA,NA,NA,NA,NA,10000.000000000000000,125,,,,,,,,,,,,,,,,,,,,,,,,,,,,,,,,,,62831.853071795863798,314159265.358979284763336
126,0,126,125,Nordeste,NA,Marlin,-11.939802999999999,-37.602476000000003,NA,NA,NA,NA,NA,10000.000000000000000,126,,,,,,,,,,,,,,,,,,,,,,,,,,,,,,,,,,62831.853071795863798,314159265.358979284763336
127,0,127,126,Nordeste,NA,Conde,-11.848141000000000,-37.558169999999997,NA,NA,NA,NA,NA,10000.000000000000000,127,,,,,,,,,,,,,,,,,,,,,,,,,,,,,,,,,,62831.853071795863798,314159265.358979284763336
128,0,128,127,Nordeste,NA,Mangue Seco,-11.483613999999999,-37.364454000000002,NA,NA,NA,NA,NA,10000.000000000000000,128,,,,,,,,,,,,,,,,,,,,,,,,,,,,,,,,,,62831.853071795863798,314159265.358979284763336
129,0,129,128,Nordeste,NA,Mosqueiro,-11.138116000000000,-37.145493000000002,NA,NA,NA,NA,NA,10000.000000000000000,129,,,,,,,,,,,,,,,,,,,,,,,,,,,,,,,,,,62831.853071795863798,314159265.358979284763336
130,0,130,129,Nordeste,NA,Aruana,-11.067069000000000,-37.101289000000001,NA,NA,NA,NA,NA,10000.000000000000000,130,,,,,,,,,,,,,,,,,,,,,,,,,,,,,,,,,,62831.853071795863798,314159265.358979284763336
131,1,131,130,Nordeste,NA,Hawaiizinho,-11.043927999999999,-37.082977999999997,NA,NA,NA,NA,NA,10000.000000000000000,131,95,159.000000000000000,0.000000000000000,BRSE002,Terminal Aquavi4rio de Aracaju,Terminal for private use,BR,BRS,BRSE002,In operation,Privada,Terminal de uso privado,PETROBRAS TRANSPORTE S.A - TRANSPETRO,02709449005541,CA 75/2015-ANTAQ,0.000000000000000,Avenida MelAcio Machado,Km 2,0.000000000000000,Atalaia Velha,49037440,2800308, , , ,0.000000000000000, , ,-11.0041,-37.0661,"Atualizado pela GAP em 10/02/2021
Atualizado em 07/07/2015 pela",Antaq, ,62831.853071795863798,314159265.358979284763336
132,1,132,131,Nordeste,NA,Praia do Meio,-10.999541000000001,-37.050151000000000,NA,NA,NA,NA,NA,10000.000000000000000,132,95,159.000000000000000,0.000000000000000,BRSE002,Terminal Aquavi4rio de Aracaju,Terminal for private use,BR,BRS,BRSE002,In operation,Privada,Terminal de uso privado,PETROBRAS TRANSPORTE S.A - TRANSPETRO,02709449005541,CA 75/2015-ANTAQ,0.000000000000000,Avenida MelAcio Machado,Km 2,0.000000000000000,Atalaia Velha,49037440,2800308, , , ,0.000000000000000, , ,-11.0041,-37.0661,"Atualizado pela GAP em 10/02/2021
Atualizado em 07/07/2015 pela",Antaq, ,62831.853071795863798,314159265.358979284763336
133,0,133,132,Nordeste,NA,Pirambu,-10.746346000000001,-36.855099000000003,NA,NA,NA,NA,NA,10000.000000000000000,133,,,,,,,,,,,,,,,,,,,,,,,,,,,,,,,,,,62831.853071795863798,314159265.358979284763336
134,0,134,133,Nordeste,NA,Ponta do Mangue,-10.639483000000000,-36.678539000000001,NA,NA,NA,NA,NA,10000.000000000000000,134,,,,,,,,,,,,,,,,,,,,,,,,,,,,,,,,,,62831.853071795863798,314159265.358979284763336
135,0,135,134,Nordeste,NA,Pontal de Peba,-10.367584000000001,-36.303941000000002,NA,NA,NA,NA,NA,10000.000000000000000,135,,,,,,,,,,,,,,,,,,,,,,,,,,,,,,,,,,62831.853071795863798,314159265.358979284763336
136,0,136,135,Nordeste,NA,Mihai,-10.196728000000000,-36.181641999999997,NA,NA,NA,NA,NA,10000.000000000000000,136,,,,,,,,,,,,,,,,,,,,,,,,,,,,,,,,,,62831.853071795863798,314159265.358979284763336
137,0,137,136,Nordeste,NA,Pontal do Coruripe,-10.160774999999999,-36.150663999999999,NA,NA,NA,NA,NA,10000.000000000000000,137,,,,,,,,,,,,,,,,,,,,,,,,,,,,,,,,,,62831.853071795863798,314159265.358979284763336
138,0,138,137,Nordeste,NA,Forjos,-10.107661999999999,-36.097672000000003,NA,NA,NA,NA,NA,10000.000000000000000,138,,,,,,,,,,,,,,,,,,,,,,,,,,,,,,,,,,62831.853071795863798,314159265.358979284763336
139,0,139,138,Nordeste,NA,Poxim,-10.063563000000000,-36.040908999999999,NA,NA,NA,NA,NA,10000.000000000000000,139,,,,,,,,,,,,,,,,,,,,,,,,,,,,,,,,,,62831.853071795863798,314159265.358979284763336
140,0,140,139,Nordeste,NA,Jacarecica,-9.916383000000000,-35.945963999999996,NA,NA,NA,NA,NA,10000.000000000000000,140,,,,,,,,,,,,,,,,,,,,,,,,,,,,,,,,,,62831.853071795863798,314159265.358979284763336
141,0,141,140,Nordeste,NA,Praia do Meio,-9.824446999999999,-35.877803000000000,NA,NA,NA,NA,NA,10000.000000000000000,141,,,,,,,,,,,,,,,,,,,,,,,,,,,,,,,,,,62831.853071795863798,314159265.358979284763336
142,2,142,141,Nordeste,NA,Praia do Pontal,-9.682589999999999,-35.758536999999997,NA,NA,NA,NA,NA,10000.000000000000000,142,68,132.000000000000000,0.000000000000000,BRAL001,Terminal Braskem,Terminal for private use,BR,BRA,BRAL001,In operation,Privada,Terminal de uso privado,BRASKEM S/A,42150391002203,CA 101/2015-ANTAQ,0.000000000000000,AV. ASSIS CHATEAUBRIAND,Praia do Pontal da Barra,5260.000000000000000,PONTAL DA BARRA,57010900,2704302, , , ,0.000000000000000, , ,-9.694,-35.759,"Atualizado pela GAP em 25/02/2016. 
Atualizado pela GEA em 07/0",Antaq, ,62831.853071795863798,314159265.358979284763336
143,2,143,142,Nordeste,NA,Salgema,-9.679629000000000,-35.718974000000003,NA,NA,NA,NA,NA,10000.000000000000000,143,68,132.000000000000000,0.000000000000000,BRAL001,Terminal Braskem,Terminal for private use,BR,BRA,BRAL001,In operation,Privada,Terminal de uso privado,BRASKEM S/A,42150391002203,CA 101/2015-ANTAQ,0.000000000000000,AV. ASSIS CHATEAUBRIAND,Praia do Pontal da Barra,5260.000000000000000,PONTAL DA BARRA,57010900,2704302, , , ,0.000000000000000, , ,-9.694,-35.759,"Atualizado pela GAP em 25/02/2016. 
Atualizado pela GEA em 07/0",Antaq, ,62831.853071795863798,314159265.358979284763336
144,2,144,143,Nordeste,NA,Pier do Emissario,-9.673301000000000,-35.715234000000002,NA,NA,NA,NA,NA,10000.000000000000000,144,68,132.000000000000000,0.000000000000000,BRAL001,Terminal Braskem,Terminal for private use,BR,BRA,BRAL001,In operation,Privada,Terminal de uso privado,BRASKEM S/A,42150391002203,CA 101/2015-ANTAQ,0.000000000000000,AV. ASSIS CHATEAUBRIAND,Praia do Pontal da Barra,5260.000000000000000,PONTAL DA BARRA,57010900,2704302, , , ,0.000000000000000, , ,-9.694,-35.759,"Atualizado pela GAP em 25/02/2016. 
Atualizado pela GEA em 07/0",Antaq, ,62831.853071795863798,314159265.358979284763336
145,2,145,144,Nordeste,NA,Praia do Sobral,-9.666869000000000,-35.710735000000000,NA,NA,NA,NA,NA,10000.000000000000000,145,68,132.000000000000000,0.000000000000000,BRAL001,Terminal Braskem,Terminal for private use,BR,BRA,BRAL001,In operation,Privada,Terminal de uso privado,BRASKEM S/A,42150391002203,CA 101/2015-ANTAQ,0.000000000000000,AV. ASSIS CHATEAUBRIAND,Praia do Pontal da Barra,5260.000000000000000,PONTAL DA BARRA,57010900,2704302, , , ,0.000000000000000, , ,-9.694,-35.759,"Atualizado pela GAP em 25/02/2016. 
Atualizado pela GEA em 07/0",Antaq, ,62831.853071795863798,314159265.358979284763336
146,2,146,145,Nordeste,NA,"Pico da Barra, Brazil",-9.665630000000000,-35.697186000000002,NA,NA,NA,NA,NA,10000.000000000000000,146,68,132.000000000000000,0.000000000000000,BRAL001,Terminal Braskem,Terminal for private use,BR,BRA,BRAL001,In operation,Privada,Terminal de uso privado,BRASKEM S/A,42150391002203,CA 101/2015-ANTAQ,0.000000000000000,AV. ASSIS CHATEAUBRIAND,Praia do Pontal da Barra,5260.000000000000000,PONTAL DA BARRA,57010900,2704302, , , ,0.000000000000000, , ,-9.694,-35.759,"Atualizado pela GAP em 25/02/2016. 
Atualizado pela GEA em 07/0",Antaq, ,62831.853071795863798,314159265.358979284763336
147,0,147,146,Nordeste,NA,Pedra Virada,-9.585521999999999,-35.660038000000000,NA,NA,NA,NA,NA,10000.000000000000000,147,,,,,,,,,,,,,,,,,,,,,,,,,,,,,,,,,,62831.853071795863798,314159265.358979284763336
148,0,148,147,Nordeste,NA,Praia de Jatiuca,-9.531449000000000,-35.590927999999998,NA,NA,NA,NA,NA,10000.000000000000000,148,,,,,,,,,,,,,,,,,,,,,,,,,,,,,,,,,,62831.853071795863798,314159265.358979284763336
149,0,149,148,Nordeste,NA,Garca Torta,-9.487114000000000,-35.557476999999999,NA,NA,NA,NA,NA,10000.000000000000000,149,,,,,,,,,,,,,,,,,,,,,,,,,,,,,,,,,,62831.853071795863798,314159265.358979284763336
150,0,150,149,Nordeste,NA,Mirante da Sirena,-9.430906000000000,-35.503683000000002,NA,NA,NA,NA,NA,10000.000000000000000,150,,,,,,,,,,,,,,,,,,,,,,,,,,,,,,,,,,62831.853071795863798,314159265.358979284763336
151,0,151,150,Nordeste,NA,Japaratinga,-9.261582000000001,-35.353366000000001,NA,NA,NA,NA,NA,10000.000000000000000,151,,,,,,,,,,,,,,,,,,,,,,,,,,,,,,,,,,62831.853071795863798,314159265.358979284763336
152,0,152,151,Nordeste,NA,Impossivel,-8.615505000000001,-35.020375000000001,NA,NA,NA,NA,NA,10000.000000000000000,152,,,,,,,,,,,,,,,,,,,,,,,,,,,,,,,,,,62831.853071795863798,314159265.358979284763336
153,0,153,152,Nordeste,NA,Serrambi,-8.576358000000001,-35.028714999999998,NA,NA,NA,NA,NA,10000.000000000000000,153,,,,,,,,,,,,,,,,,,,,,,,,,,,,,,,,,,62831.853071795863798,314159265.358979284763336
154,0,154,153,Nordeste,NA,Porto de Galinhas,-8.488678000000000,-34.999501000000002,NA,NA,NA,NA,NA,10000.000000000000000,154,,,,,,,,,,,,,,,,,,,,,,,,,,,,,,,,,,62831.853071795863798,314159265.358979284763336
155,0,155,154,Nordeste,NA,Cupe,-8.479708000000000,-34.996577000000002,NA,NA,NA,NA,NA,10000.000000000000000,155,,,,,,,,,,,,,,,,,,,,,,,,,,,,,,,,,,62831.853071795863798,314159265.358979284763336
156,3,156,155,Nordeste,NA,Gaibu,-8.341567000000000,-34.948825999999997,NA,NA,NA,NA,NA,10000.000000000000000,156,163,234.000000000000000,0.000000000000000,BRPE001,Estaleiro Atlrntico Sul - EAS,Terminal for private use,BR,BRP,BRPE001,In operation,Privada,Terminal de uso privado,ESTALEIRO ATLsNTICO SUL S.A.,07699082000153,CA 037/2014-ANTAQ,0.000000000000000,ILHA DA TATUOCA S/N,COMPLEXO INDUSTRIAL PORTU.RIO GOV. ERALDO GUEIROS,0.000000000000000,Porto de Suape,55590970,2607208, , , ,0.000000000000000, , ,-8.381,-34.972,Atualizado pela GAP em 29/04/2015.,Antaq, ,62831.853071795863798,314159265.358979284763336
157,0,157,156,Nordeste,NA,Bessa,-7.091138000000000,-34.832765000000002,NA,NA,NA,NA,NA,10000.000000000000000,157,,,,,,,,,,,,,,,,,,,,,,,,,,,,,,,,,,62831.853071795863798,314159265.358979284763336
158,0,158,157,Nordeste,NA,Saji,-6.466880000000000,-34.970449000000002,NA,NA,NA,NA,NA,10000.000000000000000,158,,,,,,,,,,,,,,,,,,,,,,,,,,,,,,,,,,62831.853071795863798,314159265.358979284763336
159,0,159,158,Nordeste,NA,Farol,-6.408908000000000,-34.979016999999999,NA,NA,NA,NA,NA,10000.000000000000000,159,,,,,,,,,,,,,,,,,,,,,,,,,,,,,,,,,,62831.853071795863798,314159265.358979284763336
160,0,160,159,Nordeste,NA,Xilauzinho,-6.395101000000000,-34.983204999999998,NA,NA,NA,NA,NA,10000.000000000000000,160,,,,,,,,,,,,,,,,,,,,,,,,,,,,,,,,,,62831.853071795863798,314159265.358979284763336
161,0,161,160,Nordeste,NA,Mar Aberto,-6.379758000000000,-34.989437000000002,NA,NA,NA,NA,NA,10000.000000000000000,161,,,,,,,,,,,,,,,,,,,,,,,,,,,,,,,,,,62831.853071795863798,314159265.358979284763336
162,0,162,161,Nordeste,NA,Pontal,-6.368680000000000,-34.993423999999997,NA,NA,NA,NA,NA,10000.000000000000000,162,,,,,,,,,,,,,,,,,,,,,,,,,,,,,,,,,,62831.853071795863798,314159265.358979284763336
163,0,163,162,Nordeste,NA,Mar da Frente,-6.365217000000000,-35.006211999999998,NA,NA,NA,NA,NA,10000.000000000000000,163,,,,,,,,,,,,,,,,,,,,,,,,,,,,,,,,,,62831.853071795863798,314159265.358979284763336
164,0,164,163,Nordeste,NA,Lajinha,-6.278960000000000,-35.033028000000002,NA,NA,NA,NA,NA,10000.000000000000000,164,,,,,,,,,,,,,,,,,,,,,,,,,,,,,,,,,,62831.853071795863798,314159265.358979284763336
165,0,165,164,Nordeste,NA,Afogados,-6.244350000000000,-35.036464000000002,NA,NA,NA,NA,NA,10000.000000000000000,165,,,,,,,,,,,,,,,,,,,,,,,,,,,,,,,,,,62831.853071795863798,314159265.358979284763336
166,0,166,165,Nordeste,NA,Sororoca,-6.238074000000000,-35.035608000000003,NA,NA,NA,NA,NA,10000.000000000000000,166,,,,,,,,,,,,,,,,,,,,,,,,,,,,,,,,,,62831.853071795863798,314159265.358979284763336
167,0,167,166,Nordeste,NA,Abacateiro,-6.233891000000000,-35.036746999999998,NA,NA,NA,NA,NA,10000.000000000000000,167,,,,,,,,,,,,,,,,,,,,,,,,,,,,,,,,,,62831.853071795863798,314159265.358979284763336
168,0,168,167,Nordeste,NA,Tibau do Sul,-6.180279000000000,-35.089708999999999,NA,NA,NA,NA,NA,10000.000000000000000,168,,,,,,,,,,,,,,,,,,,,,,,,,,,,,,,,,,62831.853071795863798,314159265.358979284763336
169,0,169,168,Nordeste,NA,Tabatinga,-6.049479000000000,-35.108238000000000,NA,NA,NA,NA,NA,10000.000000000000000,169,,,,,,,,,,,,,,,,,,,,,,,,,,,,,,,,,,62831.853071795863798,314159265.358979284763336
170,0,170,169,Nordeste,NA,Xoxoline,-6.005800000000000,-35.105258999999997,NA,NA,NA,NA,NA,10000.000000000000000,170,,,,,,,,,,,,,,,,,,,,,,,,,,,,,,,,,,62831.853071795863798,314159265.358979284763336
171,0,171,170,Nordeste,NA,Pirangi Reef,-5.980259000000000,-35.107796000000000,NA,NA,NA,NA,NA,10000.000000000000000,171,,,,,,,,,,,,,,,,,,,,,,,,,,,,,,,,,,62831.853071795863798,314159265.358979284763336
172,0,172,171,Nordeste,NA,Cotovelo,-5.949906000000000,-35.151975000000000,NA,NA,NA,NA,NA,10000.000000000000000,172,,,,,,,,,,,,,,,,,,,,,,,,,,,,,,,,,,62831.853071795863798,314159265.358979284763336
173,1,173,172,Nordeste,NA,Miami,-5.794834000000000,-35.181663999999998,NA,NA,NA,NA,NA,10000.000000000000000,173,17,19.000000000000000,0.000000000000000,BRNAT,Natal,Organized Port,BR,NAT, ,In operation,SEP,http://codern.com.br/porto-de-natal/,Companhia Docas do Rio Grande do Norte - COD, , ,10.000000000000000,Avenida Engenheiro Hildebrando de Gris,Distante 3km da sua foz,220.000000000000000,Ribeira,59010700,BR240810,Natal,BR24,RN,6.000000000000000,Regi,Margem direita do Rio Potengi,-5.772777r,-35.204999, ,ANTAQ,BRNAT,62831.853071795863798,314159265.358979284763336
174,1,174,173,Nordeste,NA,Areia Preta,-5.792249000000000,-35.184387000000001,NA,NA,NA,NA,NA,10000.000000000000000,174,17,19.000000000000000,0.000000000000000,BRNAT,Natal,Organized Port,BR,NAT, ,In operation,SEP,http://codern.com.br/porto-de-natal/,Companhia Docas do Rio Grande do Norte - COD, , ,10.000000000000000,Avenida Engenheiro Hildebrando de Gris,Distante 3km da sua foz,220.000000000000000,Ribeira,59010700,BR240810,Natal,BR24,RN,6.000000000000000,Regi,Margem direita do Rio Potengi,-5.772777r,-35.204999, ,ANTAQ,BRNAT,62831.853071795863798,314159265.358979284763336
175,1,175,174,Nordeste,NA,Praia dos Artistas,-5.781239000000000,-35.192050000000002,NA,NA,NA,NA,NA,10000.000000000000000,175,17,19.000000000000000,0.000000000000000,BRNAT,Natal,Organized Port,BR,NAT, ,In operation,SEP,http://codern.com.br/porto-de-natal/,Companhia Docas do Rio Grande do Norte - COD, , ,10.000000000000000,Avenida Engenheiro Hildebrando de Gris,Distante 3km da sua foz,220.000000000000000,Ribeira,59010700,BR240810,Natal,BR24,RN,6.000000000000000,Regi,Margem direita do Rio Potengi,-5.772777r,-35.204999, ,ANTAQ,BRNAT,62831.853071795863798,314159265.358979284763336
176,1,176,175,Nordeste,NA,Genipabu,-5.694407000000000,-35.201922000000003,NA,NA,NA,NA,NA,10000.000000000000000,176,17,19.000000000000000,0.000000000000000,BRNAT,Natal,Organized Port,BR,NAT, ,In operation,SEP,http://codern.com.br/porto-de-natal/,Companhia Docas do Rio Grande do Norte - COD, , ,10.000000000000000,Avenida Engenheiro Hildebrando de Gris,Distante 3km da sua foz,220.000000000000000,Ribeira,59010700,BR240810,Natal,BR24,RN,6.000000000000000,Regi,Margem direita do Rio Potengi,-5.772777r,-35.204999, ,ANTAQ,BRNAT,62831.853071795863798,314159265.358979284763336
177,0,177,176,Nordeste,NA,Touros Area,-5.197434000000000,-35.457929999999998,NA,NA,NA,NA,NA,10000.000000000000000,177,,,,,,,,,,,,,,,,,,,,,,,,,,,,,,,,,,62831.853071795863798,314159265.358979284763336
178,0,178,177,Nordeste,NA,Urca da Concei&ccedil;&atilde;o,-5.069617000000000,-35.800230999999997,NA,NA,NA,NA,NA,10000.000000000000000,178,,,,,,,,,,,,,,,,,,,,,,,,,,,,,,,,,,62831.853071795863798,314159265.358979284763336
179,0,179,178,Nordeste,NA,Cocoa das Lavadeiras,-5.066515000000000,-35.862005000000003,NA,NA,NA,NA,NA,10000.000000000000000,179,,,,,,,,,,,,,,,,,,,,,,,,,,,,,,,,,,62831.853071795863798,314159265.358979284763336
180,2,180,179,Nordeste,NA,Baia das Ratas,-3.813000000000000,-32.393000000000001,NA,NA,NA,NA,NA,10000.000000000000000,180,881,300496.000000000000000,0.000000000000000,BRPE003,Porto de Santo Antonio (IP4 Fernando de Noronha),Registereded as a public port facility,BR,BRP,BRPE003,In operation,Privada,Registro - Instalablo portu ria piblica de pequeno porte,PORTO DE SANTO ANTONIO - AUTARQUIA TERRITORI,40817926000199,Res. 5594/2017,0.000000000000000,Bairro de Santo AntNnio, ,0.000000000000000,Vila do Porto,53990000,2605459, , , ,0.000000000000000, , ,-3.834,-32.401, ,Antaq, ,62831.853071795863798,314159265.358979284763336
181,1,181,180,Nordeste,NA,Volta da Jurema,-3.724294000000000,-38.496071999999998,NA,NA,NA,NA,NA,10000.000000000000000,181,9,9.000000000000000,0.000000000000000,BRFOR,Fortaleza e,Organized Port,BR,FOR, ,In operation,SEP,http://www.docasdoceara.com.br/o-porto,Companhia Docas do Cear. - CDC, ,Lei 5.917/73,8.000000000000000,Pra a Amigos da Marinha, ,0.000000000000000,Mucuripe,60182640,BR230440,Fortaleza,BR23,CE,6.000000000000000,Regi,Enseada de Mucuripe,-3.709722000000001e,-38.473610, ,ANTAQ,BRFOR,62831.853071795863798,314159265.358979284763336
182,1,182,181,Nordeste,NA,Portao,-3.719326000000000,-38.510655000000000,NA,NA,NA,NA,NA,10000.000000000000000,182,9,9.000000000000000,0.000000000000000,BRFOR,Fortaleza e,Organized Port,BR,FOR, ,In operation,SEP,http://www.docasdoceara.com.br/o-porto,Companhia Docas do Cear. - CDC, ,Lei 5.917/73,8.000000000000000,Pra a Amigos da Marinha, ,0.000000000000000,Mucuripe,60182640,BR230440,Fortaleza,BR23,CE,6.000000000000000,Regi,Enseada de Mucuripe,-3.709722000000001e,-38.473610, ,ANTAQ,BRFOR,62831.853071795863798,314159265.358979284763336
183,0,183,182,Nordeste,NA,Barra do Ceara,-3.692659000000000,-38.584716000000000,NA,NA,NA,NA,NA,10000.000000000000000,183,,,,,,,,,,,,,,,,,,,,,,,,,,,,,,,,,,62831.853071795863798,314159265.358979284763336
184,1,184,183,Nordeste,NA,Praia do Pecem,-3.546170000000000,-38.806919000000001,NA,NA,NA,NA,NA,10000.000000000000000,184,76,140.000000000000000,0.000000000000000,BRCE001,Terminal PortuGrio do Pec6m,Terminal for private use,BR,BRC,BRCE001,In operation,Privada,Terminal de uso privado,COMPANHIA DE DESENVOLVIMENTO DO COMPLEXO IND,01256678000100,CA 113/2016-ANTAQ,0.000000000000000,Esplanada do PecQm,s/ na,0.000000000000000,Distrito de Peccm,62674906,2312403, , , ,0.000000000000000, , ,-3.52703,-38.7965,Atualiza,Antaq, ,62831.853071795863798,314159265.358979284763336
185,0,185,184,Nordeste,NA,Tabinha,-3.500935000000000,-38.911282000000000,NA,NA,NA,NA,NA,10000.000000000000000,185,,,,,,,,,,,,,,,,,,,,,,,,,,,,,,,,,,62831.853071795863798,314159265.358979284763336
186,1,186,185,Nordeste,NA,Pedra do Meio,-3.410858000000000,-39.040807000000001,NA,NA,NA,NA,NA,10000.000000000000000,186,930,300546.000000000000000,0.000000000000000,BRCE002,Terminal Petrobras Paracuru,Terminal for private use,BR,BRC,BRCE002,Built,Privada,Terminal de uso privado,PETROLEO BRASILEIRO S A PETROBRAS,33000167004107,CA 14/2019-MINFRA,0.000000000000000,Estrada da Lagoa Grande,S/N,0.000000000000000,Lagoa,62680000,2310209, , , ,0.000000000000000, , ,-3.4012,-39.0119,"09/02/2021 - Atualizadees GAP:
- Constava a previsro de investi",Antaq, ,62831.853071795863798,314159265.358979284763336
187,1,187,186,Nordeste,NA,Havaizinho,-3.403507000000000,-39.022171000000000,NA,NA,NA,NA,NA,10000.000000000000000,187,930,300546.000000000000000,0.000000000000000,BRCE002,Terminal Petrobras Paracuru,Terminal for private use,BR,BRC,BRCE002,Built,Privada,Terminal de uso privado,PETROLEO BRASILEIRO S A PETROBRAS,33000167004107,CA 14/2019-MINFRA,0.000000000000000,Estrada da Lagoa Grande,S/N,0.000000000000000,Lagoa,62680000,2310209, , , ,0.000000000000000, , ,-3.4012,-39.0119,"09/02/2021 - Atualizadees GAP:
- Constava a previsro de investi",Antaq, ,62831.853071795863798,314159265.358979284763336
188,1,188,187,Nordeste,NA,Curral,-3.403353000000000,-39.025868000000003,NA,NA,NA,NA,NA,10000.000000000000000,188,930,300546.000000000000000,0.000000000000000,BRCE002,Terminal Petrobras Paracuru,Terminal for private use,BR,BRC,BRCE002,Built,Privada,Terminal de uso privado,PETROLEO BRASILEIRO S A PETROBRAS,33000167004107,CA 14/2019-MINFRA,0.000000000000000,Estrada da Lagoa Grande,S/N,0.000000000000000,Lagoa,62680000,2310209, , , ,0.000000000000000, , ,-3.4012,-39.0119,"09/02/2021 - Atualizadees GAP:
- Constava a previsro de investi",Antaq, ,62831.853071795863798,314159265.358979284763336
189,1,189,188,Nordeste,NA,Outside,-3.398539000000000,-39.013306000000000,NA,NA,NA,NA,NA,10000.000000000000000,189,930,300546.000000000000000,0.000000000000000,BRCE002,Terminal Petrobras Paracuru,Terminal for private use,BR,BRC,BRCE002,Built,Privada,Terminal de uso privado,PETROLEO BRASILEIRO S A PETROBRAS,33000167004107,CA 14/2019-MINFRA,0.000000000000000,Estrada da Lagoa Grande,S/N,0.000000000000000,Lagoa,62680000,2310209, , , ,0.000000000000000, , ,-3.4012,-39.0119,"09/02/2021 - Atualizadees GAP:
- Constava a previsro de investi",Antaq, ,62831.853071795863798,314159265.358979284763336
190,0,190,189,Nordeste,NA,Atins,-2.555789000000000,-42.727836000000003,NA,NA,NA,NA,NA,10000.000000000000000,190,,,,,,,,,,,,,,,,,,,,,,,,,,,,,,,,,,62831.853071795863798,314159265.358979284763336
191,0,191,190,Nordeste,NA,Ponta d'Areia,-2.497384000000000,-44.311779000000001,NA,NA,NA,NA,NA,10000.000000000000000,191,,,,,,,,,,,,,,,,,,,,,,,,,,,,,,,,,,62831.853071795863798,314159265.358979284763336
192,0,192,191,Nordeste,NA,S&atilde;o Marcos,-2.485445000000000,-44.297899999999998,NA,NA,NA,NA,NA,10000.000000000000000,192,,,,,,,,,,,,,,,,,,,,,,,,,,,,,,,,,,62831.853071795863798,314159265.358979284763336
193,0,193,192,Nordeste,NA,Calhau,-2.480673000000000,-44.249679999999998,NA,NA,NA,NA,NA,10000.000000000000000,193,,,,,,,,,,,,,,,,,,,,,,,,,,,,,,,,,,62831.853071795863798,314159265.358979284763336
194,0,194,193,Nordeste,NA,Olho D'Agu,-2.477097000000000,-44.230155000000003,NA,NA,NA,NA,NA,10000.000000000000000,194,,,,,,,,,,,,,,,,,,,,,,,,,,,,,,,,,,62831.853071795863798,314159265.358979284763336
195,0,195,194,Nordeste,NA,Ponta do Farol,-2.456442000000000,-44.173347999999997,NA,NA,NA,NA,NA,10000.000000000000000,195,,,,,,,,,,,,,,,,,,,,,,,,,,,,,,,,,,62831.853071795863798,314159265.358979284763336
196,0,196,195,Sul,Rio Grande Do Sul,Hermenegildo,-33.668354000000001,-53.262405000000001,3,3,Right and left,Beach-break,All surfers,10000.000000000000000,196,,,,,,,,,,,,,,,,,,,,,,,,,,,,,,,,,,62831.853071795863798,314159265.358979284763336
197,0,197,196,Sul,Rio Grande Do Sul,Navio,-32.290560999999997,-52.258674999999997,3,2,Right and left,Beach-break,All surfers,10000.000000000000000,197,,,,,,,,,,,,,,,,,,,,,,,,,,,,,,,,,,62831.853071795863798,314159265.358979284763336
198,0,198,197,Sul,Rio Grande Do Sul,Tres Marias,-32.192610999999999,-52.085065999999998,5,2,Right and left,Sand-bar,Pros or kamikaze only...,10000.000000000000000,198,,,,,,,,,,,,,,,,,,,,,,,,,,,,,,,,,,62831.853071795863798,314159265.358979284763336
199,1,199,198,Sul,Rio Grande Do Sul,Praia do Cassino,-32.178336999999999,-52.142142999999997,3,2,Right and left,Sand-bar,All surfers,10000.000000000000000,199,56,120.000000000000000,0.000000000000000,BRRS005,Terminal Maretimo Luiz Fogliatto - Termasa,Terminal for private use,BR,BRR,BRRS005,In operation,Privada,Terminal de uso privado,TERMINAL MARuTIMO LUIZ FOGLIATTO S.A. - TERM,74109828000119,CA 096/2015-ANTAQ,0.000000000000000,AVENIDA ALMIRANTE MAXIMIANO DA FONSECA, ,6361.000000000000000,INDUSTRIAL,96204040,4315602, , , ,0.000000000000000, , ,-32.115,-52.1031,"Atualizado pela GAP em 11/11/2020 por Maria Tanizaki
Atualizado",Antaq, ,62831.853071795863798,314159265.358979284763336
200,2,200,199,Sul,Rio Grande Do Sul,Sao Jose do Norte,-32.008076000000003,-52.018889999999999,3,NA,Right and left,Beach-break,All surfers,10000.000000000000000,200,25,27.000000000000000,0.000000000000000,BRRIG,Rio Grande,Organized Port,BR,RIG, ,In operation,SEP,http://www.portoriogrande.com.br/site/index.php,Superintendpncia de Portos e Hidrovias do Ri, , ,14.000000000000000,Avenida Honprio Bicalho,Caixa Postal 198. Liga a Lagoa dos Patos ao oceano Atlentico,0.000000000000000, ,96201020,BR431560,Rio Grande,BR43,RS,2.000000000000000,Regi,Margem direita do Canal do Norte,-32.042499e,-52.075555e, ,ANTAQ,BRRIG,62831.853071795863798,314159265.358979284763336
201,0,201,200,Sul,Rio Grande Do Sul,Quintão,-30.410782000000001,-50.292664000000002,3.5,3,Right and left,Sand-bar,Experienced surfers,10000.000000000000000,201,,,,,,,,,,,,,,,,,,,,,,,,,,,,,,,,,,62831.853071795863798,314159265.358979284763336
202,1,202,201,Sul,Rio Grande Do Sul,Nova Tramandaí,-30.045256999999999,-50.150033999999998,3,3,Right and left,Beach-break,All surfers,10000.000000000000000,202,80,144.000000000000000,0.000000000000000,BRRS009,Terminal Aquavi0rio de Osprio,Terminal for private use,BR,BRR,BRRS009,In operation,Privada,Terminal de uso privado,PETROBRAS TRANSPORTE S.A - TRANSPETRO,02709449005894,CA 72/2015-ANTAQ,0.000000000000000,Rodovia CristTvQo Pereira de Abreu,KM 103,0.000000000000000,Cresc3ncio,95520000,4313508, , , ,0.000000000000000, , ,-29.9828,-50.1903,Atualiza,Antaq, ,62831.853071795863798,314159265.358979284763336
203,1,203,202,Sul,Rio Grande Do Sul,Oasis Sul,-30.039822999999998,-50.147266000000002,3,3,Right and left,Beach-break,All surfers,10000.000000000000000,203,80,144.000000000000000,0.000000000000000,BRRS009,Terminal Aquavi0rio de Osprio,Terminal for private use,BR,BRR,BRRS009,In operation,Privada,Terminal de uso privado,PETROBRAS TRANSPORTE S.A - TRANSPETRO,02709449005894,CA 72/2015-ANTAQ,0.000000000000000,Rodovia CristTvQo Pereira de Abreu,KM 103,0.000000000000000,Cresc3ncio,95520000,4313508, , , ,0.000000000000000, , ,-29.9828,-50.1903,Atualiza,Antaq, ,62831.853071795863798,314159265.358979284763336
204,1,204,203,Sul,Rio Grande Do Sul,Tramandai - Malvina,-30.005490000000002,-50.129156000000002,3.5,3,Right and left,Beach-break,All surfers,10000.000000000000000,204,80,144.000000000000000,0.000000000000000,BRRS009,Terminal Aquavi0rio de Osprio,Terminal for private use,BR,BRR,BRRS009,In operation,Privada,Terminal de uso privado,PETROBRAS TRANSPORTE S.A - TRANSPETRO,02709449005894,CA 72/2015-ANTAQ,0.000000000000000,Rodovia CristTvQo Pereira de Abreu,KM 103,0.000000000000000,Cresc3ncio,95520000,4313508, , , ,0.000000000000000, , ,-29.9828,-50.1903,Atualiza,Antaq, ,62831.853071795863798,314159265.358979284763336
205,1,205,204,Sul,Rio Grande Do Sul,Tramandai,-29.993077000000000,-50.125508000000004,3,3,Right and left,Beach-break,All surfers,10000.000000000000000,205,80,144.000000000000000,0.000000000000000,BRRS009,Terminal Aquavi0rio de Osprio,Terminal for private use,BR,BRR,BRRS009,In operation,Privada,Terminal de uso privado,PETROBRAS TRANSPORTE S.A - TRANSPETRO,02709449005894,CA 72/2015-ANTAQ,0.000000000000000,Rodovia CristTvQo Pereira de Abreu,KM 103,0.000000000000000,Cresc3ncio,95520000,4313508, , , ,0.000000000000000, , ,-29.9828,-50.1903,Atualiza,Antaq, ,62831.853071795863798,314159265.358979284763336
206,0,206,205,Sul,Rio Grande Do Sul,Rainha do Mar,-29.859477999999999,-50.064568999999999,3.5,5,Right and left,Beach-break,All surfers,10000.000000000000000,206,,,,,,,,,,,,,,,,,,,,,,,,,,,,,,,,,,62831.853071795863798,314159265.358979284763336
207,0,207,206,Sul,Rio Grande Do Sul,Xangri-lá,-29.785982000000001,-50.024636000000001,3,3,Right and left,Beach-break,All surfers,10000.000000000000000,207,,,,,,,,,,,,,,,,,,,,,,,,,,,,,,,,,,62831.853071795863798,314159265.358979284763336
208,0,208,207,Sul,Rio Grande Do Sul,Atlântida - Pier,-29.784716000000000,-50.022554000000000,3,3,Right and left,Sand-bar,All surfers,10000.000000000000000,208,,,,,,,,,,,,,,,,,,,,,,,,,,,,,,,,,,62831.853071795863798,314159265.358979284763336
209,0,209,208,Sul,Rio Grande Do Sul,Capao da Canoa,-29.758676999999999,-50.010967000000001,3,3,Right and left,Sand-bar,All surfers,10000.000000000000000,209,,,,,,,,,,,,,,,,,,,,,,,,,,,,,,,,,,62831.853071795863798,314159265.358979284763336
210,0,210,209,Sul,Rio Grande Do Sul,Capao Novo,-29.686972000000001,-49.972558999999997,3,3,Right and left,Beach-break,All surfers,10000.000000000000000,210,,,,,,,,,,,,,,,,,,,,,,,,,,,,,,,,,,62831.853071795863798,314159265.358979284763336
211,0,211,210,Sul,Rio Grande Do Sul,Curumim,-29.625605000000000,-49.935744999999997,3,4,Right and left,Beach-break,Experienced surfers,10000.000000000000000,211,,,,,,,,,,,,,,,,,,,,,,,,,,,,,,,,,,62831.853071795863798,314159265.358979284763336
212,0,212,211,Sul,Rio Grande Do Sul,Itapeva,-29.372975000000000,-49.784109999999998,3,3,Right and left,Beach-break,All surfers,10000.000000000000000,212,,,,,,,,,,,,,,,,,,,,,,,,,,,,,,,,,,62831.853071795863798,314159265.358979284763336
213,0,213,212,Sul,Rio Grande Do Sul,Guarita,-29.357804999999999,-49.733997000000002,3,2,Right and left,Beach-break,All surfers,10000.000000000000000,213,,,,,,,,,,,,,,,,,,,,,,,,,,,,,,,,,,62831.853071795863798,314159265.358979284763336
214,0,214,213,Sul,Rio Grande Do Sul,Cal,-29.349421000000000,-49.729849999999999,3.5,3,Right and left,Beach-break,All surfers,10000.000000000000000,214,,,,,,,,,,,,,,,,,,,,,,,,,,,,,,,,,,62831.853071795863798,314159265.358979284763336
215,0,215,214,Sul,Rio Grande Do Sul,Ilha dos Lobos,-29.346876999999999,-49.704411999999998,5,2,Left,Reef-rocky,Pros or kamikaze only...,10000.000000000000000,215,,,,,,,,,,,,,,,,,,,,,,,,,,,,,,,,,,62831.853071795863798,314159265.358979284763336
216,0,216,215,Sul,Rio Grande Do Sul,Prainha,-29.342434999999998,-49.724497000000000,3.5,3,Right and left,Beach-break,Experienced surfers,10000.000000000000000,216,,,,,,,,,,,,,,,,,,,,,,,,,,,,,,,,,,62831.853071795863798,314159265.358979284763336
217,0,217,216,Sul,Rio Grande Do Sul,Saraiva,-29.340395999999998,-49.723241000000002,3.5,3,Right and left,Beach-break,Experienced surfers,10000.000000000000000,217,,,,,,,,,,,,,,,,,,,,,,,,,,,,,,,,,,62831.853071795863798,314159265.358979284763336
218,0,218,217,Sul,Rio Grande Do Sul,Molhes,-29.327311000000002,-49.712007999999997,3.5,3,Right and left,Beach-break,All surfers,10000.000000000000000,218,,,,,,,,,,,,,,,,,,,,,,,,,,,,,,,,,,62831.853071795863798,314159265.358979284763336
219,0,219,218,Sul,Rio Grande Do Sul,Passo de Torres,-29.324159000000002,-49.712415999999997,3.5,2,Right and left,Rivermouth,Experienced surfers,10000.000000000000000,219,,,,,,,,,,,,,,,,,,,,,,,,,,,,,,,,,,62831.853071795863798,314159265.358979284763336
220,0,220,219,Sul,Santa Catarina South,Gaivota,-29.164828000000000,-49.582157000000002,3,2,Right and left,Beach-break,Experienced surfers,10000.000000000000000,220,,,,,,,,,,,,,,,,,,,,,,,,,,,,,,,,,,62831.853071795863798,314159265.358979284763336
221,0,221,220,Sul,Santa Catarina South,Arroio do Silva,-28.943866000000000,-49.385604999999998,3.5,2,Right and left,Beach-break,Experienced surfers,10000.000000000000000,221,,,,,,,,,,,,,,,,,,,,,,,,,,,,,,,,,,62831.853071795863798,314159265.358979284763336
222,0,222,221,Sul,Santa Catarina South,Morro dos Conventos,-28.937256000000001,-49.329642999999997,3.5,3,Right and left,Beach-break,All surfers,10000.000000000000000,222,,,,,,,,,,,,,,,,,,,,,,,,,,,,,,,,,,62831.853071795863798,314159265.358979284763336
223,0,223,222,Sul,Santa Catarina South,Rincão,-28.833846999999999,-49.216003000000001,3.5,4,Right and left,Beach-break,Experienced surfers,10000.000000000000000,223,,,,,,,,,,,,,,,,,,,,,,,,,,,,,,,,,,62831.853071795863798,314159265.358979284763336
224,0,224,223,Sul,Santa Catarina South,Jaguaruna,-28.635157000000000,-48.948211999999998,3.5,3,Right and left,Beach-break,All surfers,10000.000000000000000,224,,,,,,,,,,,,,,,,,,,,,,,,,,,,,,,,,,62831.853071795863798,314159265.358979284763336
225,0,225,224,Sul,Santa Catarina South,Camacho,-28.615946000000001,-48.859506000000003,3,2,NA,Beach-break,All surfers,10000.000000000000000,225,,,,,,,,,,,,,,,,,,,,,,,,,,,,,,,,,,62831.853071795863798,314159265.358979284763336
226,0,226,225,Sul,Santa Catarina South,Cigana,-28.613534999999999,-48.845387000000002,3,3,Right and left,Beach-break,Experienced surfers,10000.000000000000000,226,,,,,,,,,,,,,,,,,,,,,,,,,,,,,,,,,,62831.853071795863798,314159265.358979284763336
227,0,227,226,Sul,Santa Catarina South,Cardozo,-28.607516000000000,-48.822994999999999,3.5,4,Right and left,Beach-break,All surfers,10000.000000000000000,227,,,,,,,,,,,,,,,,,,,,,,,,,,,,,,,,,,62831.853071795863798,314159265.358979284763336
228,0,228,227,Sul,Santa Catarina South,Cemiterio,-28.604341999999999,-48.811998000000003,5,1,Right,Point-break,Pros or kamikaze only...,10000.000000000000000,228,,,,,,,,,,,,,,,,,,,,,,,,,,,,,,,,,,62831.853071795863798,314159265.358979284763336
229,0,229,228,Sul,Santa Catarina South,Prainha do Farol,-28.600442000000001,-48.816654999999997,3,1,Right,Beach-break,All surfers,10000.000000000000000,229,,,,,,,,,,,,,,,,,,,,,,,,,,,,,,,,,,62831.853071795863798,314159265.358979284763336
230,1,230,229,Sul,Santa Catarina South,Ipoa,-28.536688999999999,-48.765521000000000,3,4,Right and left,Beach-break,All surfers,10000.000000000000000,230,13,15.000000000000000,0.000000000000000,BRLAG,Laguna,Organized Port,BR,LAG, ,In operation,SEP,http://www.portodesantos.com.br/, , ,Lei 5.917/73,0.000000000000000, , ,0.000000000000000, , ,BR420940,Laguna,BR42,SC,2.000000000000000,Regi, ,-28.496666r,-48.76972199999999a, ,ANTAQ, ,62831.853071795863798,314159265.358979284763336
231,1,231,230,Sul,Santa Catarina South,Teresa,-28.524982000000001,-48.762453000000001,3,3,Right and left,Beach-break,All surfers,10000.000000000000000,231,13,15.000000000000000,0.000000000000000,BRLAG,Laguna,Organized Port,BR,LAG, ,In operation,SEP,http://www.portodesantos.com.br/, , ,Lei 5.917/73,0.000000000000000, , ,0.000000000000000, , ,BR420940,Laguna,BR42,SC,2.000000000000000,Regi, ,-28.496666r,-48.76972199999999a, ,ANTAQ, ,62831.853071795863798,314159265.358979284763336
232,1,232,231,Sul,Santa Catarina South,Praia de Cima,-28.497350000000001,-48.748752000000003,3.5,2,Right and left,Beach-break,All surfers,10000.000000000000000,232,13,15.000000000000000,0.000000000000000,BRLAG,Laguna,Organized Port,BR,LAG, ,In operation,SEP,http://www.portodesantos.com.br/, , ,Lei 5.917/73,0.000000000000000, , ,0.000000000000000, , ,BR420940,Laguna,BR42,SC,2.000000000000000,Regi, ,-28.496666r,-48.76972199999999a, ,ANTAQ, ,62831.853071795863798,314159265.358979284763336
233,1,233,232,Sul,Santa Catarina South,Laguna,-28.473973000000001,-48.762645999999997,3.5,3,Right and left,Beach-break,All surfers,10000.000000000000000,233,13,15.000000000000000,0.000000000000000,BRLAG,Laguna,Organized Port,BR,LAG, ,In operation,SEP,http://www.portodesantos.com.br/, , ,Lei 5.917/73,0.000000000000000, , ,0.000000000000000, , ,BR420940,Laguna,BR42,SC,2.000000000000000,Regi, ,-28.496666r,-48.76972199999999a, ,ANTAQ, ,62831.853071795863798,314159265.358979284763336
234,0,234,233,Sul,Santa Catarina South,Cavalinho,-28.419032000000001,-48.744278000000001,3.5,3,Right,Point-break,Experienced surfers,10000.000000000000000,234,,,,,,,,,,,,,,,,,,,,,,,,,,,,,,,,,,62831.853071795863798,314159265.358979284763336
235,0,235,234,Sul,Santa Catarina South,Itapirubá,-28.342309000000000,-48.707799999999999,3.5,4,Right and left,Beach-break,All surfers,10000.000000000000000,235,,,,,,,,,,,,,,,,,,,,,,,,,,,,,,,,,,62831.853071795863798,314159265.358979284763336
236,0,236,235,Sul,Santa Catarina South,Itapirubá Norte,-28.336776000000000,-48.704709999999999,3.5,3,Right and left,Beach-break,All surfers,10000.000000000000000,236,,,,,,,,,,,,,,,,,,,,,,,,,,,,,,,,,,62831.853071795863798,314159265.358979284763336
237,2,237,236,Sul,Santa Catarina South,Castelinho,-28.256232000000001,-48.672694999999997,4,4,Right and left,Beach-break,Experienced surfers,10000.000000000000000,237,137,204.000000000000000,0.000000000000000,BRSC014,Terminal Privativo de Imbituba,Terminal for private use,BR,BRS,BRSC014,Unknown,Privada,Terminal de uso privado,IMBITUBA EMPREENDIMENTOS E PARTICIPAOUES S.A,27276211000108,CA 013/2017-ANTAQ,0.000000000000000,RUA ITAGIBA, ,1500.000000000000000,AGUADA,88780000,4207304, , , ,0.000000000000000, , ,-28.2264,-48.657,"CA 013/2017-ANTAQ: adaptaE o do TA 362/2007-ANTAQ, de 06/06/2007",Antaq, ,62831.853071795863798,314159265.358979284763336
238,2,238,237,Sul,Santa Catarina South,Praia da Vila,-28.241149000000000,-48.653877000000001,4,4,Right and left,Sand-bar,Experienced surfers,10000.000000000000000,238,137,204.000000000000000,0.000000000000000,BRSC014,Terminal Privativo de Imbituba,Terminal for private use,BR,BRS,BRSC014,Unknown,Privada,Terminal de uso privado,IMBITUBA EMPREENDIMENTOS E PARTICIPAOUES S.A,27276211000108,CA 013/2017-ANTAQ,0.000000000000000,RUA ITAGIBA, ,1500.000000000000000,AGUADA,88780000,4207304, , , ,0.000000000000000, , ,-28.2264,-48.657,"CA 013/2017-ANTAQ: adaptaE o do TA 362/2007-ANTAQ, de 06/06/2007",Antaq, ,62831.853071795863798,314159265.358979284763336
239,2,239,238,Sul,Santa Catarina South,Ribanceira,-28.191742000000001,-48.661344000000000,3,2,Right and left,Sand-bar,All surfers,10000.000000000000000,239,137,204.000000000000000,0.000000000000000,BRSC014,Terminal Privativo de Imbituba,Terminal for private use,BR,BRS,BRSC014,Unknown,Privada,Terminal de uso privado,IMBITUBA EMPREENDIMENTOS E PARTICIPAOUES S.A,27276211000108,CA 013/2017-ANTAQ,0.000000000000000,RUA ITAGIBA, ,1500.000000000000000,AGUADA,88780000,4207304, , , ,0.000000000000000, , ,-28.2264,-48.657,"CA 013/2017-ANTAQ: adaptaE o do TA 362/2007-ANTAQ, de 06/06/2007",Antaq, ,62831.853071795863798,314159265.358979284763336
240,2,240,239,Sul,Santa Catarina South,Ibiraquera,-28.153732000000002,-48.645895000000003,4,4,Right and left,Point-break,Experienced surfers,10000.000000000000000,240,137,204.000000000000000,0.000000000000000,BRSC014,Terminal Privativo de Imbituba,Terminal for private use,BR,BRS,BRSC014,Unknown,Privada,Terminal de uso privado,IMBITUBA EMPREENDIMENTOS E PARTICIPAOUES S.A,27276211000108,CA 013/2017-ANTAQ,0.000000000000000,RUA ITAGIBA, ,1500.000000000000000,AGUADA,88780000,4207304, , , ,0.000000000000000, , ,-28.2264,-48.657,"CA 013/2017-ANTAQ: adaptaE o do TA 362/2007-ANTAQ, de 06/06/2007",Antaq, ,62831.853071795863798,314159265.358979284763336
241,0,241,240,Sul,Santa Catarina South,Rosa Sul,-28.135401999999999,-48.642691999999997,3.5,4,Right and left,Beach-break,All surfers,10000.000000000000000,241,,,,,,,,,,,,,,,,,,,,,,,,,,,,,,,,,,62831.853071795863798,314159265.358979284763336
242,0,242,241,Sul,Santa Catarina South,Rosa Norte,-28.124375000000001,-48.637675999999999,3.5,2,Right and left,Beach-break,All surfers,10000.000000000000000,242,,,,,,,,,,,,,,,,,,,,,,,,,,,,,,,,,,62831.853071795863798,314159265.358979284763336
243,0,243,242,Sul,Santa Catarina South,Vermelha,-28.114457999999999,-48.635573000000001,3.5,2,Left,Beach-break,Experienced surfers,10000.000000000000000,243,,,,,,,,,,,,,,,,,,,,,,,,,,,,,,,,,,62831.853071795863798,314159265.358979284763336
244,0,244,243,Sul,Santa Catarina South,Ouvidor,-28.105449000000000,-48.635272999999998,2,2,Right and left,Beach-break,Beginners wave,10000.000000000000000,244,,,,,,,,,,,,,,,,,,,,,,,,,,,,,,,,,,62831.853071795863798,314159265.358979284763336
245,0,245,244,Sul,Santa Catarina South,Barrinha,-28.085384000000001,-48.630896000000000,3.5,3,Right and left,Beach-break,NA,10000.000000000000000,245,,,,,,,,,,,,,,,,,,,,,,,,,,,,,,,,,,62831.853071795863798,314159265.358979284763336
246,0,246,245,Sul,Santa Catarina South,Ferrugem,-28.077736000000002,-48.626604000000000,3.5,4,Right and left,Sand-bar,All surfers,10000.000000000000000,246,,,,,,,,,,,,,,,,,,,,,,,,,,,,,,,,,,62831.853071795863798,314159265.358979284763336
247,0,247,246,Sul,Santa Catarina South,Praia do Silveira,-28.039069000000001,-48.606862999999997,4,4,Right,Point-break,Pros or kamikaze only...,10000.000000000000000,247,,,,,,,,,,,,,,,,,,,,,,,,,,,,,,,,,,62831.853071795863798,314159265.358979284763336
248,0,248,247,Sul,Santa Catarina South,Garopaba Centro,-28.021577000000001,-48.619447999999998,3,2,Right and left,Beach-break,All surfers,10000.000000000000000,248,,,,,,,,,,,,,,,,,,,,,,,,,,,,,,,,,,62831.853071795863798,314159265.358979284763336
249,0,249,248,Sul,Santa Catarina South,Siriu,-27.976248999999999,-48.627999000000003,3.5,3,Right and left,Beach-break,All surfers,10000.000000000000000,249,,,,,,,,,,,,,,,,,,,,,,,,,,,,,,,,,,62831.853071795863798,314159265.358979284763336
250,0,250,249,Sul,Santa Catarina South,Gamboa,-27.958926999999999,-48.624662000000001,3.5,1,Right and left,Beach-break,All surfers,10000.000000000000000,250,,,,,,,,,,,,,,,,,,,,,,,,,,,,,,,,,,62831.853071795863798,314159265.358979284763336
251,0,251,250,Sul,Santa Catarina South,Guarda do embau,-27.905540999999999,-48.586779000000000,4,3,Left,Rivermouth,Experienced surfers,10000.000000000000000,251,,,,,,,,,,,,,,,,,,,,,,,,,,,,,,,,,,62831.853071795863798,314159265.358979284763336
252,0,252,251,Sul,Santa Catarina South,Costão da Pinheira,-27.881077000000001,-48.586542999999999,3.5,1,Right,Point-break,Experienced surfers,10000.000000000000000,252,,,,,,,,,,,,,,,,,,,,,,,,,,,,,,,,,,62831.853071795863798,314159265.358979284763336
253,0,253,252,Sul,Florianopolis,Naufragados,-27.834740000000000,-48.566747999999997,5,3,Right,Beach-break,Pros or kamikaze only...,10000.000000000000000,253,,,,,,,,,,,,,,,,,,,,,,,,,,,,,,,,,,62831.853071795863798,314159265.358979284763336
254,0,254,253,Sul,Santa Catarina South,Solidao - Caladinho,-27.793519000000000,-48.533456000000001,3.5,3,Right,Point-break,Experienced surfers,10000.000000000000000,254,,,,,,,,,,,,,,,,,,,,,,,,,,,,,,,,,,62831.853071795863798,314159265.358979284763336
255,0,255,254,Sul,Santa Catarina South,Praia dos Açores,-27.784758000000000,-48.525989000000003,3,3,Right and left,Beach-break,All surfers,10000.000000000000000,255,,,,,,,,,,,,,,,,,,,,,,,,,,,,,,,,,,62831.853071795863798,314159265.358979284763336
256,0,256,255,Sul,Florianopolis,Lagoinha do Leste,-27.773575999999998,-48.486528000000000,3.5,4,Right and left,Beach-break,All surfers,10000.000000000000000,256,,,,,,,,,,,,,,,,,,,,,,,,,,,,,,,,,,62831.853071795863798,314159265.358979284763336
257,0,257,256,Sul,Florianopolis,Matadeiro,-27.755140000000001,-48.498522999999999,3.5,4,Right and left,Beach-break,Experienced surfers,10000.000000000000000,257,,,,,,,,,,,,,,,,,,,,,,,,,,,,,,,,,,62831.853071795863798,314159265.358979284763336
258,0,258,257,Sul,Florianopolis,Armação,-27.741619000000000,-48.508114999999997,3,2,Right and left,Beach-break,All surfers,10000.000000000000000,258,,,,,,,,,,,,,,,,,,,,,,,,,,,,,,,,,,62831.853071795863798,314159265.358979284763336
259,0,259,258,Sul,Florianopolis,Caldeirao,-27.723690000000001,-48.504595999999999,3.5,3,Left,Beach-break,Experienced surfers,10000.000000000000000,259,,,,,,,,,,,,,,,,,,,,,,,,,,,,,,,,,,62831.853071795863798,314159265.358979284763336
260,0,260,259,Sul,Florianopolis,Morro das Pedras,-27.715522000000000,-48.502257000000000,3,4,Right and left,Sand-bar,Experienced surfers,10000.000000000000000,260,,,,,,,,,,,,,,,,,,,,,,,,,,,,,,,,,,62831.853071795863798,314159265.358979284763336
261,0,261,260,Sul,Florianopolis,Campeche Rights,-27.693864000000001,-48.482686999999999,4,2,Right,Sand-bar,Experienced surfers,10000.000000000000000,261,,,,,,,,,,,,,,,,,,,,,,,,,,,,,,,,,,62831.853071795863798,314159265.358979284763336
262,0,262,261,Sul,Florianopolis,Riozinho,-27.685523000000000,-48.479598000000003,5,3,Right and left,Beach-break,Experienced surfers,10000.000000000000000,262,,,,,,,,,,,,,,,,,,,,,,,,,,,,,,,,,,62831.853071795863798,314159265.358979284763336
263,0,263,262,Sul,Florianopolis,Joaquina,-27.629588999999999,-48.448768000000001,4,4,Left,Sand-bar,Experienced surfers,10000.000000000000000,263,,,,,,,,,,,,,,,,,,,,,,,,,,,,,,,,,,62831.853071795863798,314159265.358979284763336
264,0,264,263,Sul,Florianopolis,Praia Mole,-27.602475999999999,-48.432583999999999,3.5,3,Right and left,Sand-bar,All surfers,10000.000000000000000,264,,,,,,,,,,,,,,,,,,,,,,,,,,,,,,,,,,62831.853071795863798,314159265.358979284763336
265,0,265,264,Sul,Florianopolis,Galheta,-27.593482000000002,-48.425224000000000,3.5,4,Right and left,Beach-break,All surfers,10000.000000000000000,265,,,,,,,,,,,,,,,,,,,,,,,,,,,,,,,,,,62831.853071795863798,314159265.358979284763336
266,0,266,265,Sul,Florianopolis,Barra da Lagoa,-27.572818000000002,-48.424376000000002,3,3,Right and left,Beach-break,Beginners wave,10000.000000000000000,266,,,,,,,,,,,,,,,,,,,,,,,,,,,,,,,,,,62831.853071795863798,314159265.358979284763336
267,0,267,266,Sul,Florianopolis,Mocambique,-27.525323000000000,-48.410567999999998,3.5,4,Right and left,Beach-break,All surfers,10000.000000000000000,267,,,,,,,,,,,,,,,,,,,,,,,,,,,,,,,,,,62831.853071795863798,314159265.358979284763336
268,0,268,267,Sul,Santa Catarina South,Ponta das Aranhas,-27.482099999999999,-48.380892000000003,3.5,4,Right and left,Beach-break,All surfers,10000.000000000000000,268,,,,,,,,,,,,,,,,,,,,,,,,,,,,,,,,,,62831.853071795863798,314159265.358979284763336
269,0,269,268,Sul,Florianopolis,Santinho,-27.457940000000001,-48.372630999999998,3.5,4,Right and left,Beach-break,Experienced surfers,10000.000000000000000,269,,,,,,,,,,,,,,,,,,,,,,,,,,,,,,,,,,62831.853071795863798,314159265.358979284763336
270,0,270,269,Sul,Florianopolis,Canasvieiras,-27.430966000000002,-48.479661999999998,3.5,1,Right,Sand-bar,All surfers,10000.000000000000000,270,,,,,,,,,,,,,,,,,,,,,,,,,,,,,,,,,,62831.853071795863798,314159265.358979284763336
271,0,271,270,Sul,Florianopolis,Praia do Forte,-27.430747000000000,-48.519658999999997,3.5,1,Right,Point-break,All surfers,10000.000000000000000,271,,,,,,,,,,,,,,,,,,,,,,,,,,,,,,,,,,62831.853071795863798,314159265.358979284763336
272,0,272,271,Sul,Florianopolis,Ingleses,-27.429832999999999,-48.390569999999997,3,2,Right and left,Beach-break,All surfers,10000.000000000000000,272,,,,,,,,,,,,,,,,,,,,,,,,,,,,,,,,,,62831.853071795863798,314159265.358979284763336
273,0,273,272,Sul,Florianopolis,Praia Brava,-27.400804000000001,-48.413401000000000,3.5,3,Right and left,Beach-break,Experienced surfers,10000.000000000000000,273,,,,,,,,,,,,,,,,,,,,,,,,,,,,,,,,,,62831.853071795863798,314159265.358979284763336
274,0,274,273,Sul,Santa Catarina South,Praia Brava,-27.396440999999999,-48.414130000000000,3,4,Right and left,Sand-bar,All surfers,10000.000000000000000,274,,,,,,,,,,,,,,,,,,,,,,,,,,,,,,,,,,62831.853071795863798,314159265.358979284763336
275,0,275,274,Sul,Florianopolis,Lambe lambe,-27.387601000000000,-48.433185000000002,4,1,Right,Point-break,Experienced surfers,10000.000000000000000,275,,,,,,,,,,,,,,,,,,,,,,,,,,,,,,,,,,62831.853071795863798,314159265.358979284763336
276,0,276,275,Sul,Florianopolis,Ponta Do Rapa,-27.380837000000000,-48.420524999999998,4,1,Right,Reef-rocky,Pros or kamikaze only...,10000.000000000000000,276,,,,,,,,,,,,,,,,,,,,,,,,,,,,,,,,,,62831.853071795863798,314159265.358979284763336
277,0,277,276,Sul,Santa Catarina North,Tingua,-27.368165999999999,-48.532501000000003,3.5,1,Left,Beach-break,Experienced surfers,10000.000000000000000,277,,,,,,,,,,,,,,,,,,,,,,,,,,,,,,,,,,62831.853071795863798,314159265.358979284763336
278,0,278,277,Sul,Santa Catarina North,Palmas,-27.321984000000000,-48.535451999999999,3.5,2,Right and left,Beach-break,Experienced surfers,10000.000000000000000,278,,,,,,,,,,,,,,,,,,,,,,,,,,,,,,,,,,62831.853071795863798,314159265.358979284763336
279,2,279,278,Sul,Santa Catarina North,Mariscal,-27.166504000000000,-48.494833000000000,3.5,3,Right and left,Beach-break,All surfers,10000.000000000000000,279,589,300067.000000000000000,0.000000000000000,BRSC019,Porto Belo,Port Tourism Facility,BR,BRS,BRSC019,In operation,Pnblica,Instala,FUNDAlaO MUNICIPAL DE TURISMO DE PORTO BELO,13102858000109,CA 001/2013-SEP/PR,0.000000000000000,Rua Manoel Felipe da Silva, ,22.000000000000000,Centro,88210000,4213500, , , ,0.000000000000000, , ,-27.154,-48.544,"Atualizado por Gustavo Eccard em 08/01/2021.
Atualizado pela GA",Antaq, ,62831.853071795863798,314159265.358979284763336
280,2,280,279,Sul,Santa Catarina North,Quatro Ilhas,-27.156195000000000,-48.482923999999997,3.5,3,Right,Point-break,Experienced surfers,10000.000000000000000,280,589,300067.000000000000000,0.000000000000000,BRSC019,Porto Belo,Port Tourism Facility,BR,BRS,BRSC019,In operation,Pnblica,Instala,FUNDAlaO MUNICIPAL DE TURISMO DE PORTO BELO,13102858000109,CA 001/2013-SEP/PR,0.000000000000000,Rua Manoel Felipe da Silva, ,22.000000000000000,Centro,88210000,4213500, , , ,0.000000000000000, , ,-27.154,-48.544,"Atualizado por Gustavo Eccard em 08/01/2021.
Atualizado pela GA",Antaq, ,62831.853071795863798,314159265.358979284763336
281,2,281,280,Sul,Santa Catarina North,Bombinhas,-27.148367000000000,-48.489531999999997,2,2,Right and left,Beach-break,Beginners wave,10000.000000000000000,281,589,300067.000000000000000,0.000000000000000,BRSC019,Porto Belo,Port Tourism Facility,BR,BRS,BRSC019,In operation,Pnblica,Instala,FUNDAlaO MUNICIPAL DE TURISMO DE PORTO BELO,13102858000109,CA 001/2013-SEP/PR,0.000000000000000,Rua Manoel Felipe da Silva, ,22.000000000000000,Centro,88210000,4213500, , , ,0.000000000000000, , ,-27.154,-48.544,"Atualizado por Gustavo Eccard em 08/01/2021.
Atualizado pela GA",Antaq, ,62831.853071795863798,314159265.358979284763336
282,2,282,281,Sul,Santa Catarina North,Bombas,-27.140118000000001,-48.506784000000003,3,2,Right and left,Beach-break,All surfers,10000.000000000000000,282,589,300067.000000000000000,0.000000000000000,BRSC019,Porto Belo,Port Tourism Facility,BR,BRS,BRSC019,In operation,Pnblica,Instala,FUNDAlaO MUNICIPAL DE TURISMO DE PORTO BELO,13102858000109,CA 001/2013-SEP/PR,0.000000000000000,Rua Manoel Felipe da Silva, ,22.000000000000000,Centro,88210000,4213500, , , ,0.000000000000000, , ,-27.154,-48.544,"Atualizado por Gustavo Eccard em 08/01/2021.
Atualizado pela GA",Antaq, ,62831.853071795863798,314159265.358979284763336
283,2,283,282,Sul,Santa Catarina North,Meia Praia,-27.104825000000002,-48.609009000000000,3,3,Right and left,Sand-bar,All surfers,10000.000000000000000,283,589,300067.000000000000000,0.000000000000000,BRSC019,Porto Belo,Port Tourism Facility,BR,BRS,BRSC019,In operation,Pnblica,Instala,FUNDAlaO MUNICIPAL DE TURISMO DE PORTO BELO,13102858000109,CA 001/2013-SEP/PR,0.000000000000000,Rua Manoel Felipe da Silva, ,22.000000000000000,Centro,88210000,4213500, , , ,0.000000000000000, , ,-27.154,-48.544,"Atualizado por Gustavo Eccard em 08/01/2021.
Atualizado pela GA",Antaq, ,62831.853071795863798,314159265.358979284763336
284,1,284,283,Sul,Santa Catarina North,Itapema,-27.095541000000001,-48.609738000000000,3,3,Right and left,Beach-break,All surfers,10000.000000000000000,284,903,300518.000000000000000,0.000000000000000,BRSC029,Lunasub Nsutica Ltda,Registereded Support Facility,BR,BRS,BRSC029,In operation,Privada,Registro - Instala Fo de apoio,LUNASUB NAUTICA LTDA.,79012985000125,Res. 6480/2018,0.000000000000000,Enseada de Porto Belo,Sasda da Rua Benedito Guerreiro,0.000000000000000,Centro,88210000,4213500, , , ,0.000000000000000, , ,-27.157,-48.553,50300.002945/2018-97,Antaq, ,62831.853071795863798,314159265.358979284763336
285,2,285,284,Sul,Santa Catarina North,Ponta do Cabeço,-27.093436000000001,-48.601959999999998,4,2,Left,Reef-rocky,Experienced surfers,10000.000000000000000,285,589,300067.000000000000000,0.000000000000000,BRSC019,Porto Belo,Port Tourism Facility,BR,BRS,BRSC019,In operation,Pnblica,Instala,FUNDAlaO MUNICIPAL DE TURISMO DE PORTO BELO,13102858000109,CA 001/2013-SEP/PR,0.000000000000000,Rua Manoel Felipe da Silva, ,22.000000000000000,Centro,88210000,4213500, , , ,0.000000000000000, , ,-27.154,-48.544,"Atualizado por Gustavo Eccard em 08/01/2021.
Atualizado pela GA",Antaq, ,62831.853071795863798,314159265.358979284763336
286,2,286,285,Sul,Santa Catarina North,Mocó,-27.080182000000001,-48.588451999999997,4,2,Left,Reef-rocky,Experienced surfers,10000.000000000000000,286,901,300516.000000000000000,0.000000000000000,BRSC026,Atracadouro Barra Sul,Port Tourism Facility,BR,BRS,BRSC026,In operation,Pnblica,Instala,BONTUR - BONDINHOS AEREOS LTDA,83551382000179,CA 03/2019-MINFRA,0.000000000000000,Av. Atl0ntica,Barra Sul,6020.000000000000000,Centro,88330908,4202008, , , ,0.000000000000000, , ,-27.004,-48.603,"Atualizado pela GAP por Maria Tanizaki em 25/11/2020.
RES. 6545",Antaq, ,62831.853071795863798,314159265.358979284763336
287,3,287,286,Sul,Santa Catarina North,Estaleirinho,-27.049112000000001,-48.586779000000000,3,4,Right and left,Beach-break,Pros or kamikaze only...,10000.000000000000000,287,901,300516.000000000000000,0.000000000000000,BRSC026,Atracadouro Barra Sul,Port Tourism Facility,BR,BRS,BRSC026,In operation,Pnblica,Instala,BONTUR - BONDINHOS AEREOS LTDA,83551382000179,CA 03/2019-MINFRA,0.000000000000000,Av. Atl0ntica,Barra Sul,6020.000000000000000,Centro,88330908,4202008, , , ,0.000000000000000, , ,-27.004,-48.603,"Atualizado pela GAP por Maria Tanizaki em 25/11/2020.
RES. 6545",Antaq, ,62831.853071795863798,314159265.358979284763336
288,3,288,287,Sul,Santa Catarina North,Estaleiro (reef),-27.025050000000000,-48.574064999999997,3.5,2,Left,Reef-rocky,Experienced surfers,10000.000000000000000,288,901,300516.000000000000000,0.000000000000000,BRSC026,Atracadouro Barra Sul,Port Tourism Facility,BR,BRS,BRSC026,In operation,Pnblica,Instala,BONTUR - BONDINHOS AEREOS LTDA,83551382000179,CA 03/2019-MINFRA,0.000000000000000,Av. Atl0ntica,Barra Sul,6020.000000000000000,Centro,88330908,4202008, , , ,0.000000000000000, , ,-27.004,-48.603,"Atualizado pela GAP por Maria Tanizaki em 25/11/2020.
RES. 6545",Antaq, ,62831.853071795863798,314159265.358979284763336
289,3,289,288,Sul,Santa Catarina North,Balneário Camboriú,-26.987711999999998,-48.629950999999998,3,3,Right and left,Beach-break,All surfers,10000.000000000000000,289,901,300516.000000000000000,0.000000000000000,BRSC026,Atracadouro Barra Sul,Port Tourism Facility,BR,BRS,BRSC026,In operation,Pnblica,Instala,BONTUR - BONDINHOS AEREOS LTDA,83551382000179,CA 03/2019-MINFRA,0.000000000000000,Av. Atl0ntica,Barra Sul,6020.000000000000000,Centro,88330908,4202008, , , ,0.000000000000000, , ,-27.004,-48.603,"Atualizado pela GAP por Maria Tanizaki em 25/11/2020.
RES. 6545",Antaq, ,62831.853071795863798,314159265.358979284763336
290,5,290,289,Sul,Santa Catarina North,Parcel,-26.976469000000002,-48.623170999999999,4,1,Right and left,Reef-rocky,Pros or kamikaze only...,10000.000000000000000,290,901,300516.000000000000000,0.000000000000000,BRSC026,Atracadouro Barra Sul,Port Tourism Facility,BR,BRS,BRSC026,In operation,Pnblica,Instala,BONTUR - BONDINHOS AEREOS LTDA,83551382000179,CA 03/2019-MINFRA,0.000000000000000,Av. Atl0ntica,Barra Sul,6020.000000000000000,Centro,88330908,4202008, , , ,0.000000000000000, , ,-27.004,-48.603,"Atualizado pela GAP por Maria Tanizaki em 25/11/2020.
RES. 6545",Antaq, ,62831.853071795863798,314159265.358979284763336
291,11,291,290,Sul,Santa Catarina North,Praia dos Amores,-26.957191000000002,-48.629221999999999,3,2,Right and left,Beach-break,Experienced surfers,10000.000000000000000,291,49,113.000000000000000,0.000000000000000,BRSC001,Terminal Portuario Braskarne,Terminal for private use,BR,BRS,BRSC001,In operation,Privada,Terminal de uso privado,SEARA ALIMENTOS LTDA,02914460010709,CA 005/2014-ANTAQ,0.000000000000000,RUA BLUMENAU,ANDAR BLOCO A,658.000000000000000,CENTRO,88305100,4208203, , , ,0.000000000000000, ,Itaja0-A,-26.8964,-48.6711,Atualizado por Gustavo Eccard em 26/01/2021. Dados de movimenta-,Antaq, ,62831.853071795863798,314159265.358979284763336
292,14,292,291,Sul,Santa Catarina North,Praia Brava,-26.941659999999999,-48.628234999999997,3,3,Right and left,Beach-break,Experienced surfers,10000.000000000000000,292,49,113.000000000000000,0.000000000000000,BRSC001,Terminal Portuario Braskarne,Terminal for private use,BR,BRS,BRSC001,In operation,Privada,Terminal de uso privado,SEARA ALIMENTOS LTDA,02914460010709,CA 005/2014-ANTAQ,0.000000000000000,RUA BLUMENAU,ANDAR BLOCO A,658.000000000000000,CENTRO,88305100,4208203, , , ,0.000000000000000, ,Itaja0-A,-26.8964,-48.6711,Atualizado por Gustavo Eccard em 26/01/2021. Dados de movimenta-,Antaq, ,62831.853071795863798,314159265.358979284763336
293,15,293,292,Sul,Santa Catarina North,Morcego,-26.931052000000001,-48.625214999999997,3.5,NA,Left,Point-break,Pros or kamikaze only...,10000.000000000000000,293,49,113.000000000000000,0.000000000000000,BRSC001,Terminal Portuario Braskarne,Terminal for private use,BR,BRS,BRSC001,In operation,Privada,Terminal de uso privado,SEARA ALIMENTOS LTDA,02914460010709,CA 005/2014-ANTAQ,0.000000000000000,RUA BLUMENAU,ANDAR BLOCO A,658.000000000000000,CENTRO,88305100,4208203, , , ,0.000000000000000, ,Itaja0-A,-26.8964,-48.6711,Atualizado por Gustavo Eccard em 26/01/2021. Dados de movimenta-,Antaq, ,62831.853071795863798,314159265.358979284763336
294,15,294,293,Sul,Santa Catarina North,Atalaia,-26.915163000000000,-48.639361000000001,3.5,2,Left,breakwater/jetty,All surfers,10000.000000000000000,294,49,113.000000000000000,0.000000000000000,BRSC001,Terminal Portuario Braskarne,Terminal for private use,BR,BRS,BRSC001,In operation,Privada,Terminal de uso privado,SEARA ALIMENTOS LTDA,02914460010709,CA 005/2014-ANTAQ,0.000000000000000,RUA BLUMENAU,ANDAR BLOCO A,658.000000000000000,CENTRO,88305100,4208203, , , ,0.000000000000000, ,Itaja0-A,-26.8964,-48.6711,Atualizado por Gustavo Eccard em 26/01/2021. Dados de movimenta-,Antaq, ,62831.853071795863798,314159265.358979284763336
295,15,295,294,Sul,Santa Catarina North,Pracinha,-26.901883999999999,-48.641613999999997,3.5,4,Right and left,Beach-break,All surfers,10000.000000000000000,295,49,113.000000000000000,0.000000000000000,BRSC001,Terminal Portuario Braskarne,Terminal for private use,BR,BRS,BRSC001,In operation,Privada,Terminal de uso privado,SEARA ALIMENTOS LTDA,02914460010709,CA 005/2014-ANTAQ,0.000000000000000,RUA BLUMENAU,ANDAR BLOCO A,658.000000000000000,CENTRO,88305100,4208203, , , ,0.000000000000000, ,Itaja0-A,-26.8964,-48.6711,Atualizado por Gustavo Eccard em 26/01/2021. Dados de movimenta-,Antaq, ,62831.853071795863798,314159265.358979284763336
296,15,296,295,Sul,Santa Catarina North,Navegantes,-26.897577999999999,-48.638705999999999,3.5,3,Right and left,Beach-break,All surfers,10000.000000000000000,296,49,113.000000000000000,0.000000000000000,BRSC001,Terminal Portuario Braskarne,Terminal for private use,BR,BRS,BRSC001,In operation,Privada,Terminal de uso privado,SEARA ALIMENTOS LTDA,02914460010709,CA 005/2014-ANTAQ,0.000000000000000,RUA BLUMENAU,ANDAR BLOCO A,658.000000000000000,CENTRO,88305100,4208203, , , ,0.000000000000000, ,Itaja0-A,-26.8964,-48.6711,Atualizado por Gustavo Eccard em 26/01/2021. Dados de movimenta-,Antaq, ,62831.853071795863798,314159265.358979284763336
