OID_,id,region,zone,name,lat,long,quality,frequency,direction,type,experience,numerical_direction,numerical_frequency,numerical_experience,numerical_quality,pressure_index,biodiversity_subindex,surf_subindex,social_subindex,climate_index,response_index,added_indices,sci_w_climate,sci_wo_climate,difference
1,0,Sul,NA,Cardoso,-28.585450000000002,-48.798270000000002,NA,NA,NA,NA,NA,1.000000000000000,1.000000000000000,1.000000000000000,1.000000000000000,0.872303918700000,0.133880857400000,0.198581741600000,0.027479848800000,0.048814925800000,0.224507569100000,1.505568861400000,0.226002780000000,0.262027164300000,-0.036024384300000
2,1,Sul,NA,Ravena,-28.454780000000000,-48.751339999999999,NA,NA,NA,NA,NA,1.000000000000000,1.000000000000000,1.000000000000000,1.000000000000000,0.799880704900000,0.224136484100000,0.113475143100000,0.512867655400000,0.169313684300000,0.155538320800000,1.975211992600000,0.386817670600000,0.411707979400000,-0.024890308800000
3,2,Sul,NA,Praia da Vila Imbituba,-28.252472220000001,-48.661850000000001,NA,NA,NA,NA,NA,1.000000000000000,1.000000000000000,1.000000000000000,1.000000000000000,0.783717014500000,0.134741086700000,0.113475143100000,0.000000000000000,0.126237756300000,0.167655479900000,1.325826480500000,0.164455512700000,0.151778506500000,0.012677006200000
4,3,Sul,NA,Praia do Porto Imbituba,-28.220199000000001,-48.663214000000004,NA,NA,NA,NA,NA,1.000000000000000,1.000000000000000,1.000000000000000,1.000000000000000,0.785790739900000,0.141621756200000,0.170212714700000,0.000000000000000,0.159009910000000,0.146708554800000,1.403343675600000,0.190998899400000,0.170961041800000,0.020037857600000
5,4,Sul,NA,Ponta da Pinheira,-27.878140999999999,-48.576442000000000,NA,NA,NA,NA,NA,1.000000000000000,1.000000000000000,1.000000000000000,1.000000000000000,0.860224483000000,0.228583839500000,0.085106598500000,0.078541879600000,0.285283651000000,0.756015785800000,2.293756237400000,0.495893380400000,0.498553094000000,-0.002659713600000
6,5,Sul,NA,Mocambique,-27.518350000000002,-48.392183330000002,NA,NA,NA,NA,NA,1.000000000000000,1.000000000000000,1.000000000000000,1.000000000000000,0.771990472500000,0.234888095800000,0.113475143100000,0.364759348300000,0.162395168200000,0.160101743000000,1.807609970900000,0.329427497100000,0.342821753600000,-0.013394256500000
7,6,Sul,NA,Ponta das Canas,-27.394818999999998,-48.435709000000003,NA,NA,NA,NA,NA,1.000000000000000,1.000000000000000,1.000000000000000,1.000000000000000,0.718858043000000,0.213554385600000,0.170212714700000,0.221829018100000,0.117462860300000,0.059008502800000,1.500925524500000,0.224412811600000,0.230606645700000,-0.006193834100000
8,7,Sul,NA,Itagua&ccedil;u,-26.184728000000000,-48.526327999999999,NA,NA,NA,NA,NA,1.000000000000000,1.000000000000000,1.000000000000000,1.000000000000000,0.801333225500000,0.325956616700000,0.170212714700000,0.527073774200000,0.362081601800000,0.291683182000000,2.478341114900000,0.559098812200000,0.544762159100000,0.014336653100000
9,8,Sul,NA,Caioba,-25.838000000000001,-48.534999999999997,NA,NA,NA,NA,NA,1.000000000000000,1.000000000000000,1.000000000000000,1.000000000000000,0.829628482000000,0.568629435300000,0.141844170000000,0.105743693600000,0.388418329100000,0.229169245400000,2.263433355400000,0.485510239200000,0.441338835600000,0.044171403600000
10,9,Sudeste,NA,Ilha Comprida,-24.783999999999999,-47.594999999999999,NA,NA,NA,NA,NA,1.000000000000000,1.000000000000000,1.000000000000000,1.000000000000000,0.896025518100000,0.386033000700000,0.028369026900000,0.000000000000000,0.164112092400000,0.358861189500000,1.833400827600000,0.338258785200000,0.353142429300000,-0.014883644100000
11,10,Sudeste,NA,Iguape,-24.753211000000000,-47.542059000000002,NA,NA,NA,NA,NA,1.000000000000000,1.000000000000000,1.000000000000000,1.000000000000000,0.846340235100000,0.341133646700000,0.028369026900000,0.000000000000000,0.277441143800000,0.326350999100000,1.819635051600000,0.333545117300000,0.298655922100000,0.034889195200000
12,11,Sudeste,NA,Peruibe,-24.324427000000000,-46.978886000000003,NA,NA,NA,NA,NA,1.000000000000000,1.000000000000000,1.000000000000000,1.000000000000000,0.793928033000000,0.425857779600000,0.028369026900000,0.028636077100000,0.370989331100000,0.429791089600000,2.077571337300000,0.421867489800000,0.369130334700000,0.052737155100000
13,12,Sudeste,NA,Praia dos Pescadores,-24.194862000000001,-46.798881999999999,NA,NA,NA,NA,NA,1.000000000000000,1.000000000000000,1.000000000000000,1.000000000000000,0.769643497800000,0.488450499100000,0.028369026900000,0.503246160000000,0.369195934100000,0.143458975200000,2.302364093100000,0.498840876700000,0.466269520400000,0.032571356300000
14,13,Sudeste,NA,Itanhaem,-24.151427000000002,-46.707858000000002,NA,NA,NA,NA,NA,1.000000000000000,1.000000000000000,1.000000000000000,1.000000000000000,0.788001155100000,0.467948813700000,0.000000000000000,0.482833908200000,0.306665226100000,0.156988836900000,2.202437940000000,0.464624229400000,0.450237812200000,0.014386417200000
15,14,Sudeste,NA,Praia Grande,-24.028497000000002,-46.438310000000001,NA,NA,NA,NA,NA,1.000000000000000,1.000000000000000,1.000000000000000,1.000000000000000,0.684751731000000,0.467116951900000,0.085106598500000,0.037601125700000,0.510970538400000,0.163218042600000,1.948764988100000,0.377761704800000,0.253899090300000,0.123862614500000
16,15,Sudeste,NA,Praia do Forte dos Andradas,-24.028369000000001,-46.288159000000000,NA,NA,NA,NA,NA,1.000000000000000,1.000000000000000,1.000000000000000,1.000000000000000,0.587903690500000,0.409753597100000,0.340425429300000,0.150655760000000,0.293832051300000,0.245386054300000,2.027956582500000,0.404878438300000,0.380938022000000,0.023940416300000
17,16,Sudeste,NA,Praia do Forte dos Andradas,-24.025659999999998,-46.285460000000000,NA,NA,NA,NA,NA,1.000000000000000,1.000000000000000,1.000000000000000,1.000000000000000,0.581735036700000,0.407477741600000,0.340425429300000,0.150655760000000,0.294738568100000,0.245785256100000,2.020817791800000,0.402433978300000,0.377488938300000,0.024945040000000
18,17,Sudeste,NA,Praia da Ponta Grossa,-24.024816000000001,-46.314497000000003,NA,NA,NA,NA,NA,1.000000000000000,1.000000000000000,1.000000000000000,1.000000000000000,0.570774474200000,0.430332266400000,0.397163000900000,0.110943775800000,0.249227941300000,0.245322276300000,2.003763734900000,0.396594339400000,0.389688483600000,0.006905855800000
19,18,Sudeste,NA,Itaipu,-24.019545000000001,-46.386795999999997,NA,NA,NA,NA,NA,1.000000000000000,1.000000000000000,1.000000000000000,1.000000000000000,0.671643910100000,0.483355522100000,0.226950286200000,0.110943775800000,0.477325738400000,0.124243469900000,2.094462702500000,0.427651419900000,0.330784573300000,0.096866846600000
20,19,Sudeste,NA,Guaiuba,-24.017081999999998,-46.295202000000003,NA,NA,NA,NA,NA,1.000000000000000,1.000000000000000,1.000000000000000,1.000000000000000,0.553883170500000,0.414035441300000,0.368794456200000,0.110943775800000,0.293429838500000,0.233925999000000,1.975012681300000,0.386749422600000,0.358413005600000,0.028336417000000
21,20,Sudeste,NA,Santos,-24.015000000000001,-46.353999999999999,NA,NA,NA,NA,NA,1.000000000000000,1.000000000000000,1.000000000000000,1.000000000000000,0.531389062000000,0.442480343000000,0.368794456200000,0.119351442300000,0.314079068600000,0.232678017700000,2.008772389800000,0.398309399700000,0.364033566100000,0.034275833600000
22,21,Sudeste,NA,Morro do Maluf,-23.997560000000000,-46.251593999999997,NA,NA,NA,NA,NA,1.000000000000000,1.000000000000000,1.000000000000000,1.000000000000000,0.591429524200000,0.458811066700000,0.312056884700000,0.142248093500000,0.519115882600000,0.253426321300000,2.277087773000000,0.490185775900000,0.391161564100000,0.099024211800000
23,22,Sudeste,NA,Praia da Enseada,-23.990651000000000,-46.209406000000001,NA,NA,NA,NA,NA,1.000000000000000,1.000000000000000,1.000000000000000,1.000000000000000,0.654637987100000,0.443139167600000,0.226950286200000,0.117025094100000,0.521961053600000,0.297444655900000,2.261158244500000,0.484731197300000,0.383112709400000,0.101618487900000
24,23,Sudeste,NA,Embare,-23.980865999999999,-46.317684000000000,NA,NA,NA,NA,NA,1.000000000000000,1.000000000000000,1.000000000000000,1.000000000000000,0.504260689000000,0.508260181500000,0.397163000900000,0.109444043200000,0.534537883100000,0.196044770700000,2.249710568400000,0.480811291600000,0.372813223400000,0.107998068200000
25,24,Sudeste,NA,Gonzaga,-23.974027000000000,-46.330098000000000,NA,NA,NA,NA,NA,1.000000000000000,1.000000000000000,1.000000000000000,1.000000000000000,0.468786639800000,0.520067557800000,0.397163000900000,0.109444043200000,0.564652960700000,0.186594815400000,2.246709017800000,0.479783502600000,0.358615876100000,0.121167626500000
26,25,Sudeste,NA,Pereque,-23.927582999999998,-46.178826000000001,NA,NA,NA,NA,NA,1.000000000000000,1.000000000000000,1.000000000000000,1.000000000000000,0.828504327400000,0.618627771100000,0.198581741600000,0.078016729400000,0.794793800900000,0.211879849600000,2.730404220000000,0.645410094100000,0.467316535600000,0.178093558500000
27,26,Sudeste,NA,Praia Preta,-23.874700000000001,-46.138959000000000,NA,NA,NA,NA,NA,1.000000000000000,1.000000000000000,1.000000000000000,1.000000000000000,0.860086371600000,0.562170175800000,0.198581741600000,0.078016729400000,0.645672065600000,0.314096516000000,2.658623600000000,0.620831021600000,0.500473252700000,0.120357768900000
28,27,Sudeste,NA,Praia da Bertioga,-23.846986000000001,-46.126967999999998,NA,NA,NA,NA,NA,1.000000000000000,1.000000000000000,1.000000000000000,1.000000000000000,0.854882554200000,0.610338597100000,0.198581741600000,0.078016729400000,0.574750514500000,0.354242631400000,2.670812768200000,0.625004828600000,0.536103442300000,0.088901386300000
29,28,Sudeste,NA,Maresias,-23.793693260000001,-45.559764340000001,NA,NA,NA,NA,NA,1.000000000000000,1.000000000000000,1.000000000000000,1.000000000000000,0.909607097200000,0.507521068200000,0.170212714700000,0.110198962200000,0.220652159700000,0.566277705300000,2.484469707300000,0.561197360800000,0.608021396900000,-0.046824036100000
30,29,Sudeste,NA,Canto de Moreira,-23.793056000000000,-45.587394000000003,NA,NA,NA,NA,NA,1.000000000000000,1.000000000000000,1.000000000000000,1.000000000000000,0.899010155900000,0.461805652300000,0.226950286200000,0.110198962200000,0.228537866800000,0.497545957700000,2.424048881100000,0.540508101400000,0.578737873000000,-0.038229771600000
31,30,Sudeste,NA,Itaguere,-23.786995000000001,-45.971372000000002,NA,NA,NA,NA,NA,1.000000000000000,1.000000000000000,1.000000000000000,1.000000000000000,0.875931695400000,0.536381745900000,0.085106598500000,0.000000000000000,0.440775192700000,0.350534452200000,2.288729684700000,0.494172191600000,0.429737781300000,0.064434410300000
32,31,Sudeste,NA,Boicucanga,-23.784431000000001,-45.631354999999999,NA,NA,NA,NA,NA,1.000000000000000,1.000000000000000,1.000000000000000,1.000000000000000,0.891927623700000,0.469626135900000,0.312056884700000,0.110198962200000,0.311459179100000,0.449455906300000,2.544724691900000,0.581829832800000,0.594923510100000,-0.013093677300000
33,32,Sudeste,NA,Praia de Baleia,-23.775839000000001,-45.683985999999997,NA,NA,NA,NA,NA,1.000000000000000,1.000000000000000,1.000000000000000,1.000000000000000,0.890290626800000,0.511008771400000,0.312056884700000,0.110198962200000,0.309125293200000,0.412917914200000,2.545598452500000,0.582129025300000,0.596298652200000,-0.014169626900000
34,33,Sudeste,NA,Barra do Sahy,-23.774384999999999,-45.697569999999999,NA,NA,NA,NA,NA,1.000000000000000,1.000000000000000,1.000000000000000,1.000000000000000,0.891517548900000,0.508844798200000,0.312056884700000,0.110198962200000,0.311293118200000,0.388545677400000,2.522456989600000,0.574204940900000,0.585448370400000,-0.011243429500000
35,34,Sudeste,NA,Praia Preta,-23.773009999999999,-45.715814999999999,NA,NA,NA,NA,NA,1.000000000000000,1.000000000000000,1.000000000000000,1.000000000000000,0.896784530500000,0.501192675100000,0.312056884700000,0.110198962200000,0.339195491100000,0.374158489000000,2.533587032600000,0.578016082900000,0.578257946600000,-0.000241863700000
36,35,Sudeste,NA,Bananas Point,-23.771605000000001,-45.706209999999999,NA,NA,NA,NA,NA,1.000000000000000,1.000000000000000,1.000000000000000,1.000000000000000,0.895524217500000,0.517166731600000,0.312056884700000,0.110198962200000,0.321623217500000,0.388116350700000,2.544686364200000,0.581816708700000,0.590549679100000,-0.008732970400000
37,36,Sudeste,NA,Praia do Juquei,-23.768115000000002,-45.745452999999998,NA,NA,NA,NA,NA,1.000000000000000,1.000000000000000,1.000000000000000,1.000000000000000,0.903228426500000,0.497819721400000,0.283687857800000,0.073465974800000,0.355108506900000,0.377570458300000,2.490880945700000,0.563392692800000,0.553127497000000,0.010265195800000
38,37,Sudeste,NA,Barra do Una,-23.763818000000001,-45.762779999999999,NA,NA,NA,NA,NA,1.000000000000000,1.000000000000000,1.000000000000000,1.000000000000000,0.908292189900000,0.507063247400000,0.255319313100000,0.057442927300000,0.375226216700000,0.373520601900000,2.476864496300000,0.558593189500000,0.538493926500000,0.020099263000000
39,38,Sudeste,NA,Praia da Boracéia,-23.758372999999999,-45.828777000000002,NA,NA,NA,NA,NA,1.000000000000000,1.000000000000000,1.000000000000000,1.000000000000000,0.904285045600000,0.535585302200000,0.113475143100000,0.044252801600000,0.425849369600000,0.329649776000000,2.353097438100000,0.516212955200000,0.463731533100000,0.052481422100000
40,39,Sudeste,NA,Praia Dura,-23.496058000000001,-45.171014000000000,NA,NA,NA,NA,NA,1.000000000000000,1.000000000000000,1.000000000000000,1.000000000000000,0.904426047300000,0.667641526600000,0.113475143100000,0.082996421100000,0.318679573000000,0.444938638100000,2.532157349200000,0.577526531600000,0.586440358800000,-0.008913827200000
41,40,Sudeste,NA,Pereque-Acu,-23.424565000000001,-45.062697000000000,NA,NA,NA,NA,NA,1.000000000000000,1.000000000000000,1.000000000000000,1.000000000000000,0.854859844200000,0.696762023900000,0.255319313100000,0.552466222500000,0.351697595400000,0.422804800300000,3.133909799400000,0.783578208000000,0.830261079900000,-0.046682871900000
42,41,Sudeste,NA,Itamambuca,-23.406683000000001,-45.008741000000001,NA,NA,NA,NA,NA,1.000000000000000,1.000000000000000,1.000000000000000,1.000000000000000,0.890674201800000,0.571332519800000,0.198581741600000,0.552466222500000,0.360241329900000,0.433689382500000,3.006985398100000,0.740116838400000,0.772184872600000,-0.032068034200000
43,42,Sudeste,NA,Praia da Fazenda,-23.361352000000000,-44.859766000000000,NA,NA,NA,NA,NA,1.000000000000000,1.000000000000000,1.000000000000000,1.000000000000000,0.978866477900000,0.568391488900000,0.028369026900000,0.178176094600000,0.343418025100000,0.565305528200000,2.662526641600000,0.622167498600000,0.631725093400000,-0.009557594800000
44,43,Sudeste,NA,Aventureiro,-23.184405999999999,-44.315804000000000,NA,NA,NA,NA,NA,1.000000000000000,1.000000000000000,1.000000000000000,1.000000000000000,0.949728555400000,0.273506054000000,0.085106598500000,0.122556978900000,0.176512837500000,0.433610111500000,2.041021135800000,0.409351994000000,0.436834522400000,-0.027482528400000
45,44,Sudeste,NA,Praia do Leste,-23.179746000000002,-44.274093999999998,NA,NA,NA,NA,NA,1.000000000000000,1.000000000000000,1.000000000000000,1.000000000000000,0.951696476100000,0.344541116000000,0.113475143100000,0.122556978900000,0.191489876500000,0.612538787000000,2.336298377600000,0.510460632000000,0.557001324700000,-0.046540692700000
46,45,Sudeste,NA,Praia do Sul,-23.178656000000000,-44.296756999999999,NA,NA,NA,NA,NA,1.000000000000000,1.000000000000000,1.000000000000000,1.000000000000000,0.950762552700000,0.311294079300000,0.085106598500000,0.122556978900000,0.176477450200000,0.528700387100000,2.174898046700000,0.455194037300000,0.494243730500000,-0.039049693200000
47,46,Sudeste,NA,Praia do Meio,-23.066913000000000,-43.549809000000003,NA,NA,NA,NA,NA,1.000000000000000,1.000000000000000,1.000000000000000,1.000000000000000,0.560585622900000,0.581538237500000,0.312056884700000,0.149455073700000,0.668763607700000,0.370513070800000,2.642912497300000,0.615451236200000,0.483838267400000,0.131612968800000
48,47,Sudeste,NA,Restinga a Marambaia,-23.061833000000000,-43.591673000000000,NA,NA,NA,NA,NA,1.000000000000000,1.000000000000000,1.000000000000000,1.000000000000000,0.684224415600000,0.559267534000000,0.170212714700000,0.094873871400000,0.749805394100000,0.383715841200000,2.642099771000000,0.615172943000000,0.448746623000000,0.166426320000000
49,48,Sudeste,NA,Grumari,-23.050469000000000,-43.533907999999997,NA,NA,NA,NA,NA,1.000000000000000,1.000000000000000,1.000000000000000,1.000000000000000,0.526197346600000,0.613276616300000,0.397163000900000,0.149455073700000,0.657870852200000,0.389398501700000,2.733361391400000,0.646422686800000,0.527284193800000,0.119138493000000
50,49,Sudeste,NA,Reserva,-23.022717000000000,-43.440916000000001,NA,NA,NA,NA,NA,1.000000000000000,1.000000000000000,1.000000000000000,1.000000000000000,0.406273119200000,0.590807679100000,0.368794456200000,0.670730395600000,0.334607273000000,0.405210565700000,2.776423488800000,0.661167981700000,0.684330763000000,-0.023162781300000
51,50,Sudeste,NA,Barra da Tijuca,-23.020340120000000,-43.372478489999999,NA,NA,NA,NA,NA,1.000000000000000,1.000000000000000,1.000000000000000,1.000000000000000,0.332024430100000,0.562109835000000,0.283687857800000,0.670730395600000,0.384462170100000,0.169804151400000,2.402818840000000,0.533238524800000,0.502790474900000,0.030448049900000
52,51,Sudeste,NA,Barra da Tijuca,-23.014886109999999,-43.372222219999998,NA,NA,NA,NA,NA,1.000000000000000,1.000000000000000,1.000000000000000,1.000000000000000,0.319886409900000,0.572687918700000,0.283687857800000,0.670730395600000,0.376213390700000,0.177314030500000,2.400520003200000,0.532451358600000,0.505341260000000,0.027110098600000
53,52,Sudeste,NA,Sao Conrado,-23.000617999999999,-43.264187000000000,NA,NA,NA,NA,NA,1.000000000000000,1.000000000000000,1.000000000000000,1.000000000000000,0.377900255700000,0.559839513100000,0.453900572400000,0.208308739100000,0.156349679700000,0.135351137300000,1.891649897300000,0.358204393200000,0.381442047600000,-0.023237654400000
54,53,Sudeste,NA,Bambui,-22.975255000000001,-42.916570000000000,NA,NA,NA,NA,NA,1.000000000000000,1.000000000000000,1.000000000000000,1.000000000000000,0.717076145500000,0.558557331900000,0.000000000000000,0.070369461500000,0.067128076600000,0.074338999800000,1.487470015300000,0.219805385100000,0.246417067700000,-0.026611682600000
55,54,Sudeste,NA,Itaipuacu,-22.971149000000000,-43.011260000000000,NA,NA,NA,NA,NA,1.000000000000000,1.000000000000000,1.000000000000000,1.000000000000000,0.689928722500000,0.485350610900000,0.226950286200000,0.070369461500000,0.162676144900000,0.309549680100000,1.944824906100000,0.376412544600000,0.401526370200000,-0.025113825600000
56,55,Sudeste,NA,Barra de Marica,-22.962100000000000,-42.809486999999997,NA,NA,NA,NA,NA,1.000000000000000,1.000000000000000,1.000000000000000,1.000000000000000,0.741856436100000,0.541242989600000,0.000000000000000,0.506402847300000,0.379320418000000,0.049579956000000,2.218402647000000,0.470090853800000,0.425934175500000,0.044156678300000
57,56,Sudeste,NA,Camboinhas,-22.961998000000001,-43.059922999999998,NA,NA,NA,NA,NA,1.000000000000000,1.000000000000000,1.000000000000000,1.000000000000000,0.606803601800000,0.449197356500000,0.283687857800000,0.105913892100000,0.149220961900000,0.291953738500000,1.886777408600000,0.356535958800000,0.382409310000000,-0.025873351200000
58,57,Sudeste,NA,Pirantininga,-22.955044999999998,-43.088653999999998,NA,NA,NA,NA,NA,1.000000000000000,1.000000000000000,1.000000000000000,1.000000000000000,0.516200824600000,0.473456373000000,0.397163000900000,0.122729225100000,0.149491867600000,0.263488698600000,1.922529989800000,0.368778334000000,0.397620570800000,-0.028842236800000
59,58,Sudeste,NA,Jacone,-22.946556000000001,-42.679789000000000,NA,NA,NA,NA,NA,1.000000000000000,1.000000000000000,1.000000000000000,1.000000000000000,0.808208124400000,0.500827071100000,0.028369026900000,0.069373452500000,0.241434564600000,0.194154179600000,1.842366419100000,0.341328777100000,0.323837321100000,0.017491456000000
60,59,Sudeste,NA,Figueira,-22.944991999999999,-42.188828000000001,NA,NA,NA,NA,NA,1.000000000000000,1.000000000000000,1.000000000000000,1.000000000000000,0.811450360900000,0.205873713400000,0.028369026900000,0.054271199200000,0.296338375500000,0.233929566700000,1.630232242600000,0.268689932600000,0.209356130100000,0.059333802500000
61,60,Sudeste,NA,Praia do Fora,-22.944794000000002,-43.155304000000001,NA,NA,NA,NA,NA,1.000000000000000,1.000000000000000,1.000000000000000,1.000000000000000,0.108883790800000,0.507220056800000,0.482269599300000,0.801085894900000,0.123337206500000,0.198634289800000,2.221430838100000,0.471127765000000,0.536974309300000,-0.065846544300000
62,61,Sudeste,NA,Laje do Pao de Acucar,-22.938409000000000,-43.151797000000002,NA,NA,NA,NA,NA,1.000000000000000,1.000000000000000,1.000000000000000,1.000000000000000,0.056777298800000,0.502202987600000,0.453900572400000,0.801085894900000,0.128178712700000,0.195174684500000,2.137320150900000,0.442326639100000,0.498839835800000,-0.056513196700000
63,62,Sudeste,NA,Canal,-22.937418999999998,-42.487813000000003,NA,NA,NA,NA,NA,1.000000000000000,1.000000000000000,1.000000000000000,1.000000000000000,0.759922845700000,0.397241569400000,0.141844170000000,0.557187370700000,0.192335691500000,0.108237158000000,2.156768805300000,0.448986234500000,0.479673041300000,-0.030686806800000
64,63,Sudeste,NA,Praia Seca,-22.936126000000002,-42.361598000000001,NA,NA,NA,NA,NA,1.000000000000000,1.000000000000000,1.000000000000000,1.000000000000000,0.748321748000000,0.354472256700000,0.000000000000000,0.065757201300000,0.362616346200000,0.185820768200000,1.716988320400000,0.298396891400000,0.218135248400000,0.080261643000000
65,64,Sudeste,NA,Caravelas,-22.814850000000000,-41.953901999999999,NA,NA,NA,NA,NA,1.000000000000000,1.000000000000000,1.000000000000000,1.000000000000000,0.742481682900000,0.541788940200000,0.113475143100000,0.110614752200000,0.189211494600000,0.306993679900000,2.004565692900000,0.396868945300000,0.415761790500000,-0.018892845200000
66,65,Sudeste,NA,Tucuns,-22.799863999999999,-41.929282000000001,NA,NA,NA,NA,NA,1.000000000000000,1.000000000000000,1.000000000000000,1.000000000000000,0.754953202900000,0.539388876700000,0.141844170000000,0.165051240300000,0.209598887700000,0.293341301800000,2.104177679400000,0.430978015900000,0.449725968800000,-0.018747952900000
67,66,Sudeste,NA,Praia Brava,-22.754252000000001,-41.872608999999997,NA,NA,NA,NA,NA,1.000000000000000,1.000000000000000,1.000000000000000,1.000000000000000,0.781228684000000,0.453702644900000,0.056737571600000,0.195356600200000,0.208416379400000,0.071510105400000,1.766951985500000,0.315505416600000,0.305661730900000,0.009843685700000
68,67,Sudeste,NA,Marataizes,-21.044882999999999,-40.827455999999998,NA,NA,NA,NA,NA,1.000000000000000,1.000000000000000,1.000000000000000,1.000000000000000,0.769545364700000,0.400378084500000,0.000000000000000,0.013415268500000,0.389870827200000,0.013884850300000,1.587094395200000,0.253918699400000,0.150764546300000,0.103154153100000
69,68,Sudeste,NA,Ponta do Ubu,-20.793246000000000,-40.579551000000002,NA,NA,NA,NA,NA,1.000000000000000,1.000000000000000,1.000000000000000,1.000000000000000,0.798125991500000,0.683043774800000,0.028369026900000,0.050543600500000,0.360592889700000,0.049995979300000,1.970671262700000,0.385262836900000,0.327758502300000,0.057504334600000
70,69,Sudeste,NA,Ponta dos Castelhanos,-20.755085000000001,-40.560755000000000,NA,NA,NA,NA,NA,1.000000000000000,1.000000000000000,1.000000000000000,1.000000000000000,0.803394485800000,0.707215274100000,0.056737571600000,0.050543600500000,0.392133530000000,0.026117559600000,2.036142021600000,0.407681290900000,0.342304599000000,0.065376691900000
71,70,Sudeste,NA,Maimba,-20.707021999999998,-40.514367999999997,NA,NA,NA,NA,NA,1.000000000000000,1.000000000000000,1.000000000000000,1.000000000000000,0.749822758700000,0.767638036500000,0.056737571600000,0.689526253100000,0.371148499400000,0.015476501400000,2.650349620700000,0.617997851100000,0.614616450500000,0.003381400600000
72,71,Sudeste,NA,Praia do Morro,-20.659787999999999,-40.493842999999998,NA,NA,NA,NA,NA,1.000000000000000,1.000000000000000,1.000000000000000,1.000000000000000,0.729148413200000,0.841156679600000,0.056737571600000,0.723950848600000,0.405286767900000,0.049248702200000,2.805528983100000,0.671134265900000,0.666507676600000,0.004626589300000
73,72,Sudeste,NA,Ponta de Bororo,-20.614518000000000,-40.415382000000001,NA,NA,NA,NA,NA,1.000000000000000,1.000000000000000,1.000000000000000,1.000000000000000,0.778707889600000,0.597279017800000,0.113475143100000,0.564205185400000,0.262004072200000,0.155353025700000,2.471024333800000,0.556593404900000,0.584529388800000,-0.027935983900000
74,73,Sudeste,NA,Tropical,-20.559543999999999,-40.391810000000000,NA,NA,NA,NA,NA,1.000000000000000,1.000000000000000,1.000000000000000,1.000000000000000,0.798434273800000,0.574499535300000,0.141844170000000,0.069742403300000,0.213457236700000,0.179412859000000,1.977390478100000,0.387563626200000,0.393717240000000,-0.006153613800000
75,74,Sudeste,NA,Dunas de Ule,-20.542100000000001,-40.379860999999998,NA,NA,NA,NA,NA,1.000000000000000,1.000000000000000,1.000000000000000,1.000000000000000,0.804435149300000,0.581536816300000,0.113475143100000,0.069742403300000,0.187414113600000,0.165209149200000,1.921812774800000,0.368532745800000,0.381055543600000,-0.012522797800000
76,75,Sudeste,NA,Guarapari - Ule,-20.541319000000001,-40.378385999999999,NA,NA,NA,NA,NA,1.000000000000000,1.000000000000000,1.000000000000000,1.000000000000000,0.804141707300000,0.579785509100000,0.113475143100000,0.069742403300000,0.187414113600000,0.163886180700000,1.918445057100000,0.367379574100000,0.379611777800000,-0.012232203700000
77,76,Sudeste,NA,Ponta da Fruta,-20.516836999999999,-40.358133000000002,NA,NA,NA,NA,NA,1.000000000000000,1.000000000000000,1.000000000000000,1.000000000000000,0.775670033800000,0.615311206900000,0.141844170000000,0.069742403300000,0.183270642700000,0.117931595500000,1.903770052200000,0.362354568600000,0.375096830000000,-0.012742261400000
78,77,Sudeste,NA,Coral Dois,-20.448948000000001,-40.330300000000001,NA,NA,NA,NA,NA,1.000000000000000,1.000000000000000,1.000000000000000,1.000000000000000,0.707985758200000,0.723767420000000,0.255319313100000,0.058042901800000,0.187823406500000,0.041324828400000,1.974263628000000,0.386492932300000,0.403366151400000,-0.016873219100000
79,78,Sudeste,NA,Ponta da Belina,-20.445827000000001,-40.329245000000000,NA,NA,NA,NA,NA,1.000000000000000,1.000000000000000,1.000000000000000,1.000000000000000,0.698122466400000,0.725523112400000,0.255319313100000,0.046265248300000,0.178308022200000,0.039729361200000,1.943267523600000,0.375879266700000,0.394157205400000,-0.018277938700000
80,79,Sudeste,NA,Coral Um,-20.437659000000000,-40.326006999999997,NA,NA,NA,NA,NA,1.000000000000000,1.000000000000000,1.000000000000000,1.000000000000000,0.677332379600000,0.728006070700000,0.226950286200000,0.054672914700000,0.175611449400000,0.036118031300000,1.898691131900000,0.360615448100000,0.376203012400000,-0.015587564300000
81,80,Sudeste,NA,"Barrao, Brazil",-20.427381000000000,-40.320982000000001,NA,NA,NA,NA,NA,1.000000000000000,1.000000000000000,1.000000000000000,1.000000000000000,0.642050164500000,0.733923744600000,0.255319313100000,0.054672914700000,0.159656429200000,0.030190128900000,1.875812695000000,0.352781428800000,0.373234891700000,-0.020453462900000
82,81,Sudeste,NA,Barrinha,-20.422540999999999,-40.321933999999999,NA,NA,NA,NA,NA,1.000000000000000,1.000000000000000,1.000000000000000,1.000000000000000,0.623371426000000,0.741449163900000,0.255319313100000,0.054672914700000,0.153905604600000,0.028604341900000,1.857322764200000,0.346450118900000,0.367773541200000,-0.021323422300000
83,82,Sudeste,NA,Praia de Camburi,-20.279677000000000,-40.248994000000003,NA,NA,NA,NA,NA,1.000000000000000,1.000000000000000,1.000000000000000,1.000000000000000,0.309002465300000,0.543873643300000,0.170212714700000,0.616351261200000,0.421880599300000,0.202917192800000,2.264237876600000,0.485785722800000,0.427338213300000,0.058447509500000
84,83,Sudeste,NA,Velzyland,-20.244838999999999,-40.216205000000002,NA,NA,NA,NA,NA,1.000000000000000,1.000000000000000,1.000000000000000,1.000000000000000,0.517441205800000,0.427382025300000,0.170212714700000,0.599990995900000,0.241237697000000,0.038664027700000,1.994928666400000,0.393569041000000,0.389326301100000,0.004242739900000
85,84,Sudeste,NA,Ponta da Cacao,-20.219573000000000,-40.196268000000003,NA,NA,NA,NA,NA,1.000000000000000,1.000000000000000,1.000000000000000,1.000000000000000,0.540156856100000,0.394701062700000,0.170212714700000,0.129161672800000,0.280825183700000,0.021136191300000,1.536193681300000,0.236489310600000,0.175691714300000,0.060797596300000
86,85,Sudeste,NA,"Manguinhos, Brazil",-20.199344000000000,-40.190266999999999,NA,NA,NA,NA,NA,1.000000000000000,1.000000000000000,1.000000000000000,1.000000000000000,0.611072900500000,0.389479113900000,0.170212714700000,0.095531006900000,0.346475839300000,0.019176540400000,1.631948115700000,0.269277480700000,0.188597430400000,0.080680050300000
87,86,Sudeste,NA,Praia da Baleia,-20.171105000000001,-40.184866000000000,NA,NA,NA,NA,NA,1.000000000000000,1.000000000000000,1.000000000000000,1.000000000000000,0.655181093000000,0.394039667200000,0.226950286200000,0.095531006900000,0.309284245400000,0.031044316000000,1.712030614700000,0.296699277100000,0.238873714900000,0.057825562200000
88,87,Sudeste,NA,Jacaraipe - Solemar,-20.109774999999999,-40.171481000000000,NA,NA,NA,NA,NA,1.000000000000000,1.000000000000000,1.000000000000000,1.000000000000000,0.750828772400000,0.390569379800000,0.170212714700000,0.056212808600000,0.263890078300000,0.096426514900000,1.728140268700000,0.302215534200000,0.265240865000000,0.036974669200000
89,88,Sudeste,NA,Xa,-20.107229000000000,-40.171174999999998,NA,NA,NA,NA,NA,1.000000000000000,1.000000000000000,1.000000000000000,1.000000000000000,0.753759727800000,0.396095187100000,0.170212714700000,0.056212808600000,0.264392929900000,0.098648415400000,1.739321783500000,0.306044301100000,0.269818888100000,0.036225413000000
90,89,Sudeste,NA,Nova Almeida,-20.058461999999999,-40.183000999999997,NA,NA,NA,NA,NA,1.000000000000000,1.000000000000000,1.000000000000000,1.000000000000000,0.816978022300000,0.631840090200000,0.113475143100000,0.044887824800000,0.287139126300000,0.129063544200000,2.023383750900000,0.403312612300000,0.381846922000000,0.021465690300000
91,90,Sudeste,NA,Praia Grande,-20.047100000000000,-40.182743000000002,NA,NA,NA,NA,NA,1.000000000000000,1.000000000000000,1.000000000000000,1.000000000000000,0.829653166100000,0.682757494100000,0.085106598500000,0.044887824800000,0.307740138200000,0.143531719100000,2.093676940800000,0.427382359900000,0.403150332000000,0.024232027900000
92,91,Sudeste,NA,Regencia,-19.562811000000000,-39.764263999999997,NA,NA,NA,NA,NA,1.000000000000000,1.000000000000000,1.000000000000000,1.000000000000000,0.921264276400000,0.585005787500000,0.000000000000000,0.057303948100000,0.333959956000000,0.000000000000000,1.897533968000000,0.360219212800000,0.307821733400000,0.052397479400000
93,92,Sudeste,NA,Guriri,-18.910750000000000,-39.738563999999997,NA,NA,NA,NA,NA,1.000000000000000,1.000000000000000,1.000000000000000,1.000000000000000,0.907060148800000,0.450839218900000,0.000000000000000,0.040999131700000,0.706367537000000,0.011470083900000,2.116736120300000,0.435278268900000,0.242141415300000,0.193136853600000
94,93,Nordeste,NA,Milionarios,-14.847631000000000,-39.022942000000000,NA,NA,NA,NA,NA,1.000000000000000,1.000000000000000,1.000000000000000,1.000000000000000,0.834601373100000,0.763081367400000,0.141844170000000,0.490264040200000,0.549272834900000,0.063346147800000,2.842409933400000,0.683763016500000,0.620590908600000,0.063172107900000
95,94,Nordeste,NA,Sul,-14.831120000000000,-39.022562999999998,NA,NA,NA,NA,NA,1.000000000000000,1.000000000000000,1.000000000000000,1.000000000000000,0.829238873200000,0.750807823100000,0.141844170000000,0.490264040200000,0.585009058300000,0.074132699500000,2.871296664300000,0.693654391800000,0.617654479700000,0.075999912100000
96,95,Nordeste,NA,Pedra da Cachorra,-14.821026000000000,-39.023632999999997,NA,NA,NA,NA,NA,1.000000000000000,1.000000000000000,1.000000000000000,1.000000000000000,0.827662957100000,0.724440899300000,0.141844170000000,0.490264040200000,0.600735596200000,0.079674630800000,2.864622293600000,0.691368958200000,0.608051041900000,0.083317916300000
97,96,Nordeste,NA,Jardim Atlantico,-14.815026000000000,-39.023400000000002,NA,NA,NA,NA,NA,1.000000000000000,1.000000000000000,1.000000000000000,1.000000000000000,0.823386511900000,0.698857526200000,0.141844170000000,0.490264040200000,0.605653136800000,0.082546011300000,2.842551396400000,0.683811456200000,0.596480895900000,0.087330560300000
98,97,Nordeste,NA,Baduska,-14.809442000000001,-39.023423000000001,NA,NA,NA,NA,NA,1.000000000000000,1.000000000000000,1.000000000000000,1.000000000000000,0.821080649200000,0.676749705000000,0.141844170000000,0.490264040200000,0.618965206400000,0.085564709800000,2.834468480600000,0.681043709500000,0.587308705000000,0.093735004500000
99,98,Nordeste,NA,Norte,-14.660090000000000,-39.063006999999999,NA,NA,NA,NA,NA,1.000000000000000,1.000000000000000,1.000000000000000,1.000000000000000,0.864300424900000,0.367026017200000,0.000000000000000,0.027842383700000,0.513653904300000,0.200402914100000,1.973225644200000,0.386137506500000,0.263235178100000,0.122902328400000
100,99,Nordeste,NA,Havaizinho,-14.468062000000000,-39.023161000000002,NA,NA,NA,NA,NA,1.000000000000000,1.000000000000000,1.000000000000000,1.000000000000000,0.953247700200000,0.381708196900000,0.000000000000000,0.009280794600000,0.359466800200000,0.327539850200000,2.031243342100000,0.406003888300000,0.354208970700000,0.051794917600000
101,100,Nordeste,NA,Sao Jose,-14.316062000000001,-38.990701000000001,NA,NA,NA,NA,NA,1.000000000000000,1.000000000000000,1.000000000000000,1.000000000000000,0.934382470500000,0.514685442100000,0.255319313100000,0.000000000000000,0.427394151200000,0.219491212600000,2.351272589500000,0.515588091700000,0.462286947300000,0.053301144400000
102,101,Nordeste,NA,Corals,-14.275408000000001,-38.982568999999998,NA,NA,NA,NA,NA,1.000000000000000,1.000000000000000,1.000000000000000,1.000000000000000,0.932016331900000,0.552928529500000,0.226950286200000,0.000000000000000,0.446696754700000,0.189872827900000,2.348464730200000,0.514626626400000,0.452808025800000,0.061818600600000
103,102,Nordeste,NA,Tony,-13.016731999999999,-38.488781000000003,NA,NA,NA,NA,NA,1.000000000000000,1.000000000000000,1.000000000000000,1.000000000000000,0.384219055400000,0.383594860700000,0.226950286200000,0.178972896800000,0.302536546600000,0.091381304400000,1.567654950100000,0.247262257400000,0.179871572200000,0.067390685200000
104,103,Nordeste,NA,Meridien,-13.016598000000000,-38.484878999999999,NA,NA,NA,NA,NA,1.000000000000000,1.000000000000000,1.000000000000000,1.000000000000000,0.383190008500000,0.387873608200000,0.226950286200000,0.178972896800000,0.302536546600000,0.088235737500000,1.567759083800000,0.247297914800000,0.179916215100000,0.067381699700000
105,104,Nordeste,NA,Amaralina,-13.015369000000000,-38.471834000000001,NA,NA,NA,NA,NA,1.000000000000000,1.000000000000000,1.000000000000000,1.000000000000000,0.377789988600000,0.399818979900000,0.255319313100000,0.178972896800000,0.313309250400000,0.076714949700000,1.601925378500000,0.258997114900000,0.189945223300000,0.069051891600000
106,105,Nordeste,NA,Tubao,-13.010683999999999,-38.461410999999998,NA,NA,NA,NA,NA,1.000000000000000,1.000000000000000,1.000000000000000,1.000000000000000,0.357052153000000,0.402723294000000,0.312056884700000,0.187380563300000,0.329172864500000,0.068599213600000,1.656984973100000,0.277850584900000,0.206748834500000,0.071101750400000
107,106,Nordeste,NA,Psiu,-12.995919000000001,-38.439390000000003,NA,NA,NA,NA,NA,1.000000000000000,1.000000000000000,1.000000000000000,1.000000000000000,0.310885433100000,0.408273347500000,0.312056884700000,0.178972896800000,0.346143095500000,0.051276952000000,1.607608609600000,0.260943163100000,0.178305551100000,0.082637612000000
108,107,Nordeste,NA,Alex,-12.973279000000000,-38.406477000000002,NA,NA,NA,NA,NA,1.000000000000000,1.000000000000000,1.000000000000000,1.000000000000000,0.356719154000000,0.395281335400000,0.425532027800000,0.103303898500000,0.451994670400000,0.043355639300000,1.776186725400000,0.318667570200000,0.205196890300000,0.113470679900000
109,108,Nordeste,NA,Terceira Ponte,-12.963839999999999,-38.396822000000000,NA,NA,NA,NA,NA,1.000000000000000,1.000000000000000,1.000000000000000,1.000000000000000,0.417266305700000,0.389211066300000,0.425532027800000,0.114197237100000,0.464834600300000,0.055803306000000,1.866844543200000,0.349710560200000,0.238558003400000,0.111152556800000
110,109,Nordeste,NA,SESC,-12.960485000000000,-38.390998000000003,NA,NA,NA,NA,NA,1.000000000000000,1.000000000000000,1.000000000000000,1.000000000000000,0.429656432600000,0.388775037200000,0.453900572400000,0.576618893600000,0.464549254300000,0.058570026600000,2.372070216700000,0.522709601500000,0.455274374500000,0.067435227000000
111,110,Nordeste,NA,Farol,-12.958147000000000,-38.352812999999998,NA,NA,NA,NA,NA,1.000000000000000,1.000000000000000,1.000000000000000,1.000000000000000,0.540192352400000,0.408261430600000,0.453900572400000,0.559803560600000,0.482186463500000,0.093180034000000,2.537524413500000,0.579364318200000,0.518644627400000,0.060719690800000
112,111,Nordeste,NA,Pedro do Sal,-12.954224000000000,-38.347234000000000,NA,NA,NA,NA,NA,1.000000000000000,1.000000000000000,1.000000000000000,1.000000000000000,0.549059879900000,0.406278587600000,0.453900572400000,0.559803560600000,0.483963818100000,0.110836776600000,2.563843195200000,0.588376378100000,0.529165721600000,0.059210656500000
113,112,Nordeste,NA,Itapoa,-12.952339000000000,-38.369608999999997,NA,NA,NA,NA,NA,1.000000000000000,1.000000000000000,1.000000000000000,1.000000000000000,0.516454103200000,0.393791279800000,0.453900572400000,0.561773954300000,0.478181209100000,0.076700067100000,2.480801185900000,0.559941188100000,0.496044036300000,0.063897151800000
114,113,Nordeste,NA,Seper,-12.952040999999999,-38.343243999999999,NA,NA,NA,NA,NA,1.000000000000000,1.000000000000000,1.000000000000000,1.000000000000000,0.555758792700000,0.405418823200000,0.453900572400000,0.568211227100000,0.487885660300000,0.121832906300000,2.593007982000000,0.598362965100000,0.539987561500000,0.058375403600000
115,114,Nordeste,NA,Corrente,-12.948985000000000,-38.339199999999998,NA,NA,NA,NA,NA,1.000000000000000,1.000000000000000,1.000000000000000,1.000000000000000,0.560840357900000,0.401776514400000,0.453900572400000,0.568211227100000,0.485017108900000,0.134252029900000,2.603997810600000,0.602126094900000,0.545928753100000,0.056197341800000
116,115,Nordeste,NA,Stela Maris,-12.947385000000001,-38.337372000000002,NA,NA,NA,NA,NA,1.000000000000000,1.000000000000000,1.000000000000000,1.000000000000000,0.574002883100000,0.400039026700000,0.425532027800000,0.550692908700000,0.490078040300000,0.140235229900000,2.580580116500000,0.594107423600000,0.533719752500000,0.060387671100000
117,116,Nordeste,NA,Plator,-12.946393000000000,-38.333083999999999,NA,NA,NA,NA,NA,1.000000000000000,1.000000000000000,1.000000000000000,1.000000000000000,0.577941539200000,0.396276906900000,0.425532027800000,0.550692908700000,0.486466058800000,0.148386565900000,2.585296007300000,0.595722235800000,0.537289973900000,0.058432261900000
118,117,Nordeste,NA,Aleluia,-12.926800999999999,-38.312618999999998,NA,NA,NA,NA,NA,1.000000000000000,1.000000000000000,1.000000000000000,1.000000000000000,0.597869213100000,0.383729869200000,0.397163000900000,0.550692908700000,0.497619725900000,0.224174203500000,2.651248921300000,0.618305789000000,0.560782822600000,0.057522966400000
119,118,Nordeste,NA,Ipitanga,-12.920477000000000,-38.309717999999997,NA,NA,NA,NA,NA,1.000000000000000,1.000000000000000,1.000000000000000,1.000000000000000,0.599188716200000,0.385751243400000,0.368794456200000,0.542285242200000,0.503240423800000,0.239578196000000,2.638838277800000,0.614056144700000,0.553052651100000,0.061003493600000
120,119,Nordeste,NA,Vilas,-12.894546000000000,-38.290790999999999,NA,NA,NA,NA,NA,1.000000000000000,1.000000000000000,1.000000000000000,1.000000000000000,0.614514833600000,0.390818377800000,0.312056884700000,0.542285242200000,0.526328925100000,0.306186656200000,2.692190919600000,0.632325121000000,0.566027115500000,0.066298005500000
121,120,Nordeste,NA,Busca Vida,-12.863464000000000,-38.255961999999997,NA,NA,NA,NA,NA,1.000000000000000,1.000000000000000,1.000000000000000,1.000000000000000,0.684481426600000,0.435769521900000,0.085106598500000,0.533877575800000,0.544879522400000,0.387596388600000,2.671711033800000,0.625312412100000,0.549294454200000,0.076017957900000
122,121,Nordeste,NA,Itacimirim,-12.639232000000000,-38.048194000000002,NA,NA,NA,NA,NA,1.000000000000000,1.000000000000000,1.000000000000000,1.000000000000000,0.805253814300000,0.489884398600000,0.085106598500000,0.009801974700000,0.547620128600000,0.767664481400000,2.705331396100000,0.636824674300000,0.562532837600000,0.074291836700000
123,122,Nordeste,NA,Praia do Forte,-12.583304999999999,-38.005077999999997,NA,NA,NA,NA,NA,1.000000000000000,1.000000000000000,1.000000000000000,1.000000000000000,0.820264252200000,0.492922052500000,0.085106598500000,0.018209641200000,0.491652162600000,0.654759934300000,2.562914641300000,0.588058423300000,0.525471592500000,0.062586830800000
124,123,Nordeste,NA,Imbassai,-12.342055000000000,-37.846200000000003,NA,NA,NA,NA,NA,1.000000000000000,1.000000000000000,1.000000000000000,1.000000000000000,0.923854670200000,0.515600370400000,0.000000000000000,0.000000000000000,0.467410532400000,0.549357309900000,2.456222882900000,0.551525101800000,0.490124603200000,0.061400498600000
125,124,Nordeste,NA,Costa do Sauipe,-12.022171000000000,-37.645508000000000,NA,NA,NA,NA,NA,1.000000000000000,1.000000000000000,1.000000000000000,1.000000000000000,0.949047540300000,0.396674646500000,0.000000000000000,0.003350995200000,0.432765980100000,0.496188588500000,2.278027750600000,0.490507642400000,0.428583391300000,0.061924251100000
126,125,Nordeste,NA,Marlin,-11.939802999999999,-37.602476000000003,NA,NA,NA,NA,NA,1.000000000000000,1.000000000000000,1.000000000000000,1.000000000000000,0.934090309500000,0.323009145000000,0.000000000000000,0.000000000000000,0.255876925800000,0.383203940000000,1.896180320300000,0.359755697600000,0.340716196000000,0.019039501600000
127,126,Nordeste,NA,Conde,-11.848141000000000,-37.558169999999997,NA,NA,NA,NA,NA,1.000000000000000,1.000000000000000,1.000000000000000,1.000000000000000,0.900489159400000,0.306279707400000,0.000000000000000,0.000000000000000,0.496543980200000,0.358768843200000,2.062081690200000,0.416563535100000,0.308663585500000,0.107899949600000
128,127,Nordeste,NA,Mangue Seco,-11.483613999999999,-37.364454000000002,NA,NA,NA,NA,NA,1.000000000000000,1.000000000000000,1.000000000000000,1.000000000000000,0.922785063500000,0.556706022400000,0.000000000000000,0.000000000000000,0.852452352100000,0.211622772800000,2.543566210800000,0.581433146500000,0.362499023700000,0.218934122800000
129,128,Nordeste,NA,Mosqueiro,-11.138116000000000,-37.145493000000002,NA,NA,NA,NA,NA,1.000000000000000,1.000000000000000,1.000000000000000,1.000000000000000,0.859828211200000,0.537504518400000,0.028369026900000,0.023158512200000,0.744869083300000,0.026488126200000,2.220217478200000,0.470712287100000,0.269998748600000,0.200713538500000
130,129,Nordeste,NA,Aruana,-11.067069000000000,-37.101289000000001,NA,NA,NA,NA,NA,1.000000000000000,1.000000000000000,1.000000000000000,1.000000000000000,0.778586997200000,0.370992275200000,0.085106598500000,0.502395501700000,0.518712529500000,0.001423550000000,2.257217452100000,0.483381793700000,0.382815928700000,0.100565865000000
131,130,Nordeste,NA,Hawaiizinho,-11.043927999999999,-37.082977999999997,NA,NA,NA,NA,NA,1.000000000000000,1.000000000000000,1.000000000000000,1.000000000000000,0.712674164600000,0.371870240100000,0.085106598500000,0.522382424200000,0.478872006100000,0.004673678800000,2.175579112300000,0.455427247400000,0.364896890900000,0.090530356500000
132,131,Nordeste,NA,Praia do Meio,-10.999541000000001,-37.050151000000000,NA,NA,NA,NA,NA,1.000000000000000,1.000000000000000,1.000000000000000,1.000000000000000,0.633285911600000,0.362697295700000,0.085106598500000,0.535442498900000,0.431058839800000,0.004896305200000,2.052487449700000,0.413278281600000,0.332624434100000,0.080653847500000
133,132,Nordeste,NA,Pirambu,-10.746346000000001,-36.855099000000003,NA,NA,NA,NA,NA,1.000000000000000,1.000000000000000,1.000000000000000,1.000000000000000,0.897894628200000,0.497767364600000,0.000000000000000,0.004694398600000,0.357408487100000,0.043576767200000,1.801341645700000,0.327281101300000,0.256530800900000,0.070750300400000
134,133,Nordeste,NA,Ponta do Mangue,-10.639483000000000,-36.678539000000001,NA,NA,NA,NA,NA,1.000000000000000,1.000000000000000,1.000000000000000,1.000000000000000,0.935660276900000,0.644960910000000,0.000000000000000,0.000000000000000,0.025888903900000,0.084497037000000,1.691007127800000,0.289500428600000,0.351354499800000,-0.061854071200000
135,134,Nordeste,NA,Pontal de Peba,-10.367584000000001,-36.303941000000002,NA,NA,NA,NA,NA,1.000000000000000,1.000000000000000,1.000000000000000,1.000000000000000,0.936724811300000,0.422663555100000,0.000000000000000,0.000000000000000,0.186851484600000,0.171107625300000,1.717347476300000,0.298519873400000,0.293640937600000,0.004878935800000
136,135,Nordeste,NA,Mihai,-10.196728000000000,-36.181641999999997,NA,NA,NA,NA,NA,1.000000000000000,1.000000000000000,1.000000000000000,1.000000000000000,0.883142138900000,0.531947654600000,0.028369026900000,0.000000000000000,0.458212431700000,0.075605411600000,1.977276663700000,0.387524653900000,0.288740056400000,0.098784597500000
137,136,Nordeste,NA,Pontal do Coruripe,-10.160774999999999,-36.150663999999999,NA,NA,NA,NA,NA,1.000000000000000,1.000000000000000,1.000000000000000,1.000000000000000,0.880288614700000,0.695691037200000,0.056737571600000,0.000000000000000,0.497695826800000,0.078391622600000,2.208804672900000,0.466804321900000,0.371071025000000,0.095733296900000
138,137,Nordeste,NA,Forjos,-10.107661999999999,-36.097672000000003,NA,NA,NA,NA,NA,1.000000000000000,1.000000000000000,1.000000000000000,1.000000000000000,0.905474130400000,0.837211769500000,0.056737571600000,0.000000000000000,0.587808189100000,0.087176450600000,2.474408111200000,0.557752075700000,0.446305367400000,0.111446708300000
139,138,Nordeste,NA,Poxim,-10.063563000000000,-36.040908999999999,NA,NA,NA,NA,NA,1.000000000000000,1.000000000000000,1.000000000000000,1.000000000000000,0.924597894600000,0.585369561400000,0.028369026900000,0.000000000000000,0.518671090700000,0.118089093300000,2.175096666900000,0.455262048700000,0.347627896400000,0.107634152300000
140,139,Nordeste,NA,Jacarecica,-9.916383000000000,-35.945963999999996,NA,NA,NA,NA,NA,1.000000000000000,1.000000000000000,1.000000000000000,1.000000000000000,0.894282639400000,0.468547792300000,0.000000000000000,0.000000000000000,0.568087045500000,0.072038772500000,2.002956249700000,0.396317840800000,0.252645015500000,0.143672825300000
141,140,Nordeste,NA,Praia do Meio,-9.824446999999999,-35.877803000000000,NA,NA,NA,NA,NA,1.000000000000000,1.000000000000000,1.000000000000000,1.000000000000000,0.858888378200000,0.529803134700000,0.028369026900000,0.009562985300000,0.588054836600000,0.036501498300000,2.051179860000000,0.412830537600000,0.264758497500000,0.148072040100000
142,141,Nordeste,NA,Praia do Pontal,-9.682589999999999,-35.758536999999997,NA,NA,NA,NA,NA,1.000000000000000,1.000000000000000,1.000000000000000,1.000000000000000,0.663990473600000,0.541966856400000,0.198581741600000,0.219748838800000,0.641772739900000,0.078040450600000,2.344101100900000,0.513132435300000,0.367306765000000,0.145825670300000
143,142,Nordeste,NA,Salgema,-9.679629000000000,-35.718974000000003,NA,NA,NA,NA,NA,1.000000000000000,1.000000000000000,1.000000000000000,1.000000000000000,0.654977875200000,0.601615343600000,0.198581741600000,0.225737119800000,0.603941382800000,0.035344786100000,2.320198249100000,0.504947636600000,0.373278019900000,0.131669616700000
144,143,Nordeste,NA,Pier do Emissario,-9.673301000000000,-35.715234000000002,NA,NA,NA,NA,NA,1.000000000000000,1.000000000000000,1.000000000000000,1.000000000000000,0.649773939700000,0.607187551400000,0.198581741600000,0.225737119800000,0.597607060400000,0.031755965500000,2.310643378400000,0.501675864100000,0.371897346600000,0.129778517500000
145,144,Nordeste,NA,Praia do Sobral,-9.666869000000000,-35.710735000000000,NA,NA,NA,NA,NA,1.000000000000000,1.000000000000000,1.000000000000000,1.000000000000000,0.645464128200000,0.612826714600000,0.198581741600000,0.225737119800000,0.584813479100000,0.027409330000000,2.294832513300000,0.496261918100000,0.370603814400000,0.125658103700000
146,145,Nordeste,NA,"Pico da Barra, Brazil",-9.665630000000000,-35.697186000000002,NA,NA,NA,NA,NA,1.000000000000000,1.000000000000000,1.000000000000000,1.000000000000000,0.633587634300000,0.638560596000000,0.226950286200000,0.223369203900000,0.544455574600000,0.014179028200000,2.281102323200000,0.491560435500000,0.382019315600000,0.109541119900000
147,146,Nordeste,NA,Pedra Virada,-9.585521999999999,-35.660038000000000,NA,NA,NA,NA,NA,1.000000000000000,1.000000000000000,1.000000000000000,1.000000000000000,0.666843252200000,0.710098081800000,0.141844170000000,0.127247081400000,0.567220043700000,0.027164519300000,2.240417148400000,0.477629044800000,0.354817976700000,0.122811068100000
148,147,Nordeste,NA,Praia de Jatiuca,-9.531449000000000,-35.590927999999998,NA,NA,NA,NA,NA,1.000000000000000,1.000000000000000,1.000000000000000,1.000000000000000,0.813885163600000,0.783916701000000,0.113475143100000,0.021585208300000,0.661734088700000,0.177335577700000,2.571931882400000,0.591146101000000,0.456421952200000,0.134724148800000
149,148,Nordeste,NA,Garca Torta,-9.487114000000000,-35.557476999999999,NA,NA,NA,NA,NA,1.000000000000000,1.000000000000000,1.000000000000000,1.000000000000000,0.820878303700000,0.770538825200000,0.085106598500000,0.014390138900000,0.668817380400000,0.231520235000000,2.591251481700000,0.597761505400000,0.461667749200000,0.136093756200000
150,149,Nordeste,NA,Mirante da Sirena,-9.430906000000000,-35.503683000000002,NA,NA,NA,NA,NA,1.000000000000000,1.000000000000000,1.000000000000000,1.000000000000000,0.850983324100000,0.572618133700000,0.028369026900000,0.008634083300000,0.712179459800000,0.262420824200000,2.435204852000000,0.544328121600000,0.376179737800000,0.168148383800000
151,150,Nordeste,NA,Japaratinga,-9.261582000000001,-35.353366000000001,NA,NA,NA,NA,NA,1.000000000000000,1.000000000000000,1.000000000000000,1.000000000000000,0.886888544200000,0.532307810900000,0.000000000000000,0.008407666500000,0.642327377900000,0.371509582400000,2.441440981900000,0.546463493100000,0.408799325700000,0.137664167400000
152,151,Nordeste,NA,Impossivel,-8.615505000000001,-35.020375000000001,NA,NA,NA,NA,NA,1.000000000000000,1.000000000000000,1.000000000000000,1.000000000000000,0.862800307800000,0.859541386500000,0.028369026900000,0.014769102300000,0.942747196500000,0.516134581000000,3.224361601000000,0.814550654100000,0.615651043100000,0.198899611000000
153,152,Nordeste,NA,Serrambi,-8.576358000000001,-35.028714999999998,NA,NA,NA,NA,NA,1.000000000000000,1.000000000000000,1.000000000000000,1.000000000000000,0.838227764300000,0.879892055000000,0.085106598500000,0.023176768800000,0.911888599000000,0.403730380500000,3.142022166100000,0.786356039200000,0.593580821400000,0.192775217800000
154,153,Nordeste,NA,Porto de Galinhas,-8.488678000000000,-34.999501000000002,NA,NA,NA,NA,NA,1.000000000000000,1.000000000000000,1.000000000000000,1.000000000000000,0.814144496300000,0.984277028200000,0.113475143100000,0.149291766000000,0.954005907100000,0.120074200000000,3.135268540700000,0.784043467300000,0.572629485200000,0.211413982100000
155,154,Nordeste,NA,Cupe,-8.479708000000000,-34.996577000000002,NA,NA,NA,NA,NA,1.000000000000000,1.000000000000000,1.000000000000000,1.000000000000000,0.797714796300000,0.963825982700000,0.113475143100000,0.157696006600000,0.956653467700000,0.100002551800000,3.089367948200000,0.768326216700000,0.551816527300000,0.216509689400000
156,155,Nordeste,NA,Gaibu,-8.341567000000000,-34.948825999999997,NA,NA,NA,NA,NA,1.000000000000000,1.000000000000000,1.000000000000000,1.000000000000000,0.676067553500000,0.721181220400000,0.056737571600000,0.032065487500000,0.703850814300000,0.044275482000000,2.234178129300000,0.475492684000000,0.293568624700000,0.181924059300000
157,156,Nordeste,NA,Bessa,-7.091138000000000,-34.832765000000002,NA,NA,NA,NA,NA,1.000000000000000,1.000000000000000,1.000000000000000,1.000000000000000,0.567739524700000,0.978302083200000,0.028369026900000,0.592125643800000,0.966437003700000,0.176779313400000,3.309752595700000,0.843790182100000,0.642102805700000,0.201687376400000
158,157,Nordeste,NA,Saji,-6.466880000000000,-34.970449000000002,NA,NA,NA,NA,NA,1.000000000000000,1.000000000000000,1.000000000000000,1.000000000000000,0.953379018000000,0.575616239800000,0.085106598500000,0.000000000000000,0.423181684700000,0.062639623300000,2.099923164300000,0.429521187600000,0.356337476800000,0.073183710800000
159,158,Nordeste,NA,Farol,-6.408908000000000,-34.979016999999999,NA,NA,NA,NA,NA,1.000000000000000,1.000000000000000,1.000000000000000,1.000000000000000,0.947528912000000,0.647691158500000,0.170212714700000,0.008407666500000,0.544413869400000,0.099698745400000,2.417953066500000,0.538420776600000,0.440706136500000,0.097714640100000
160,159,Nordeste,NA,Xilauzinho,-6.395101000000000,-34.983204999999998,NA,NA,NA,NA,NA,1.000000000000000,1.000000000000000,1.000000000000000,1.000000000000000,0.950525564100000,0.681857922400000,0.170212714700000,0.012555655700000,0.644039903600000,0.114656334900000,2.573848095400000,0.591802249400000,0.464829077200000,0.126973172200000
161,160,Nordeste,NA,Mar Aberto,-6.379758000000000,-34.989437000000002,NA,NA,NA,NA,NA,1.000000000000000,1.000000000000000,1.000000000000000,1.000000000000000,0.947672740600000,0.715128154500000,0.170212714700000,0.011172992600000,0.757216447700000,0.128948874300000,2.730351924400000,0.645392187100000,0.483403809700000,0.161988377400000
162,161,Nordeste,NA,Pontal,-6.368680000000000,-34.993423999999997,NA,NA,NA,NA,NA,1.000000000000000,1.000000000000000,1.000000000000000,1.000000000000000,0.946592144500000,0.727536800300000,0.141844170000000,0.011172992600000,0.786531662600000,0.132432899600000,2.746110669600000,0.650788286200000,0.477592049300000,0.173196236900000
163,162,Nordeste,NA,Mar da Frente,-6.365217000000000,-35.006211999999998,NA,NA,NA,NA,NA,1.000000000000000,1.000000000000000,1.000000000000000,1.000000000000000,0.939499399100000,0.730844488100000,0.141844170000000,0.038641352500000,0.861821164200000,0.144448488800000,2.857099062700000,0.688792858400000,0.492896432200000,0.195896426200000
164,163,Nordeste,NA,Lajinha,-6.278960000000000,-35.033028000000002,NA,NA,NA,NA,NA,1.000000000000000,1.000000000000000,1.000000000000000,1.000000000000000,0.901964653800000,0.656922159600000,0.226950286200000,0.257240681100000,0.614197441900000,0.061829490300000,2.719104712900000,0.641540924400000,0.539895367700000,0.101645556700000
165,164,Nordeste,NA,Afogados,-6.244350000000000,-35.036464000000002,NA,NA,NA,NA,NA,1.000000000000000,1.000000000000000,1.000000000000000,1.000000000000000,0.884488173100000,0.618725737800000,0.226950286200000,0.268009276800000,0.433567745300000,0.050739297000000,2.482480516200000,0.560516223300000,0.515890104900000,0.044626118400000
166,165,Nordeste,NA,Sororoca,-6.238074000000000,-35.035608000000003,NA,NA,NA,NA,NA,1.000000000000000,1.000000000000000,1.000000000000000,1.000000000000000,0.884532828200000,0.615200148100000,0.226950286200000,0.268009276800000,0.420613928500000,0.050820077700000,2.466126545500000,0.554916307400000,0.514432433400000,0.040483874000000
167,166,Nordeste,NA,Abacateiro,-6.233891000000000,-35.036746999999998,NA,NA,NA,NA,NA,1.000000000000000,1.000000000000000,1.000000000000000,1.000000000000000,0.883553033900000,0.612814675200000,0.226950286200000,0.263978118700000,0.417991356500000,0.051669544200000,2.456957014700000,0.551776482800000,0.511625703000000,0.040150779800000
168,167,Nordeste,NA,Tibau do Sul,-6.180279000000000,-35.089708999999999,NA,NA,NA,NA,NA,1.000000000000000,1.000000000000000,1.000000000000000,1.000000000000000,0.857795134100000,0.491931830800000,0.198581741600000,0.278692763200000,0.484547827700000,0.116005078500000,2.427554375900000,0.541708450600000,0.470487311700000,0.071221138900000
169,168,Nordeste,NA,Tabatinga,-6.049479000000000,-35.108238000000000,NA,NA,NA,NA,NA,1.000000000000000,1.000000000000000,1.000000000000000,1.000000000000000,0.844642827500000,0.421899288600000,0.085106598500000,0.242963021400000,0.501529813400000,0.185075780500000,2.281217329900000,0.491599816000000,0.400471216100000,0.091128599900000
170,169,Nordeste,NA,Xoxoline,-6.005800000000000,-35.105258999999997,NA,NA,NA,NA,NA,1.000000000000000,1.000000000000000,1.000000000000000,1.000000000000000,0.835343150200000,0.459332246200000,0.113475143100000,0.271960200700000,0.441720280600000,0.141529170700000,2.263360191500000,0.485485186500000,0.418456522700000,0.067028663800000
171,170,Nordeste,NA,Pirangi Reef,-5.980259000000000,-35.107796000000000,NA,NA,NA,NA,NA,1.000000000000000,1.000000000000000,1.000000000000000,1.000000000000000,0.831742149500000,0.487707949300000,0.113475143100000,0.263552534300000,0.372948131200000,0.116938146700000,2.186364054100000,0.459120220000000,0.414930837300000,0.044189382700000
172,171,Nordeste,NA,Cotovelo,-5.949906000000000,-35.151975000000000,NA,NA,NA,NA,NA,1.000000000000000,1.000000000000000,1.000000000000000,1.000000000000000,0.761566852900000,0.546977745300000,0.085106598500000,0.339956866000000,0.300082305600000,0.119417530700000,2.153107899000000,0.447732669300000,0.431911800500000,0.015820868800000
173,172,Nordeste,NA,Miami,-5.794834000000000,-35.181663999999998,NA,NA,NA,NA,NA,1.000000000000000,1.000000000000000,1.000000000000000,1.000000000000000,0.534830981300000,0.668482005200000,0.085106598500000,0.313167444400000,0.444283647500000,0.075939462800000,2.121810139700000,0.437015711300000,0.356674017600000,0.080341693700000
174,173,Nordeste,NA,Areia Preta,-5.792249000000000,-35.184387000000001,NA,NA,NA,NA,NA,1.000000000000000,1.000000000000000,1.000000000000000,1.000000000000000,0.530751322700000,0.664016361300000,0.085106598500000,0.287944445000000,0.458656427100000,0.080126298800000,2.106601453400000,0.431807963000000,0.343992221000000,0.087815742000000
175,174,Nordeste,NA,Praia dos Artistas,-5.781239000000000,-35.192050000000002,NA,NA,NA,NA,NA,1.000000000000000,1.000000000000000,1.000000000000000,1.000000000000000,0.531252535800000,0.641543037600000,0.085106598500000,0.222689386100000,0.505883859900000,0.091738544400000,2.078213962300000,0.422087537000000,0.311575535100000,0.110512001900000
176,175,Nordeste,NA,Genipabu,-5.694407000000000,-35.201922000000003,NA,NA,NA,NA,NA,1.000000000000000,1.000000000000000,1.000000000000000,1.000000000000000,0.710049589000000,0.520565291200000,0.056737571600000,0.068947995000000,0.643708043200000,0.071075741500000,2.071084231500000,0.419646179300000,0.249432703300000,0.170213476000000
177,176,Nordeste,NA,Touros Area,-5.197434000000000,-35.457929999999998,NA,NA,NA,NA,NA,1.000000000000000,1.000000000000000,1.000000000000000,1.000000000000000,0.920432432700000,0.679237334100000,0.000000000000000,0.075668998300000,0.020724575400000,0.229580025500000,1.925643366000000,0.369844414300000,0.454158803900000,-0.084314389600000
178,177,Nordeste,NA,Urca da Concei&ccedil;&atilde;o,-5.069617000000000,-35.800230999999997,NA,NA,NA,NA,NA,1.000000000000000,1.000000000000000,1.000000000000000,1.000000000000000,0.934280081500000,0.374806276500000,0.028369026900000,0.000000000000000,0.100256872500000,0.000000000000000,1.437712257400000,0.202767366500000,0.210882979500000,-0.008115613000000
179,178,Nordeste,NA,Cocoa das Lavadeiras,-5.066515000000000,-35.862005000000003,NA,NA,NA,NA,NA,1.000000000000000,1.000000000000000,1.000000000000000,1.000000000000000,0.931757826300000,0.439851438100000,0.028369026900000,0.000000000000000,0.051832339200000,0.000000000000000,1.451810630500000,0.207594922100000,0.237687019100000,-0.030092097000000
180,179,Nordeste,NA,Baia das Ratas,-3.813000000000000,-32.393000000000001,NA,NA,NA,NA,NA,1.000000000000000,1.000000000000000,1.000000000000000,1.000000000000000,0.908462797000000,0.094635746000000,0.226950286200000,0.462421656500000,0.000000000000000,0.785012596100000,2.477483081800000,0.558805005100000,0.699621416300000,-0.140816411200000
181,180,Nordeste,NA,Volta da Jurema,-3.724294000000000,-38.496071999999998,NA,NA,NA,NA,NA,1.000000000000000,1.000000000000000,1.000000000000000,1.000000000000000,0.227426592800000,0.359897957800000,0.141844170000000,1.000000000000000,0.197771199200000,0.044922001000000,1.971861920800000,0.385670541300000,0.398071828100000,-0.012401286800000
182,181,Nordeste,NA,Portao,-3.719326000000000,-38.510655000000000,NA,NA,NA,NA,NA,1.000000000000000,1.000000000000000,1.000000000000000,1.000000000000000,0.232151524400000,0.340853434100000,0.170212714700000,0.969514512700000,0.183731115400000,0.039285844800000,1.935749146100000,0.373304828800000,0.388609099700000,-0.015304270900000
183,182,Nordeste,NA,Barra do Ceara,-3.692659000000000,-38.584716000000000,NA,NA,NA,NA,NA,1.000000000000000,1.000000000000000,1.000000000000000,1.000000000000000,0.305915953400000,0.359739375900000,0.113475143100000,0.305308860600000,0.278389260400000,0.066091341500000,1.428919934900000,0.199756705200000,0.130746952100000,0.069009753100000
184,183,Nordeste,NA,Praia do Pecem,-3.546170000000000,-38.806919000000001,NA,NA,NA,NA,NA,1.000000000000000,1.000000000000000,1.000000000000000,1.000000000000000,0.743870374300000,0.561792153500000,0.028369026900000,0.040723522200000,0.271586762900000,0.066658003700000,1.712999843500000,0.297031159800000,0.255450424500000,0.041580735300000
185,184,Nordeste,NA,Tabinha,-3.500935000000000,-38.911282000000000,NA,NA,NA,NA,NA,1.000000000000000,1.000000000000000,1.000000000000000,1.000000000000000,0.840936203000000,0.610686074600000,0.028369026900000,0.000000000000000,0.167813652800000,0.099288567600000,1.747093524900000,0.308705495700000,0.314554953600000,-0.005849457900000
186,185,Nordeste,NA,Pedra do Meio,-3.410858000000000,-39.040807000000001,NA,NA,NA,NA,NA,1.000000000000000,1.000000000000000,1.000000000000000,1.000000000000000,0.842850993800000,0.641774703600000,0.113475143100000,0.010237155300000,0.248099443700000,0.004769025100000,1.861206464600000,0.347779973100000,0.329056906400000,0.018723066700000
187,186,Nordeste,NA,Havaizinho,-3.403507000000000,-39.022171000000000,NA,NA,NA,NA,NA,1.000000000000000,1.000000000000000,1.000000000000000,1.000000000000000,0.850479802500000,0.581933805400000,0.113475143100000,0.010237155300000,0.279426899400000,0.010810085100000,1.846362890800000,0.342697246300000,0.309263039200000,0.033434207100000
188,187,Nordeste,NA,Curral,-3.403353000000000,-39.025868000000003,NA,NA,NA,NA,NA,1.000000000000000,1.000000000000000,1.000000000000000,1.000000000000000,0.848906902400000,0.585152296200000,0.113475143100000,0.010237155300000,0.279426899400000,0.009234443200000,1.846432839600000,0.342721198200000,0.309293026800000,0.033428171400000
189,188,Nordeste,NA,Outside,-3.398539000000000,-39.013306000000000,NA,NA,NA,NA,NA,1.000000000000000,1.000000000000000,1.000000000000000,1.000000000000000,0.851496562000000,0.559040894600000,0.113475143100000,0.010237155300000,0.279813504500000,0.012466180100000,1.826529439600000,0.335905889100000,0.300594549200000,0.035311339900000
190,189,Nordeste,NA,Atins,-2.555789000000000,-42.727836000000003,NA,NA,NA,NA,NA,1.000000000000000,1.000000000000000,1.000000000000000,1.000000000000000,0.968935080200000,0.228283119900000,0.000000000000000,0.014410907600000,0.605760704100000,0.352640803300000,2.170030615100000,0.453527334600000,0.308120070500000,0.145407264100000
191,190,Nordeste,NA,Ponta d'Areia,-2.497384000000000,-44.311779000000001,NA,NA,NA,NA,NA,1.000000000000000,1.000000000000000,1.000000000000000,1.000000000000000,0.569783509400000,0.153746217700000,0.113475143100000,0.047039058600000,0.517246963000000,0.363236997000000,1.764527888800000,0.314675359000000,0.172224511500000,0.142450847500000
192,191,Nordeste,NA,S&atilde;o Marcos,-2.485445000000000,-44.297899999999998,NA,NA,NA,NA,NA,1.000000000000000,1.000000000000000,1.000000000000000,1.000000000000000,0.578004751500000,0.150731534200000,0.113475143100000,0.033566131800000,0.513871895600000,0.277134812700000,1.666784268900000,0.281206053300000,0.131768004300000,0.149438049000000
193,192,Nordeste,NA,Calhau,-2.480673000000000,-44.249679999999998,NA,NA,NA,NA,NA,1.000000000000000,1.000000000000000,1.000000000000000,1.000000000000000,0.542352404600000,0.119643927200000,0.141844170000000,0.020986899100000,0.500061958000000,0.165822850000000,1.490712208900000,0.220915574800000,0.062205013600000,0.158710561200000
194,193,Nordeste,NA,Olho D'Agu,-2.477097000000000,-44.230155000000003,NA,NA,NA,NA,NA,1.000000000000000,1.000000000000000,1.000000000000000,1.000000000000000,0.532457398200000,0.119969316000000,0.141844170000000,0.020986899100000,0.503010205700000,0.202077571700000,1.520345560700000,0.231062607600000,0.073645118100000,0.157417489500000
195,194,Nordeste,NA,Ponta do Farol,-2.456442000000000,-44.173347999999997,NA,NA,NA,NA,NA,1.000000000000000,1.000000000000000,1.000000000000000,1.000000000000000,0.653104629200000,0.206280380500000,0.085106598500000,0.012579232600000,0.633483047700000,0.398751082600000,1.989304971100000,0.391643379000000,0.218756852500000,0.172886526500000
196,195,Sul,Rio Grande Do Sul,Hermenegildo,-33.668354000000001,-53.262405000000001,3,3,Right and left,Beach-break,All surfers,2.000000000000000,3.000000000000000,1.000000000000000,3.000000000000000,0.945215214800000,0.033400868600000,0.482269599300000,0.007093858900000,0.029369191700000,0.013836920100000,1.511185653400000,0.227926078200000,0.272771657500000,-0.044845579300000
197,196,Sul,Rio Grande Do Sul,Navio,-32.290560999999997,-52.258674999999997,3,2,Right and left,Beach-break,All surfers,2.000000000000000,2.000000000000000,1.000000000000000,3.000000000000000,0.946529966500000,0.071079693600000,0.482269599300000,0.038269388600000,0.022374695900000,0.011886933000000,1.572410276900000,0.248890573300000,0.302017706300000,-0.053127133000000
198,197,Sul,Rio Grande Do Sul,Tres Marias,-32.192610999999999,-52.085065999999998,5,2,Right and left,Sand-bar,Pros or kamikaze only...,2.000000000000000,2.000000000000000,0.000000000000000,5.000000000000000,0.845877493900000,0.169552991700000,0.510638626200000,0.019134694300000,0.028049878300000,0.017266126600000,1.590519811000000,0.255091628000000,0.307348406300000,-0.052256778300000
199,198,Sul,Rio Grande Do Sul,Praia do Cassino,-32.178336999999999,-52.142142999999997,3,2,Right and left,Sand-bar,All surfers,2.000000000000000,2.000000000000000,1.000000000000000,3.000000000000000,0.828501597400000,0.072921326200000,0.510638626200000,0.019134694300000,0.039952892800000,0.024091920200000,1.495241057100000,0.222466340100000,0.261398777100000,-0.038932437000000
200,199,Sul,Rio Grande Do Sul,Sao Jose do Norte,-32.008076000000003,-52.018889999999999,3,NA,Right and left,Beach-break,All surfers,2.000000000000000,1.000000000000000,1.000000000000000,3.000000000000000,0.846032466700000,0.000000000000000,0.482269599300000,0.019134694300000,0.087857229400000,0.006691880900000,1.441985870600000,0.204230734300000,0.218030929700000,-0.013800195400000
201,200,Sul,Rio Grande Do Sul,Quintão,-30.410782000000001,-50.292664000000002,3.5,3,Right and left,Sand-bar,Experienced surfers,2.000000000000000,3.000000000000000,0.000000000000000,3.500000000000000,0.935654132900000,0.127621808700000,0.301418499600000,0.000000000000000,0.000000000000000,0.000000000000000,1.364694441200000,0.177764654100000,0.222560567500000,-0.044795913400000
202,201,Sul,Rio Grande Do Sul,Nova Tramandaí,-30.045256999999999,-50.150033999999998,3,3,Right and left,Beach-break,All surfers,2.000000000000000,3.000000000000000,1.000000000000000,3.000000000000000,0.817558458700000,0.170891329700000,0.567376197800000,0.056628307300000,0.000000000000000,0.000000000000000,1.612454293500000,0.262602419000000,0.328777077200000,-0.066174658200000
203,202,Sul,Rio Grande Do Sul,Oasis Sul,-30.039822999999998,-50.147266000000002,3,3,Right and left,Beach-break,All surfers,2.000000000000000,3.000000000000000,1.000000000000000,3.000000000000000,0.809978510900000,0.169316070200000,0.567376197800000,0.056628307300000,0.000000000000000,0.000000000000000,1.603299086200000,0.259467499000000,0.324852171100000,-0.065384672100000
204,203,Sul,Rio Grande Do Sul,Tramandai - Malvina,-30.005490000000002,-50.129156000000002,3.5,3,Right and left,Beach-break,All surfers,2.000000000000000,3.000000000000000,1.000000000000000,3.500000000000000,0.770616325200000,0.158849990900000,0.656028442300000,0.056628307300000,0.000000000000000,0.000000000000000,1.642123065700000,0.272761580400000,0.341496302700000,-0.068734722300000
205,204,Sul,Rio Grande Do Sul,Tramandai,-29.993077000000000,-50.125508000000004,3,3,Right and left,Beach-break,All surfers,2.000000000000000,3.000000000000000,1.000000000000000,3.000000000000000,0.766132197500000,0.157042781500000,0.624113769300000,0.050527478500000,0.000000000000000,0.000000000000000,1.597816226800000,0.257590061900000,0.322501628100000,-0.064911566200000
206,205,Sul,Rio Grande Do Sul,Rainha do Mar,-29.859477999999999,-50.064568999999999,3.5,5,Right and left,Beach-break,All surfers,2.000000000000000,5.000000000000000,1.000000000000000,3.500000000000000,0.819245226100000,0.171615414100000,0.570922326100000,0.048142265900000,0.000000000000000,0.000000000000000,1.609925232200000,0.261736419500000,0.327692849700000,-0.065956430200000
207,206,Sul,Rio Grande Do Sul,Xangri-lá,-29.785982000000001,-50.024636000000001,3,3,Right and left,Beach-break,All surfers,2.000000000000000,3.000000000000000,1.000000000000000,3.000000000000000,0.788776287300000,0.203318846900000,0.539007170900000,0.589522264400000,0.000000000000000,0.000000000000000,2.120624569500000,0.436609749100000,0.546633491600000,-0.110023742500000
208,207,Sul,Rio Grande Do Sul,Atlântida - Pier,-29.784716000000000,-50.022554000000000,3,3,Right and left,Sand-bar,All surfers,2.000000000000000,3.000000000000000,1.000000000000000,3.000000000000000,0.787164326200000,0.204568697600000,0.539007170900000,0.589522264400000,0.000000000000000,0.000000000000000,2.120262459100000,0.436485755500000,0.546478252200000,-0.109992496700000
209,208,Sul,Rio Grande Do Sul,Capao da Canoa,-29.758676999999999,-50.010967000000001,3,3,Right and left,Sand-bar,All surfers,2.000000000000000,3.000000000000000,1.000000000000000,3.000000000000000,0.787878648500000,0.203569765000000,0.539007170900000,0.610459869700000,0.013430397400000,0.000000000000000,2.154345851500000,0.448156568200000,0.555332346200000,-0.107175778000000
210,209,Sul,Rio Grande Do Sul,Capao Novo,-29.686972000000001,-49.972558999999997,3,3,Right and left,Beach-break,All surfers,2.000000000000000,3.000000000000000,1.000000000000000,3.000000000000000,0.842874786700000,0.218884524100000,0.539007170900000,0.096844231700000,0.039662438600000,0.000325999500000,1.737599151500000,0.305454438600000,0.365424032500000,-0.059969593900000
211,210,Sul,Rio Grande Do Sul,Curumim,-29.625605000000000,-49.935744999999997,3,4,Right and left,Beach-break,Experienced surfers,2.000000000000000,4.000000000000000,0.000000000000000,3.000000000000000,0.859637720900000,0.287489018700000,0.297872371200000,0.071809603700000,0.039662438600000,0.011181301000000,1.567652454100000,0.247261402800000,0.292566606800000,-0.045305204000000
212,211,Sul,Rio Grande Do Sul,Itapeva,-29.372975000000000,-49.784109999999998,3,3,Right and left,Beach-break,All surfers,2.000000000000000,3.000000000000000,1.000000000000000,3.000000000000000,0.803929538700000,0.214382219900000,0.652482314000000,0.543696008400000,0.067212905900000,0.122415878800000,2.404118865700000,0.533683678700000,0.639354948200000,-0.105671269500000
213,212,Sul,Rio Grande Do Sul,Guarita,-29.357804999999999,-49.733997000000002,3,2,Right and left,Beach-break,All surfers,2.000000000000000,2.000000000000000,1.000000000000000,3.000000000000000,0.800397076400000,0.254334496500000,0.680851340900000,0.095849656300000,0.239241811800000,0.077979240000000,2.148653621900000,0.446207438700000,0.456084995200000,-0.009877556500000
214,213,Sul,Rio Grande Do Sul,Cal,-29.349421000000000,-49.729849999999999,3.5,3,Right and left,Beach-break,All surfers,2.000000000000000,3.000000000000000,1.000000000000000,3.500000000000000,0.802316704300000,0.255307421900000,0.741135040800000,0.095849656300000,0.240342570700000,0.074311733600000,2.209263127600000,0.466961305600000,0.481596841900000,-0.014635536300000
215,214,Sul,Rio Grande Do Sul,Ilha dos Lobos,-29.346876999999999,-49.704411999999998,5,2,Left,Reef-rocky,Pros or kamikaze only...,1.000000000000000,2.000000000000000,0.000000000000000,5.000000000000000,0.798179308300000,0.298863605000000,0.439716541200000,0.118551485000000,0.212610735600000,0.056884622600000,1.924806297700000,0.369557785900000,0.371536908300000,-0.001979122400000
216,215,Sul,Rio Grande Do Sul,Prainha,-29.342434999999998,-49.724497000000000,3.5,3,Right and left,Beach-break,Experienced surfers,2.000000000000000,3.000000000000000,0.000000000000000,3.500000000000000,0.800601928400000,0.260050068400000,0.500000241100000,0.118551485000000,0.225627719400000,0.069409002500000,1.974240444800000,0.386484993900000,0.387149219700000,-0.000664225800000
217,216,Sul,Rio Grande Do Sul,Saraiva,-29.340395999999998,-49.723241000000002,3.5,3,Right and left,Beach-break,Experienced surfers,2.000000000000000,3.000000000000000,0.000000000000000,3.500000000000000,0.802519302600000,0.260438937800000,0.500000241100000,0.118551485000000,0.215092573000000,0.068248320000000,1.964850859500000,0.383269818300000,0.387640330400000,-0.004370512100000
218,217,Sul,Rio Grande Do Sul,Molhes,-29.327311000000002,-49.712007999999997,3.5,3,Right and left,Beach-break,All surfers,2.000000000000000,3.000000000000000,1.000000000000000,3.500000000000000,0.806390272400000,0.270306192300000,0.741135040800000,0.095849656300000,0.159304873900000,0.057945132300000,2.130931168000000,0.440138927800000,0.482756811800000,-0.042617884000000
219,218,Sul,Rio Grande Do Sul,Passo de Torres,-29.324159000000002,-49.712415999999997,3.5,2,Right and left,Rivermouth,Experienced surfers,2.000000000000000,2.000000000000000,0.000000000000000,3.500000000000000,0.806847063800000,0.267419335300000,0.471631214200000,0.095849656300000,0.159765292600000,0.056675404500000,1.858187966700000,0.346746381000000,0.365632367700000,-0.018885986700000
220,219,Sul,Santa Catarina South,Gaivota,-29.164828000000000,-49.582157000000002,3,2,Right and left,Beach-break,Experienced surfers,2.000000000000000,2.000000000000000,0.000000000000000,3.000000000000000,0.844494080800000,0.353077837900000,0.241134799700000,0.021183984600000,0.002780792400000,0.000000000000000,1.462671495400000,0.211313892300000,0.263371920000000,-0.052058027700000
221,220,Sul,Santa Catarina South,Arroio do Silva,-28.943866000000000,-49.385604999999998,3.5,2,Right and left,Beach-break,Experienced surfers,2.000000000000000,2.000000000000000,0.000000000000000,3.500000000000000,0.827351663000000,0.395593743500000,0.329787526500000,0.014014799200000,0.085106404700000,0.000486579000000,1.652340715900000,0.276260301400000,0.309390931200000,-0.033130629800000
222,221,Sul,Santa Catarina South,Morro dos Conventos,-28.937256000000001,-49.329642999999997,3.5,3,Right and left,Beach-break,All surfers,2.000000000000000,3.000000000000000,1.000000000000000,3.500000000000000,0.863049703100000,0.321200270600000,0.570922326100000,0.026885503500000,0.189783687800000,0.000000000000000,1.971841491100000,0.385663545700000,0.401487375800000,-0.015823830100000
223,222,Sul,Santa Catarina South,Rincão,-28.833846999999999,-49.216003000000001,3.5,4,Right and left,Beach-break,Experienced surfers,2.000000000000000,4.000000000000000,0.000000000000000,3.500000000000000,0.818823140700000,0.243994227600000,0.301418499600000,0.038378238900000,0.000000000000000,0.060933431400000,1.463547538200000,0.211613866300000,0.264939632700000,-0.053325766400000
224,223,Sul,Santa Catarina South,Jaguaruna,-28.635157000000000,-48.948211999999998,3.5,3,Right and left,Beach-break,All surfers,2.000000000000000,3.000000000000000,1.000000000000000,3.500000000000000,0.847946161900000,0.106382224700000,0.542553299200000,0.054784755400000,0.000000000000000,0.161493831800000,1.713160273000000,0.297086094000000,0.371950487100000,-0.074864393100000
225,224,Sul,Santa Catarina South,Camacho,-28.615946000000001,-48.859506000000003,3,2,NA,Beach-break,All surfers,1.000000000000000,2.000000000000000,1.000000000000000,3.000000000000000,0.869299347000000,0.109859039400000,0.382978969700000,0.054784755400000,0.000000000000000,0.232878868000000,1.649800979500000,0.275390646600000,0.344787882000000,-0.069397235400000
226,225,Sul,Santa Catarina South,Cigana,-28.613534999999999,-48.845387000000002,3,3,Right and left,Beach-break,Experienced surfers,2.000000000000000,3.000000000000000,0.000000000000000,3.000000000000000,0.869597536300000,0.114931607300000,0.382978969700000,0.027479848800000,0.000000000000000,0.234565176500000,1.629553138600000,0.268457394300000,0.336107480600000,-0.067650086300000
227,226,Sul,Santa Catarina South,Cardozo,-28.607516000000000,-48.822994999999999,3.5,4,Right and left,Beach-break,All surfers,2.000000000000000,4.000000000000000,1.000000000000000,3.500000000000000,0.868528760800000,0.129012185800000,0.684397469200000,0.027479848800000,0.012095250400000,0.228533077100000,1.950046592100000,0.378200550800000,0.468320106700000,-0.090119555900000
228,227,Sul,Santa Catarina South,Cemiterio,-28.604341999999999,-48.811998000000003,5,1,Right,Point-break,Pros or kamikaze only...,1.000000000000000,1.000000000000000,0.000000000000000,5.000000000000000,0.869380444400000,0.138058785500000,0.411347514300000,0.027479848800000,0.033050173600000,0.220658672400000,1.699975439000000,0.292571351800000,0.352129192000000,-0.059557840200000
229,228,Sul,Santa Catarina South,Prainha do Farol,-28.600442000000001,-48.816654999999997,3,1,Right,Beach-break,All surfers,1.000000000000000,1.000000000000000,1.000000000000000,3.000000000000000,0.871580234800000,0.125384330600000,0.411347514300000,0.027479848800000,0.033611347200000,0.231044919700000,1.700448195400000,0.292733232800000,0.352091286900000,-0.059358054100000
230,229,Sul,Santa Catarina South,Ipoa,-28.536688999999999,-48.765521000000000,3,4,Right and left,Beach-break,All surfers,2.000000000000000,4.000000000000000,1.000000000000000,3.000000000000000,0.846657618600000,0.182432522400000,0.652482314000000,0.050445998900000,0.084005311700000,0.185984859200000,2.002008624800000,0.395993355700000,0.459768237000000,-0.063774881300000
231,230,Sul,Santa Catarina South,Teresa,-28.524982000000001,-48.762453000000001,3,3,Right and left,Beach-break,All surfers,2.000000000000000,3.000000000000000,1.000000000000000,3.000000000000000,0.842962797700000,0.187995614100000,0.624113769300000,0.050445998900000,0.084973733500000,0.180930921500000,1.971422835000000,0.385520189800000,0.446240709500000,-0.060720519700000
232,231,Sul,Santa Catarina South,Praia de Cima,-28.497350000000001,-48.748752000000003,3.5,2,Right and left,Beach-break,All surfers,2.000000000000000,2.000000000000000,1.000000000000000,3.500000000000000,0.822182374000000,0.203203831100000,0.684397469200000,0.050445998900000,0.123575662200000,0.168374360100000,2.052179695500000,0.413172900600000,0.464312845400000,-0.051139944800000
233,232,Sul,Santa Catarina South,Laguna,-28.473973000000001,-48.762645999999997,3.5,3,Right and left,Beach-break,All surfers,2.000000000000000,3.000000000000000,1.000000000000000,3.500000000000000,0.811200330600000,0.223667790800000,0.684397469200000,0.050445998900000,0.172955020500000,0.163323754200000,2.105990364200000,0.431598714200000,0.466212581500000,-0.034613867300000
234,233,Sul,Santa Catarina South,Cavalinho,-28.419032000000001,-48.744278000000001,3.5,3,Right,Point-break,Experienced surfers,1.000000000000000,3.000000000000000,0.000000000000000,3.500000000000000,0.814692019700000,0.229883878600000,0.145390298400000,0.512867655400000,0.140190962800000,0.151632724600000,1.994657539500000,0.393476202000000,0.432529560900000,-0.039053358900000
235,234,Sul,Santa Catarina South,Itapirubá,-28.342309000000000,-48.707799999999999,3.5,4,Right and left,Beach-break,All surfers,2.000000000000000,4.000000000000000,1.000000000000000,3.500000000000000,0.836739599100000,0.184896453600000,0.570922326100000,0.462421656500000,0.010206743600000,0.174018344800000,2.239205123700000,0.477214024100000,0.593094158200000,-0.115880134100000
236,235,Sul,Santa Catarina South,Itapirubá Norte,-28.336776000000000,-48.704709999999999,3.5,3,Right and left,Beach-break,All surfers,2.000000000000000,3.000000000000000,1.000000000000000,3.500000000000000,0.835577860200000,0.181739349600000,0.570922326100000,0.462421656500000,0.011695926700000,0.173702776200000,2.236059895300000,0.476137037100000,0.591107351200000,-0.114970314100000
237,236,Sul,Santa Catarina South,Castelinho,-28.256232000000001,-48.672694999999997,4,4,Right and left,Beach-break,Experienced surfers,2.000000000000000,4.000000000000000,0.000000000000000,4.000000000000000,0.787166864500000,0.156983004700000,0.475177342600000,0.000000000000000,0.126431607300000,0.153061867000000,1.698820686100000,0.292175942100000,0.311600818700000,-0.019424876600000
238,237,Sul,Santa Catarina South,Praia da Vila,-28.241149000000000,-48.653877000000001,4,4,Right and left,Sand-bar,Experienced surfers,2.000000000000000,4.000000000000000,0.000000000000000,4.000000000000000,0.779678606400000,0.122756181800000,0.475177342600000,0.000000000000000,0.129778430300000,0.169646838400000,1.677037399500000,0.284716923500000,0.300827352000000,-0.016110428500000
239,238,Sul,Santa Catarina South,Ribanceira,-28.191742000000001,-48.661344000000000,3,2,Right and left,Sand-bar,All surfers,2.000000000000000,2.000000000000000,1.000000000000000,3.000000000000000,0.783470177100000,0.144765042300000,0.709219885500000,0.000000000000000,0.215414033500000,0.132630369900000,1.985499508300000,0.390340315000000,0.396354748700000,-0.006014433700000
240,239,Sul,Santa Catarina South,Ibiraquera,-28.153732000000002,-48.645895000000003,4,4,Right and left,Point-break,Experienced surfers,2.000000000000000,4.000000000000000,0.000000000000000,4.000000000000000,0.786622013300000,0.129253533400000,0.617021512600000,0.000000000000000,0.240595836900000,0.155537023400000,1.929029919600000,0.371004035700000,0.361350183600000,0.009653852100000
241,240,Sul,Santa Catarina South,Rosa Sul,-28.135401999999999,-48.642691999999997,3.5,4,Right and left,Beach-break,All surfers,2.000000000000000,4.000000000000000,1.000000000000000,3.500000000000000,0.818200856300000,0.130521266500000,0.769503585400000,0.010950323200000,0.262409590600000,0.158661020600000,2.150246642600000,0.446752919800000,0.446835734300000,-0.000082814500000
242,241,Sul,Santa Catarina South,Rosa Norte,-28.124375000000001,-48.637675999999999,3.5,2,Right and left,Beach-break,All surfers,2.000000000000000,2.000000000000000,1.000000000000000,3.500000000000000,0.816866610000000,0.134809124800000,0.769503585400000,0.010950323200000,0.287239660900000,0.161654338100000,2.181023642400000,0.457291559800000,0.449385227600000,0.007906332200000
243,242,Sul,Santa Catarina South,Vermelha,-28.114457999999999,-48.635573000000001,3.5,2,Left,Beach-break,Experienced surfers,1.000000000000000,2.000000000000000,0.000000000000000,3.500000000000000,0.819414546500000,0.144898080600000,0.287233986100000,0.010950323200000,0.335463917900000,0.158783357500000,1.756744211800000,0.312010077500000,0.246819347600000,0.065190729900000
244,243,Sul,Santa Catarina South,Ouvidor,-28.105449000000000,-48.635272999999998,2,2,Right and left,Beach-break,Beginners wave,2.000000000000000,2.000000000000000,0.000000000000000,2.000000000000000,0.817417478600000,0.159123203100000,0.347517686000000,0.010950323200000,0.338920114200000,0.151940730100000,1.825869535200000,0.335679925100000,0.274972195700000,0.060707729400000
245,244,Sul,Santa Catarina South,Barrinha,-28.085384000000001,-48.630896000000000,3.5,3,Right and left,Beach-break,NA,2.000000000000000,3.000000000000000,1.000000000000000,3.500000000000000,0.811002822600000,0.180302158900000,0.797872612300000,0.010950323200000,0.262243422100000,0.150860064500000,2.213231403600000,0.468320120100000,0.473909012100000,-0.005588892000000
246,245,Sul,Santa Catarina South,Ferrugem,-28.077736000000002,-48.626604000000000,3.5,4,Right and left,Sand-bar,All surfers,2.000000000000000,4.000000000000000,1.000000000000000,3.500000000000000,0.813571126200000,0.180045109500000,0.797872612300000,0.010950323200000,0.258416630700000,0.160946090100000,2.221801892000000,0.471254821000000,0.479223819100000,-0.007968998100000
247,246,Sul,Santa Catarina South,Praia do Silveira,-28.039069000000001,-48.606862999999997,4,4,Right,Point-break,Pros or kamikaze only...,1.000000000000000,4.000000000000000,0.000000000000000,4.000000000000000,0.828242219700000,0.183126474400000,0.290780114500000,0.010950323200000,0.207362115500000,0.192861183600000,1.713322430900000,0.297141620000000,0.283122308900000,0.014019311100000
248,247,Sul,Santa Catarina South,Garopaba Centro,-28.021577000000001,-48.619447999999998,3,2,Right and left,Beach-break,All surfers,2.000000000000000,2.000000000000000,1.000000000000000,3.000000000000000,0.819635241900000,0.208536301600000,0.624113769300000,0.016425484800000,0.204531997300000,0.175693941500000,2.048936736400000,0.412062448700000,0.428215975500000,-0.016153526800000
249,248,Sul,Santa Catarina South,Siriu,-27.976248999999999,-48.627999000000003,3.5,3,Right and left,Beach-break,All surfers,2.000000000000000,3.000000000000000,1.000000000000000,3.500000000000000,0.825991753300000,0.227707733300000,0.656028442300000,0.036384611100000,0.154278819800000,0.448852118600000,2.349243478400000,0.514893284800000,0.578503646200000,-0.063610361400000
250,249,Sul,Santa Catarina South,Gamboa,-27.958926999999999,-48.624662000000001,3.5,1,Right and left,Beach-break,All surfers,2.000000000000000,1.000000000000000,1.000000000000000,3.500000000000000,0.829327531600000,0.217898593500000,0.627659897700000,0.036384611100000,0.202674795900000,0.637916803200000,2.551862233000000,0.584273864900000,0.644620109800000,-0.060346244900000
251,250,Sul,Santa Catarina South,Guarda do embau,-27.905540999999999,-48.586779000000000,4,3,Left,Rivermouth,Experienced surfers,1.000000000000000,3.000000000000000,0.000000000000000,4.000000000000000,0.850133069300000,0.183866183900000,0.262411569800000,0.078541879600000,0.267480037100000,0.757358737800000,2.399791477500000,0.532201897300000,0.551643740900000,-0.019441843600000
252,251,Sul,Santa Catarina South,Costão da Pinheira,-27.881077000000001,-48.586542999999999,3.5,1,Right,Point-break,Experienced surfers,1.000000000000000,1.000000000000000,0.000000000000000,3.500000000000000,0.859299955100000,0.243175878900000,0.145390298400000,0.078541879600000,0.289282688800000,0.760917661900000,2.376608362700000,0.524263550400000,0.532358004900000,-0.008094454500000
253,252,Sul,Florianopolis,Naufragados,-27.834740000000000,-48.566747999999997,5,3,Right,Beach-break,Pros or kamikaze only...,1.000000000000000,3.000000000000000,0.000000000000000,5.000000000000000,0.843905537000000,0.285616767800000,0.382978969700000,0.104722506100000,0.289973409100000,0.587593770000000,2.494790959700000,0.564731557200000,0.582727655000000,-0.017996097800000
254,253,Sul,Santa Catarina South,Solidao - Caladinho,-27.793519000000000,-48.533456000000001,3.5,3,Right,Point-break,Experienced surfers,1.000000000000000,3.000000000000000,0.000000000000000,3.500000000000000,0.847714980500000,0.268366367700000,0.230496414600000,0.140658274400000,0.254013461700000,0.274688652400000,2.015938151300000,0.400763095000000,0.392856158800000,0.007906936200000
255,254,Sul,Santa Catarina South,Praia dos Açores,-27.784758000000000,-48.525989000000003,3,3,Right and left,Beach-break,All surfers,2.000000000000000,3.000000000000000,1.000000000000000,3.000000000000000,0.850277155000000,0.265742771000000,0.680851340900000,0.140658274400000,0.252809738500000,0.258860783500000,2.449200063300000,0.549120352600000,0.579114840000000,-0.029994487400000
256,255,Sul,Florianopolis,Lagoinha do Leste,-27.773575999999998,-48.486528000000000,3.5,4,Right and left,Beach-break,All surfers,2.000000000000000,4.000000000000000,1.000000000000000,3.500000000000000,0.837319882500000,0.243782439200000,0.741135040800000,0.205013685100000,0.176091188400000,0.226006967900000,2.429349203900000,0.542323034400000,0.603494446200000,-0.061171411800000
257,256,Sul,Florianopolis,Matadeiro,-27.755140000000001,-48.498522999999999,3.5,4,Right and left,Beach-break,Experienced surfers,2.000000000000000,4.000000000000000,0.000000000000000,3.500000000000000,0.824098277100000,0.248381928200000,0.528368785800000,0.140658274400000,0.149636584600000,0.205424232200000,2.096568082300000,0.428372342700000,0.472169967100000,-0.043797624400000
258,257,Sul,Florianopolis,Armação,-27.741619000000000,-48.508114999999997,3,2,Right and left,Beach-break,All surfers,2.000000000000000,2.000000000000000,1.000000000000000,3.000000000000000,0.795934178900000,0.257273617300000,0.709219885500000,0.140658274400000,0.183196977300000,0.194909386100000,2.281192319500000,0.491591252000000,0.536932171900000,-0.045340919900000
259,258,Sul,Florianopolis,Caldeirao,-27.723690000000001,-48.504595999999999,3.5,3,Left,Beach-break,Experienced surfers,1.000000000000000,3.000000000000000,0.000000000000000,3.500000000000000,0.779121254900000,0.281846133600000,0.287233986100000,0.603079930900000,0.284537693800000,0.185598121400000,2.421417120700000,0.539606935700000,0.553602071100000,-0.013995135400000
260,259,Sul,Florianopolis,Morro das Pedras,-27.715522000000000,-48.502257000000000,3,4,Right and left,Sand-bar,Experienced surfers,2.000000000000000,4.000000000000000,0.000000000000000,3.000000000000000,0.763659628400000,0.290633769200000,0.439716541200000,0.667435341600000,0.316407738100000,0.188190638500000,2.666043657000000,0.623371792700000,0.644812377300000,-0.021440584600000
261,260,Sul,Florianopolis,Campeche Rights,-27.693864000000001,-48.482686999999999,4,2,Right,Sand-bar,Experienced surfers,1.000000000000000,2.000000000000000,0.000000000000000,4.000000000000000,0.751225573200000,0.279584668200000,0.319149141400000,0.667435341600000,0.316059708300000,0.175745185700000,2.509199618400000,0.569665360600000,0.577721362800000,-0.008056002200000
262,261,Sul,Florianopolis,Riozinho,-27.685523000000000,-48.479598000000003,5,3,Right and left,Beach-break,Experienced surfers,2.000000000000000,3.000000000000000,0.000000000000000,5.000000000000000,0.744924246000000,0.269660812600000,0.652482314000000,0.667435341600000,0.317706542500000,0.167690250800000,2.819899507500000,0.676055011300000,0.710214728900000,-0.034159717600000
263,262,Sul,Florianopolis,Joaquina,-27.629588999999999,-48.448768000000001,4,4,Left,Sand-bar,Experienced surfers,1.000000000000000,4.000000000000000,0.000000000000000,4.000000000000000,0.708912065500000,0.231078477500000,0.262411569800000,0.272275017000000,0.259947625600000,0.166818096800000,1.901442852200000,0.361557690300000,0.341227143400000,0.020330546900000
264,263,Sul,Florianopolis,Praia Mole,-27.602475999999999,-48.432583999999999,3.5,3,Right and left,Sand-bar,All surfers,2.000000000000000,3.000000000000000,1.000000000000000,3.500000000000000,0.743642016700000,0.231370052800000,0.656028442300000,0.230236684600000,0.183041826200000,0.176349625600000,2.220668648200000,0.470866776400000,0.511051733800000,-0.040184957400000
265,264,Sul,Florianopolis,Galheta,-27.593482000000002,-48.425224000000000,3.5,4,Right and left,Beach-break,All surfers,2.000000000000000,4.000000000000000,1.000000000000000,3.500000000000000,0.762328013300000,0.234916833400000,0.656028442300000,0.230236684600000,0.171759224000000,0.170498104100000,2.225767301700000,0.472612654000000,0.518074501200000,-0.045461847200000
266,265,Sul,Florianopolis,Barra da Lagoa,-27.572818000000002,-48.424376000000002,3,3,Right and left,Beach-break,Beginners wave,2.000000000000000,3.000000000000000,0.000000000000000,3.000000000000000,0.762706028600000,0.239904462300000,0.382978969700000,0.230236684600000,0.184518453500000,0.194185061200000,1.994529659900000,0.393432413500000,0.413471209700000,-0.020038796200000
267,266,Sul,Florianopolis,Mocambique,-27.525323000000000,-48.410567999999998,3.5,4,Right and left,Beach-break,All surfers,2.000000000000000,4.000000000000000,1.000000000000000,3.500000000000000,0.777342175900000,0.243124479800000,0.712766013900000,0.364759348300000,0.174206021200000,0.205575887700000,2.477773926800000,0.558904596100000,0.625062673900000,-0.066158077800000
268,267,Sul,Santa Catarina South,Ponta das Aranhas,-27.482099999999999,-48.380892000000003,3.5,4,Right and left,Beach-break,All surfers,2.000000000000000,4.000000000000000,1.000000000000000,3.500000000000000,0.743380885600000,0.229643830600000,0.656028442300000,0.373167014800000,0.133535876700000,0.133160327400000,2.268916377400000,0.487387732000000,0.552959470100000,-0.065571738100000
269,268,Sul,Florianopolis,Santinho,-27.457940000000001,-48.372630999999998,3.5,4,Right and left,Beach-break,Experienced surfers,2.000000000000000,4.000000000000000,0.000000000000000,3.500000000000000,0.725015413300000,0.222006689500000,0.471631214200000,0.373167014800000,0.125312890700000,0.104321023200000,2.021454245700000,0.402651912400000,0.450395851400000,-0.047743939000000
270,269,Sul,Florianopolis,Canasvieiras,-27.430966000000002,-48.479661999999998,3.5,1,Right,Sand-bar,All surfers,1.000000000000000,1.000000000000000,1.000000000000000,3.500000000000000,0.751432954100000,0.255760206700000,0.528368785800000,0.205291352600000,0.357709195000000,0.142596447000000,2.241158941200000,0.477883049000000,0.444954863400000,0.032928185600000
271,270,Sul,Florianopolis,Praia do Forte,-27.430747000000000,-48.519658999999997,3.5,1,Right,Point-break,All surfers,1.000000000000000,1.000000000000000,1.000000000000000,3.500000000000000,0.804180367100000,0.313118745600000,0.358156071100000,0.145389069200000,0.435720435800000,0.273321166500000,2.329885855300000,0.508264860300000,0.449548753000000,0.058716107300000
272,271,Sul,Florianopolis,Ingleses,-27.429832999999999,-48.390569999999997,3,2,Right and left,Beach-break,All surfers,2.000000000000000,2.000000000000000,1.000000000000000,3.000000000000000,0.717357257800000,0.206161035100000,0.709219885500000,0.381574681200000,0.120267225600000,0.098194473300000,2.232774558500000,0.475012074300000,0.543153571300000,-0.068141497000000
273,272,Sul,Florianopolis,Praia Brava,-27.400804000000001,-48.413401000000000,3.5,3,Right and left,Beach-break,Experienced surfers,2.000000000000000,3.000000000000000,0.000000000000000,3.500000000000000,0.719741234000000,0.209685472200000,0.500000241100000,0.381574681200000,0.104224568900000,0.073018723200000,1.988244920600000,0.391280397200000,0.445199486200000,-0.053919089000000
274,273,Sul,Santa Catarina South,Praia Brava,-27.396440999999999,-48.414130000000000,3,4,Right and left,Sand-bar,All surfers,2.000000000000000,4.000000000000000,1.000000000000000,3.000000000000000,0.721470757300000,0.211476577300000,0.680851340900000,0.381574681200000,0.101920385600000,0.066423102700000,2.163716845000000,0.451365377600000,0.521413438900000,-0.070048061300000
275,274,Sul,Florianopolis,Lambe lambe,-27.387601000000000,-48.433185000000002,4,1,Right,Point-break,Experienced surfers,1.000000000000000,1.000000000000000,0.000000000000000,4.000000000000000,0.723346493700000,0.219024570800000,0.290780114500000,0.221829018100000,0.112023025300000,0.050151473900000,1.617154696300000,0.264211927800000,0.282767062800000,-0.018555135000000
276,275,Sul,Florianopolis,Ponta Do Rapa,-27.380837000000000,-48.420524999999998,4,1,Right,Reef-rocky,Pros or kamikaze only...,1.000000000000000,1.000000000000000,0.000000000000000,4.000000000000000,0.725130550200000,0.221030333600000,0.290780114500000,0.221829018100000,0.108415556900000,0.042000111200000,1.609185684500000,0.261483184100000,0.280897236400000,-0.019414052300000
277,276,Sul,Santa Catarina North,Tingua,-27.368165999999999,-48.532501000000003,3.5,1,Left,Beach-break,Experienced surfers,1.000000000000000,1.000000000000000,0.000000000000000,3.500000000000000,0.843498246800000,0.338129967300000,0.145390298400000,0.118712700900000,0.281666197200000,0.214165331800000,1.941562742400000,0.375295516600000,0.349115926900000,0.026179589700000
278,277,Sul,Santa Catarina North,Palmas,-27.321984000000000,-48.535451999999999,3.5,2,Right and left,Beach-break,Experienced surfers,2.000000000000000,2.000000000000000,0.000000000000000,3.500000000000000,0.852954554800000,0.375396805500000,0.329787526500000,0.146952878200000,0.277427363700000,0.161034610500000,2.143553739200000,0.444461140300000,0.437528204200000,0.006932936100000
279,278,Sul,Santa Catarina North,Mariscal,-27.166504000000000,-48.494833000000000,3.5,3,Right and left,Beach-break,All surfers,2.000000000000000,3.000000000000000,1.000000000000000,3.500000000000000,0.795440903100000,0.481819611100000,0.627659897700000,0.162905908900000,0.289961431700000,0.416413296700000,2.774201049200000,0.660406975400000,0.702517993900000,-0.042111018500000
280,279,Sul,Santa Catarina North,Quatro Ilhas,-27.156195000000000,-48.482923999999997,3.5,3,Right,Point-break,Experienced surfers,1.000000000000000,3.000000000000000,0.000000000000000,3.500000000000000,0.797649308600000,0.458109751100000,0.145390298400000,0.162905908900000,0.283459627500000,0.427172739200000,2.274687633700000,0.489363921800000,0.491160213000000,-0.001796291200000
281,280,Sul,Santa Catarina North,Bombinhas,-27.148367000000000,-48.489531999999997,2,2,Right and left,Beach-break,Beginners wave,2.000000000000000,2.000000000000000,0.000000000000000,2.000000000000000,0.797520654200000,0.474786556600000,0.205673998300000,0.162905908900000,0.285780839700000,0.409369243400000,2.336037201100000,0.510371200100000,0.516466112200000,-0.006094912100000
282,281,Sul,Santa Catarina North,Bombas,-27.140118000000001,-48.506784000000003,3,2,Right and left,Beach-break,All surfers,2.000000000000000,2.000000000000000,1.000000000000000,3.000000000000000,0.777329739500000,0.503546872100000,0.567376197800000,0.111406494800000,0.298329469700000,0.395276395200000,2.653265169100000,0.618996191300000,0.647084433000000,-0.028088241700000
283,282,Sul,Santa Catarina North,Meia Praia,-27.104825000000002,-48.609009000000000,3,3,Right and left,Sand-bar,All surfers,2.000000000000000,3.000000000000000,1.000000000000000,3.000000000000000,0.750452594100000,0.599508575300000,0.595744742400000,0.147501087100000,0.279676932500000,0.291314506200000,2.664198437600000,0.622739953900000,0.659768090100000,-0.037028136200000
