OID_,Join_Count,TARGET_FID,id,region,zone,name,lat,long,quality,frequency,direction,type,experience,numerical_direction,numerical_frequency,numerical_experience,numerical_quality,BUFF_DIST,ORIG_FID,datasetID,FAMILY,GENUS,scientific,VERIF,REP_AREA_K,eventDate,Shape_Length,Shape_Area
1,0,1,0,Sul,NA,Cardoso,-28.585450000000002,-48.798270000000002,NA,NA,NA,NA,NA,1.000000000000000,1.000000000000000,1.000000000000000,1.000000000000000,5000.000000000000000,1,,,,,,,,31415.926535897931899,78539816.339744821190834
2,0,2,1,Sul,NA,Ravena,-28.454780000000000,-48.751339999999999,NA,NA,NA,NA,NA,1.000000000000000,1.000000000000000,1.000000000000000,1.000000000000000,5000.000000000000000,2,,,,,,,,31415.926535897931899,78539816.339744821190834
3,0,3,2,Sul,NA,Praia da Vila Imbituba,-28.252472220000001,-48.661850000000001,NA,NA,NA,NA,NA,1.000000000000000,1.000000000000000,1.000000000000000,1.000000000000000,5000.000000000000000,3,,,,,,,,31415.926535897931899,78539816.339744821190834
4,0,4,3,Sul,NA,Praia do Porto Imbituba,-28.220199000000001,-48.663214000000004,NA,NA,NA,NA,NA,1.000000000000000,1.000000000000000,1.000000000000000,1.000000000000000,5000.000000000000000,4,,,,,,,,31415.926535897931899,78539816.339744821190834
5,0,5,4,Sul,NA,Ponta da Pinheira,-27.878140999999999,-48.576442000000000,NA,NA,NA,NA,NA,1.000000000000000,1.000000000000000,1.000000000000000,1.000000000000000,5000.000000000000000,5,,,,,,,,31415.926535897931899,78539816.339744821190834
6,0,6,5,Sul,NA,Mocambique,-27.518350000000002,-48.392183330000002,NA,NA,NA,NA,NA,1.000000000000000,1.000000000000000,1.000000000000000,1.000000000000000,5000.000000000000000,6,,,,,,,,31415.926535897931899,78539816.339744821190834
7,0,7,6,Sul,NA,Ponta das Canas,-27.394818999999998,-48.435709000000003,NA,NA,NA,NA,NA,1.000000000000000,1.000000000000000,1.000000000000000,1.000000000000000,5000.000000000000000,7,,,,,,,,31415.926535897931899,78539816.339744821190834
8,0,8,7,Sul,NA,Itagua&ccedil;u,-26.184728000000000,-48.526327999999999,NA,NA,NA,NA,NA,1.000000000000000,1.000000000000000,1.000000000000000,1.000000000000000,5000.000000000000000,8,,,,,,,,31415.926535897931899,78539816.339744821190834
9,0,9,8,Sul,NA,Caioba,-25.838000000000001,-48.534999999999997,NA,NA,NA,NA,NA,1.000000000000000,1.000000000000000,1.000000000000000,1.000000000000000,5000.000000000000000,9,,,,,,,,31415.926535897931899,78539816.339744821190834
10,0,10,9,Sudeste,NA,Ilha Comprida,-24.783999999999999,-47.594999999999999,NA,NA,NA,NA,NA,1.000000000000000,1.000000000000000,1.000000000000000,1.000000000000000,5000.000000000000000,10,,,,,,,,31415.926535897931899,78539816.339744821190834
11,0,11,10,Sudeste,NA,Iguape,-24.753211000000000,-47.542059000000002,NA,NA,NA,NA,NA,1.000000000000000,1.000000000000000,1.000000000000000,1.000000000000000,5000.000000000000000,11,,,,,,,,31415.926535897931899,78539816.339744821190834
12,0,12,11,Sudeste,NA,Peruibe,-24.324427000000000,-46.978886000000003,NA,NA,NA,NA,NA,1.000000000000000,1.000000000000000,1.000000000000000,1.000000000000000,5000.000000000000000,12,,,,,,,,31415.926535897931899,78539816.339744821190834
13,0,13,12,Sudeste,NA,Praia dos Pescadores,-24.194862000000001,-46.798881999999999,NA,NA,NA,NA,NA,1.000000000000000,1.000000000000000,1.000000000000000,1.000000000000000,5000.000000000000000,13,,,,,,,,31415.926535897931899,78539816.339744821190834
14,0,14,13,Sudeste,NA,Itanhaem,-24.151427000000002,-46.707858000000002,NA,NA,NA,NA,NA,1.000000000000000,1.000000000000000,1.000000000000000,1.000000000000000,5000.000000000000000,14,,,,,,,,31415.926535897931899,78539816.339744821190834
15,0,15,14,Sudeste,NA,Praia Grande,-24.028497000000002,-46.438310000000001,NA,NA,NA,NA,NA,1.000000000000000,1.000000000000000,1.000000000000000,1.000000000000000,5000.000000000000000,15,,,,,,,,31415.926535897931899,78539816.339744821190834
16,0,16,15,Sudeste,NA,Praia do Forte dos Andradas,-24.028369000000001,-46.288159000000000,NA,NA,NA,NA,NA,1.000000000000000,1.000000000000000,1.000000000000000,1.000000000000000,5000.000000000000000,16,,,,,,,,31415.926535897931899,78539816.339744821190834
17,0,17,16,Sudeste,NA,Praia do Forte dos Andradas,-24.025659999999998,-46.285460000000000,NA,NA,NA,NA,NA,1.000000000000000,1.000000000000000,1.000000000000000,1.000000000000000,5000.000000000000000,17,,,,,,,,31415.926535897931899,78539816.339744821190834
18,0,18,17,Sudeste,NA,Praia da Ponta Grossa,-24.024816000000001,-46.314497000000003,NA,NA,NA,NA,NA,1.000000000000000,1.000000000000000,1.000000000000000,1.000000000000000,5000.000000000000000,18,,,,,,,,31415.926535897931899,78539816.339744821190834
19,0,19,18,Sudeste,NA,Itaipu,-24.019545000000001,-46.386795999999997,NA,NA,NA,NA,NA,1.000000000000000,1.000000000000000,1.000000000000000,1.000000000000000,5000.000000000000000,19,,,,,,,,31415.926535897931899,78539816.339744821190834
20,0,20,19,Sudeste,NA,Guaiuba,-24.017081999999998,-46.295202000000003,NA,NA,NA,NA,NA,1.000000000000000,1.000000000000000,1.000000000000000,1.000000000000000,5000.000000000000000,20,,,,,,,,31415.926535897931899,78539816.339744821190834
21,0,21,20,Sudeste,NA,Santos,-24.015000000000001,-46.353999999999999,NA,NA,NA,NA,NA,1.000000000000000,1.000000000000000,1.000000000000000,1.000000000000000,5000.000000000000000,21,,,,,,,,31415.926535897931899,78539816.339744821190834
22,0,22,21,Sudeste,NA,Morro do Maluf,-23.997560000000000,-46.251593999999997,NA,NA,NA,NA,NA,1.000000000000000,1.000000000000000,1.000000000000000,1.000000000000000,5000.000000000000000,22,,,,,,,,31415.926535897931899,78539816.339744821190834
23,0,23,22,Sudeste,NA,Praia da Enseada,-23.990651000000000,-46.209406000000001,NA,NA,NA,NA,NA,1.000000000000000,1.000000000000000,1.000000000000000,1.000000000000000,5000.000000000000000,23,,,,,,,,31415.926535897931899,78539816.339744821190834
24,0,24,23,Sudeste,NA,Embare,-23.980865999999999,-46.317684000000000,NA,NA,NA,NA,NA,1.000000000000000,1.000000000000000,1.000000000000000,1.000000000000000,5000.000000000000000,24,,,,,,,,31415.926535897931899,78539816.339744821190834
25,0,25,24,Sudeste,NA,Gonzaga,-23.974027000000000,-46.330098000000000,NA,NA,NA,NA,NA,1.000000000000000,1.000000000000000,1.000000000000000,1.000000000000000,5000.000000000000000,25,,,,,,,,31415.926535897931899,78539816.339744821190834
26,0,26,25,Sudeste,NA,Pereque,-23.927582999999998,-46.178826000000001,NA,NA,NA,NA,NA,1.000000000000000,1.000000000000000,1.000000000000000,1.000000000000000,5000.000000000000000,26,,,,,,,,31415.926535897931899,78539816.339744821190834
27,0,27,26,Sudeste,NA,Praia Preta,-23.874700000000001,-46.138959000000000,NA,NA,NA,NA,NA,1.000000000000000,1.000000000000000,1.000000000000000,1.000000000000000,5000.000000000000000,27,,,,,,,,31415.926535897931899,78539816.339744821190834
28,0,28,27,Sudeste,NA,Praia da Bertioga,-23.846986000000001,-46.126967999999998,NA,NA,NA,NA,NA,1.000000000000000,1.000000000000000,1.000000000000000,1.000000000000000,5000.000000000000000,28,,,,,,,,31415.926535897931899,78539816.339744821190834
29,0,29,28,Sudeste,NA,Maresias,-23.793693260000001,-45.559764340000001,NA,NA,NA,NA,NA,1.000000000000000,1.000000000000000,1.000000000000000,1.000000000000000,5000.000000000000000,29,,,,,,,,31415.926535897931899,78539816.339744821190834
30,0,30,29,Sudeste,NA,Canto de Moreira,-23.793056000000000,-45.587394000000003,NA,NA,NA,NA,NA,1.000000000000000,1.000000000000000,1.000000000000000,1.000000000000000,5000.000000000000000,30,,,,,,,,31415.926535897931899,78539816.339744821190834
31,0,31,30,Sudeste,NA,Itaguere,-23.786995000000001,-45.971372000000002,NA,NA,NA,NA,NA,1.000000000000000,1.000000000000000,1.000000000000000,1.000000000000000,5000.000000000000000,31,,,,,,,,31415.926535897931899,78539816.339744821190834
32,0,32,31,Sudeste,NA,Boicucanga,-23.784431000000001,-45.631354999999999,NA,NA,NA,NA,NA,1.000000000000000,1.000000000000000,1.000000000000000,1.000000000000000,5000.000000000000000,32,,,,,,,,31415.926535897931899,78539816.339744821190834
33,0,33,32,Sudeste,NA,Praia de Baleia,-23.775839000000001,-45.683985999999997,NA,NA,NA,NA,NA,1.000000000000000,1.000000000000000,1.000000000000000,1.000000000000000,5000.000000000000000,33,,,,,,,,31415.926535897931899,78539816.339744821190834
34,0,34,33,Sudeste,NA,Barra do Sahy,-23.774384999999999,-45.697569999999999,NA,NA,NA,NA,NA,1.000000000000000,1.000000000000000,1.000000000000000,1.000000000000000,5000.000000000000000,34,,,,,,,,31415.926535897931899,78539816.339744821190834
35,0,35,34,Sudeste,NA,Praia Preta,-23.773009999999999,-45.715814999999999,NA,NA,NA,NA,NA,1.000000000000000,1.000000000000000,1.000000000000000,1.000000000000000,5000.000000000000000,35,,,,,,,,31415.926535897931899,78539816.339744821190834
36,0,36,35,Sudeste,NA,Bananas Point,-23.771605000000001,-45.706209999999999,NA,NA,NA,NA,NA,1.000000000000000,1.000000000000000,1.000000000000000,1.000000000000000,5000.000000000000000,36,,,,,,,,31415.926535897931899,78539816.339744821190834
37,0,37,36,Sudeste,NA,Praia do Juquei,-23.768115000000002,-45.745452999999998,NA,NA,NA,NA,NA,1.000000000000000,1.000000000000000,1.000000000000000,1.000000000000000,5000.000000000000000,37,,,,,,,,31415.926535897931899,78539816.339744821190834
38,0,38,37,Sudeste,NA,Barra do Una,-23.763818000000001,-45.762779999999999,NA,NA,NA,NA,NA,1.000000000000000,1.000000000000000,1.000000000000000,1.000000000000000,5000.000000000000000,38,,,,,,,,31415.926535897931899,78539816.339744821190834
39,0,39,38,Sudeste,NA,Praia da Boracéia,-23.758372999999999,-45.828777000000002,NA,NA,NA,NA,NA,1.000000000000000,1.000000000000000,1.000000000000000,1.000000000000000,5000.000000000000000,39,,,,,,,,31415.926535897931899,78539816.339744821190834
40,0,40,39,Sudeste,NA,Praia Dura,-23.496058000000001,-45.171014000000000,NA,NA,NA,NA,NA,1.000000000000000,1.000000000000000,1.000000000000000,1.000000000000000,5000.000000000000000,40,,,,,,,,31415.926535897931899,78539816.339744821190834
41,2,41,40,Sudeste,NA,Pereque-Acu,-23.424565000000001,-45.062697000000000,NA,NA,NA,NA,NA,1.000000000000000,1.000000000000000,1.000000000000000,1.000000000000000,5000.000000000000000,41,443.000000000000000,Cymodoceaceae,Halodule,Halodule emarginata,Not reported,0.000000000000000,Not reported,31415.926535897931899,78539816.339744821190834
42,0,42,41,Sudeste,NA,Itamambuca,-23.406683000000001,-45.008741000000001,NA,NA,NA,NA,NA,1.000000000000000,1.000000000000000,1.000000000000000,1.000000000000000,5000.000000000000000,42,,,,,,,,31415.926535897931899,78539816.339744821190834
43,0,43,42,Sudeste,NA,Praia da Fazenda,-23.361352000000000,-44.859766000000000,NA,NA,NA,NA,NA,1.000000000000000,1.000000000000000,1.000000000000000,1.000000000000000,5000.000000000000000,43,,,,,,,,31415.926535897931899,78539816.339744821190834
44,0,44,43,Sudeste,NA,Aventureiro,-23.184405999999999,-44.315804000000000,NA,NA,NA,NA,NA,1.000000000000000,1.000000000000000,1.000000000000000,1.000000000000000,5000.000000000000000,44,,,,,,,,31415.926535897931899,78539816.339744821190834
45,0,45,44,Sudeste,NA,Praia do Leste,-23.179746000000002,-44.274093999999998,NA,NA,NA,NA,NA,1.000000000000000,1.000000000000000,1.000000000000000,1.000000000000000,5000.000000000000000,45,,,,,,,,31415.926535897931899,78539816.339744821190834
46,0,46,45,Sudeste,NA,Praia do Sul,-23.178656000000000,-44.296756999999999,NA,NA,NA,NA,NA,1.000000000000000,1.000000000000000,1.000000000000000,1.000000000000000,5000.000000000000000,46,,,,,,,,31415.926535897931899,78539816.339744821190834
47,0,47,46,Sudeste,NA,Praia do Meio,-23.066913000000000,-43.549809000000003,NA,NA,NA,NA,NA,1.000000000000000,1.000000000000000,1.000000000000000,1.000000000000000,5000.000000000000000,47,,,,,,,,31415.926535897931899,78539816.339744821190834
48,0,48,47,Sudeste,NA,Restinga a Marambaia,-23.061833000000000,-43.591673000000000,NA,NA,NA,NA,NA,1.000000000000000,1.000000000000000,1.000000000000000,1.000000000000000,5000.000000000000000,48,,,,,,,,31415.926535897931899,78539816.339744821190834
49,0,49,48,Sudeste,NA,Grumari,-23.050469000000000,-43.533907999999997,NA,NA,NA,NA,NA,1.000000000000000,1.000000000000000,1.000000000000000,1.000000000000000,5000.000000000000000,49,,,,,,,,31415.926535897931899,78539816.339744821190834
50,0,50,49,Sudeste,NA,Reserva,-23.022717000000000,-43.440916000000001,NA,NA,NA,NA,NA,1.000000000000000,1.000000000000000,1.000000000000000,1.000000000000000,5000.000000000000000,50,,,,,,,,31415.926535897931899,78539816.339744821190834
51,0,51,50,Sudeste,NA,Barra da Tijuca,-23.020340120000000,-43.372478489999999,NA,NA,NA,NA,NA,1.000000000000000,1.000000000000000,1.000000000000000,1.000000000000000,5000.000000000000000,51,,,,,,,,31415.926535897931899,78539816.339744821190834
52,0,52,51,Sudeste,NA,Barra da Tijuca,-23.014886109999999,-43.372222219999998,NA,NA,NA,NA,NA,1.000000000000000,1.000000000000000,1.000000000000000,1.000000000000000,5000.000000000000000,52,,,,,,,,31415.926535897931899,78539816.339744821190834
53,0,53,52,Sudeste,NA,Sao Conrado,-23.000617999999999,-43.264187000000000,NA,NA,NA,NA,NA,1.000000000000000,1.000000000000000,1.000000000000000,1.000000000000000,5000.000000000000000,53,,,,,,,,31415.926535897931899,78539816.339744821190834
54,0,54,53,Sudeste,NA,Bambui,-22.975255000000001,-42.916570000000000,NA,NA,NA,NA,NA,1.000000000000000,1.000000000000000,1.000000000000000,1.000000000000000,5000.000000000000000,54,,,,,,,,31415.926535897931899,78539816.339744821190834
55,0,55,54,Sudeste,NA,Itaipuacu,-22.971149000000000,-43.011260000000000,NA,NA,NA,NA,NA,1.000000000000000,1.000000000000000,1.000000000000000,1.000000000000000,5000.000000000000000,55,,,,,,,,31415.926535897931899,78539816.339744821190834
56,0,56,55,Sudeste,NA,Barra de Marica,-22.962100000000000,-42.809486999999997,NA,NA,NA,NA,NA,1.000000000000000,1.000000000000000,1.000000000000000,1.000000000000000,5000.000000000000000,56,,,,,,,,31415.926535897931899,78539816.339744821190834
57,0,57,56,Sudeste,NA,Camboinhas,-22.961998000000001,-43.059922999999998,NA,NA,NA,NA,NA,1.000000000000000,1.000000000000000,1.000000000000000,1.000000000000000,5000.000000000000000,57,,,,,,,,31415.926535897931899,78539816.339744821190834
58,1,58,57,Sudeste,NA,Pirantininga,-22.955044999999998,-43.088653999999998,NA,NA,NA,NA,NA,1.000000000000000,1.000000000000000,1.000000000000000,1.000000000000000,5000.000000000000000,58,443.000000000000000,Hydrocharitaceae,Halophila,Halophila decipiens,Not reported,0.000000000000000,Not reported,31415.926535897931899,78539816.339744821190834
59,0,59,58,Sudeste,NA,Jacone,-22.946556000000001,-42.679789000000000,NA,NA,NA,NA,NA,1.000000000000000,1.000000000000000,1.000000000000000,1.000000000000000,5000.000000000000000,59,,,,,,,,31415.926535897931899,78539816.339744821190834
60,1,60,59,Sudeste,NA,Figueira,-22.944991999999999,-42.188828000000001,NA,NA,NA,NA,NA,1.000000000000000,1.000000000000000,1.000000000000000,1.000000000000000,5000.000000000000000,60,443.000000000000000,Cymodoceaceae,Halodule,Halodule wrightii,Not reported,0.000000000000000,Not reported,31415.926535897931899,78539816.339744821190834
61,2,61,60,Sudeste,NA,Praia do Fora,-22.944794000000002,-43.155304000000001,NA,NA,NA,NA,NA,1.000000000000000,1.000000000000000,1.000000000000000,1.000000000000000,5000.000000000000000,61,137.000000000000000,Hydrocharitaceae,Halophila,Halophila decipiens,Not reported,0.000000000000000,Not reported,31415.926535897931899,78539816.339744821190834
62,2,62,61,Sudeste,NA,Laje do Pao de Acucar,-22.938409000000000,-43.151797000000002,NA,NA,NA,NA,NA,1.000000000000000,1.000000000000000,1.000000000000000,1.000000000000000,5000.000000000000000,62,137.000000000000000,Hydrocharitaceae,Halophila,Halophila decipiens,Not reported,0.000000000000000,Not reported,31415.926535897931899,78539816.339744821190834
63,0,63,62,Sudeste,NA,Canal,-22.937418999999998,-42.487813000000003,NA,NA,NA,NA,NA,1.000000000000000,1.000000000000000,1.000000000000000,1.000000000000000,5000.000000000000000,63,,,,,,,,31415.926535897931899,78539816.339744821190834
64,0,64,63,Sudeste,NA,Praia Seca,-22.936126000000002,-42.361598000000001,NA,NA,NA,NA,NA,1.000000000000000,1.000000000000000,1.000000000000000,1.000000000000000,5000.000000000000000,64,,,,,,,,31415.926535897931899,78539816.339744821190834
65,0,65,64,Sudeste,NA,Caravelas,-22.814850000000000,-41.953901999999999,NA,NA,NA,NA,NA,1.000000000000000,1.000000000000000,1.000000000000000,1.000000000000000,5000.000000000000000,65,,,,,,,,31415.926535897931899,78539816.339744821190834
66,1,66,65,Sudeste,NA,Tucuns,-22.799863999999999,-41.929282000000001,NA,NA,NA,NA,NA,1.000000000000000,1.000000000000000,1.000000000000000,1.000000000000000,5000.000000000000000,66,137.000000000000000,Cymodoceaceae,Halodule,Halodule wrightii,Not reported,0.000000000000000,Not reported,31415.926535897931899,78539816.339744821190834
67,6,67,66,Sudeste,NA,Praia Brava,-22.754252000000001,-41.872608999999997,NA,NA,NA,NA,NA,1.000000000000000,1.000000000000000,1.000000000000000,1.000000000000000,5000.000000000000000,67,137.000000000000000,Cymodoceaceae,Halodule,Halodule wrightii,Not reported,0.000000000000000,Not reported,31415.926535897931899,78539816.339744821190834
68,0,68,67,Sudeste,NA,Marataizes,-21.044882999999999,-40.827455999999998,NA,NA,NA,NA,NA,1.000000000000000,1.000000000000000,1.000000000000000,1.000000000000000,5000.000000000000000,68,,,,,,,,31415.926535897931899,78539816.339744821190834
69,0,69,68,Sudeste,NA,Ponta do Ubu,-20.793246000000000,-40.579551000000002,NA,NA,NA,NA,NA,1.000000000000000,1.000000000000000,1.000000000000000,1.000000000000000,5000.000000000000000,69,,,,,,,,31415.926535897931899,78539816.339744821190834
70,0,70,69,Sudeste,NA,Ponta dos Castelhanos,-20.755085000000001,-40.560755000000000,NA,NA,NA,NA,NA,1.000000000000000,1.000000000000000,1.000000000000000,1.000000000000000,5000.000000000000000,70,,,,,,,,31415.926535897931899,78539816.339744821190834
71,0,71,70,Sudeste,NA,Maimba,-20.707021999999998,-40.514367999999997,NA,NA,NA,NA,NA,1.000000000000000,1.000000000000000,1.000000000000000,1.000000000000000,5000.000000000000000,71,,,,,,,,31415.926535897931899,78539816.339744821190834
72,0,72,71,Sudeste,NA,Praia do Morro,-20.659787999999999,-40.493842999999998,NA,NA,NA,NA,NA,1.000000000000000,1.000000000000000,1.000000000000000,1.000000000000000,5000.000000000000000,72,,,,,,,,31415.926535897931899,78539816.339744821190834
73,0,73,72,Sudeste,NA,Ponta de Bororo,-20.614518000000000,-40.415382000000001,NA,NA,NA,NA,NA,1.000000000000000,1.000000000000000,1.000000000000000,1.000000000000000,5000.000000000000000,73,,,,,,,,31415.926535897931899,78539816.339744821190834
74,0,74,73,Sudeste,NA,Tropical,-20.559543999999999,-40.391810000000000,NA,NA,NA,NA,NA,1.000000000000000,1.000000000000000,1.000000000000000,1.000000000000000,5000.000000000000000,74,,,,,,,,31415.926535897931899,78539816.339744821190834
75,0,75,74,Sudeste,NA,Dunas de Ule,-20.542100000000001,-40.379860999999998,NA,NA,NA,NA,NA,1.000000000000000,1.000000000000000,1.000000000000000,1.000000000000000,5000.000000000000000,75,,,,,,,,31415.926535897931899,78539816.339744821190834
76,0,76,75,Sudeste,NA,Guarapari - Ule,-20.541319000000001,-40.378385999999999,NA,NA,NA,NA,NA,1.000000000000000,1.000000000000000,1.000000000000000,1.000000000000000,5000.000000000000000,76,,,,,,,,31415.926535897931899,78539816.339744821190834
77,0,77,76,Sudeste,NA,Ponta da Fruta,-20.516836999999999,-40.358133000000002,NA,NA,NA,NA,NA,1.000000000000000,1.000000000000000,1.000000000000000,1.000000000000000,5000.000000000000000,77,,,,,,,,31415.926535897931899,78539816.339744821190834
78,0,78,77,Sudeste,NA,Coral Dois,-20.448948000000001,-40.330300000000001,NA,NA,NA,NA,NA,1.000000000000000,1.000000000000000,1.000000000000000,1.000000000000000,5000.000000000000000,78,,,,,,,,31415.926535897931899,78539816.339744821190834
79,0,79,78,Sudeste,NA,Ponta da Belina,-20.445827000000001,-40.329245000000000,NA,NA,NA,NA,NA,1.000000000000000,1.000000000000000,1.000000000000000,1.000000000000000,5000.000000000000000,79,,,,,,,,31415.926535897931899,78539816.339744821190834
80,0,80,79,Sudeste,NA,Coral Um,-20.437659000000000,-40.326006999999997,NA,NA,NA,NA,NA,1.000000000000000,1.000000000000000,1.000000000000000,1.000000000000000,5000.000000000000000,80,,,,,,,,31415.926535897931899,78539816.339744821190834
81,0,81,80,Sudeste,NA,"Barrao, Brazil",-20.427381000000000,-40.320982000000001,NA,NA,NA,NA,NA,1.000000000000000,1.000000000000000,1.000000000000000,1.000000000000000,5000.000000000000000,81,,,,,,,,31415.926535897931899,78539816.339744821190834
82,0,82,81,Sudeste,NA,Barrinha,-20.422540999999999,-40.321933999999999,NA,NA,NA,NA,NA,1.000000000000000,1.000000000000000,1.000000000000000,1.000000000000000,5000.000000000000000,82,,,,,,,,31415.926535897931899,78539816.339744821190834
83,1,83,82,Sudeste,NA,Praia de Camburi,-20.279677000000000,-40.248994000000003,NA,NA,NA,NA,NA,1.000000000000000,1.000000000000000,1.000000000000000,1.000000000000000,5000.000000000000000,83,443.000000000000000,Cymodoceaceae,Halodule,Halodule emarginata,Not reported,0.000000000000000,Not reported,31415.926535897931899,78539816.339744821190834
84,0,84,83,Sudeste,NA,Velzyland,-20.244838999999999,-40.216205000000002,NA,NA,NA,NA,NA,1.000000000000000,1.000000000000000,1.000000000000000,1.000000000000000,5000.000000000000000,84,,,,,,,,31415.926535897931899,78539816.339744821190834
85,0,85,84,Sudeste,NA,Ponta da Cacao,-20.219573000000000,-40.196268000000003,NA,NA,NA,NA,NA,1.000000000000000,1.000000000000000,1.000000000000000,1.000000000000000,5000.000000000000000,85,,,,,,,,31415.926535897931899,78539816.339744821190834
86,0,86,85,Sudeste,NA,"Manguinhos, Brazil",-20.199344000000000,-40.190266999999999,NA,NA,NA,NA,NA,1.000000000000000,1.000000000000000,1.000000000000000,1.000000000000000,5000.000000000000000,86,,,,,,,,31415.926535897931899,78539816.339744821190834
87,0,87,86,Sudeste,NA,Praia da Baleia,-20.171105000000001,-40.184866000000000,NA,NA,NA,NA,NA,1.000000000000000,1.000000000000000,1.000000000000000,1.000000000000000,5000.000000000000000,87,,,,,,,,31415.926535897931899,78539816.339744821190834
88,0,88,87,Sudeste,NA,Jacaraipe - Solemar,-20.109774999999999,-40.171481000000000,NA,NA,NA,NA,NA,1.000000000000000,1.000000000000000,1.000000000000000,1.000000000000000,5000.000000000000000,88,,,,,,,,31415.926535897931899,78539816.339744821190834
89,0,89,88,Sudeste,NA,Xa,-20.107229000000000,-40.171174999999998,NA,NA,NA,NA,NA,1.000000000000000,1.000000000000000,1.000000000000000,1.000000000000000,5000.000000000000000,89,,,,,,,,31415.926535897931899,78539816.339744821190834
90,0,90,89,Sudeste,NA,Nova Almeida,-20.058461999999999,-40.183000999999997,NA,NA,NA,NA,NA,1.000000000000000,1.000000000000000,1.000000000000000,1.000000000000000,5000.000000000000000,90,,,,,,,,31415.926535897931899,78539816.339744821190834
91,0,91,90,Sudeste,NA,Praia Grande,-20.047100000000000,-40.182743000000002,NA,NA,NA,NA,NA,1.000000000000000,1.000000000000000,1.000000000000000,1.000000000000000,5000.000000000000000,91,,,,,,,,31415.926535897931899,78539816.339744821190834
92,0,92,91,Sudeste,NA,Regencia,-19.562811000000000,-39.764263999999997,NA,NA,NA,NA,NA,1.000000000000000,1.000000000000000,1.000000000000000,1.000000000000000,5000.000000000000000,92,,,,,,,,31415.926535897931899,78539816.339744821190834
93,0,93,92,Sudeste,NA,Guriri,-18.910750000000000,-39.738563999999997,NA,NA,NA,NA,NA,1.000000000000000,1.000000000000000,1.000000000000000,1.000000000000000,5000.000000000000000,93,,,,,,,,31415.926535897931899,78539816.339744821190834
94,0,94,93,Nordeste,NA,Milionarios,-14.847631000000000,-39.022942000000000,NA,NA,NA,NA,NA,1.000000000000000,1.000000000000000,1.000000000000000,1.000000000000000,5000.000000000000000,94,,,,,,,,31415.926535897931899,78539816.339744821190834
95,0,95,94,Nordeste,NA,Sul,-14.831120000000000,-39.022562999999998,NA,NA,NA,NA,NA,1.000000000000000,1.000000000000000,1.000000000000000,1.000000000000000,5000.000000000000000,95,,,,,,,,31415.926535897931899,78539816.339744821190834
96,0,96,95,Nordeste,NA,Pedra da Cachorra,-14.821026000000000,-39.023632999999997,NA,NA,NA,NA,NA,1.000000000000000,1.000000000000000,1.000000000000000,1.000000000000000,5000.000000000000000,96,,,,,,,,31415.926535897931899,78539816.339744821190834
97,0,97,96,Nordeste,NA,Jardim Atlantico,-14.815026000000000,-39.023400000000002,NA,NA,NA,NA,NA,1.000000000000000,1.000000000000000,1.000000000000000,1.000000000000000,5000.000000000000000,97,,,,,,,,31415.926535897931899,78539816.339744821190834
98,0,98,97,Nordeste,NA,Baduska,-14.809442000000001,-39.023423000000001,NA,NA,NA,NA,NA,1.000000000000000,1.000000000000000,1.000000000000000,1.000000000000000,5000.000000000000000,98,,,,,,,,31415.926535897931899,78539816.339744821190834
99,0,99,98,Nordeste,NA,Norte,-14.660090000000000,-39.063006999999999,NA,NA,NA,NA,NA,1.000000000000000,1.000000000000000,1.000000000000000,1.000000000000000,5000.000000000000000,99,,,,,,,,31415.926535897931899,78539816.339744821190834
100,0,100,99,Nordeste,NA,Havaizinho,-14.468062000000000,-39.023161000000002,NA,NA,NA,NA,NA,1.000000000000000,1.000000000000000,1.000000000000000,1.000000000000000,5000.000000000000000,100,,,,,,,,31415.926535897931899,78539816.339744821190834
101,0,101,100,Nordeste,NA,Sao Jose,-14.316062000000001,-38.990701000000001,NA,NA,NA,NA,NA,1.000000000000000,1.000000000000000,1.000000000000000,1.000000000000000,5000.000000000000000,101,,,,,,,,31415.926535897931899,78539816.339744821190834
102,0,102,101,Nordeste,NA,Corals,-14.275408000000001,-38.982568999999998,NA,NA,NA,NA,NA,1.000000000000000,1.000000000000000,1.000000000000000,1.000000000000000,5000.000000000000000,102,,,,,,,,31415.926535897931899,78539816.339744821190834
103,0,103,102,Nordeste,NA,Tony,-13.016731999999999,-38.488781000000003,NA,NA,NA,NA,NA,1.000000000000000,1.000000000000000,1.000000000000000,1.000000000000000,5000.000000000000000,103,,,,,,,,31415.926535897931899,78539816.339744821190834
104,0,104,103,Nordeste,NA,Meridien,-13.016598000000000,-38.484878999999999,NA,NA,NA,NA,NA,1.000000000000000,1.000000000000000,1.000000000000000,1.000000000000000,5000.000000000000000,104,,,,,,,,31415.926535897931899,78539816.339744821190834
105,0,105,104,Nordeste,NA,Amaralina,-13.015369000000000,-38.471834000000001,NA,NA,NA,NA,NA,1.000000000000000,1.000000000000000,1.000000000000000,1.000000000000000,5000.000000000000000,105,,,,,,,,31415.926535897931899,78539816.339744821190834
106,0,106,105,Nordeste,NA,Tubao,-13.010683999999999,-38.461410999999998,NA,NA,NA,NA,NA,1.000000000000000,1.000000000000000,1.000000000000000,1.000000000000000,5000.000000000000000,106,,,,,,,,31415.926535897931899,78539816.339744821190834
107,0,107,106,Nordeste,NA,Psiu,-12.995919000000001,-38.439390000000003,NA,NA,NA,NA,NA,1.000000000000000,1.000000000000000,1.000000000000000,1.000000000000000,5000.000000000000000,107,,,,,,,,31415.926535897931899,78539816.339744821190834
108,0,108,107,Nordeste,NA,Alex,-12.973279000000000,-38.406477000000002,NA,NA,NA,NA,NA,1.000000000000000,1.000000000000000,1.000000000000000,1.000000000000000,5000.000000000000000,108,,,,,,,,31415.926535897931899,78539816.339744821190834
109,0,109,108,Nordeste,NA,Terceira Ponte,-12.963839999999999,-38.396822000000000,NA,NA,NA,NA,NA,1.000000000000000,1.000000000000000,1.000000000000000,1.000000000000000,5000.000000000000000,109,,,,,,,,31415.926535897931899,78539816.339744821190834
110,0,110,109,Nordeste,NA,SESC,-12.960485000000000,-38.390998000000003,NA,NA,NA,NA,NA,1.000000000000000,1.000000000000000,1.000000000000000,1.000000000000000,5000.000000000000000,110,,,,,,,,31415.926535897931899,78539816.339744821190834
111,0,111,110,Nordeste,NA,Farol,-12.958147000000000,-38.352812999999998,NA,NA,NA,NA,NA,1.000000000000000,1.000000000000000,1.000000000000000,1.000000000000000,5000.000000000000000,111,,,,,,,,31415.926535897931899,78539816.339744821190834
112,0,112,111,Nordeste,NA,Pedro do Sal,-12.954224000000000,-38.347234000000000,NA,NA,NA,NA,NA,1.000000000000000,1.000000000000000,1.000000000000000,1.000000000000000,5000.000000000000000,112,,,,,,,,31415.926535897931899,78539816.339744821190834
113,0,113,112,Nordeste,NA,Itapoa,-12.952339000000000,-38.369608999999997,NA,NA,NA,NA,NA,1.000000000000000,1.000000000000000,1.000000000000000,1.000000000000000,5000.000000000000000,113,,,,,,,,31415.926535897931899,78539816.339744821190834
114,0,114,113,Nordeste,NA,Seper,-12.952040999999999,-38.343243999999999,NA,NA,NA,NA,NA,1.000000000000000,1.000000000000000,1.000000000000000,1.000000000000000,5000.000000000000000,114,,,,,,,,31415.926535897931899,78539816.339744821190834
115,0,115,114,Nordeste,NA,Corrente,-12.948985000000000,-38.339199999999998,NA,NA,NA,NA,NA,1.000000000000000,1.000000000000000,1.000000000000000,1.000000000000000,5000.000000000000000,115,,,,,,,,31415.926535897931899,78539816.339744821190834
116,0,116,115,Nordeste,NA,Stela Maris,-12.947385000000001,-38.337372000000002,NA,NA,NA,NA,NA,1.000000000000000,1.000000000000000,1.000000000000000,1.000000000000000,5000.000000000000000,116,,,,,,,,31415.926535897931899,78539816.339744821190834
117,0,117,116,Nordeste,NA,Plator,-12.946393000000000,-38.333083999999999,NA,NA,NA,NA,NA,1.000000000000000,1.000000000000000,1.000000000000000,1.000000000000000,5000.000000000000000,117,,,,,,,,31415.926535897931899,78539816.339744821190834
118,0,118,117,Nordeste,NA,Aleluia,-12.926800999999999,-38.312618999999998,NA,NA,NA,NA,NA,1.000000000000000,1.000000000000000,1.000000000000000,1.000000000000000,5000.000000000000000,118,,,,,,,,31415.926535897931899,78539816.339744821190834
119,0,119,118,Nordeste,NA,Ipitanga,-12.920477000000000,-38.309717999999997,NA,NA,NA,NA,NA,1.000000000000000,1.000000000000000,1.000000000000000,1.000000000000000,5000.000000000000000,119,,,,,,,,31415.926535897931899,78539816.339744821190834
120,0,120,119,Nordeste,NA,Vilas,-12.894546000000000,-38.290790999999999,NA,NA,NA,NA,NA,1.000000000000000,1.000000000000000,1.000000000000000,1.000000000000000,5000.000000000000000,120,,,,,,,,31415.926535897931899,78539816.339744821190834
121,0,121,120,Nordeste,NA,Busca Vida,-12.863464000000000,-38.255961999999997,NA,NA,NA,NA,NA,1.000000000000000,1.000000000000000,1.000000000000000,1.000000000000000,5000.000000000000000,121,,,,,,,,31415.926535897931899,78539816.339744821190834
122,0,122,121,Nordeste,NA,Itacimirim,-12.639232000000000,-38.048194000000002,NA,NA,NA,NA,NA,1.000000000000000,1.000000000000000,1.000000000000000,1.000000000000000,5000.000000000000000,122,,,,,,,,31415.926535897931899,78539816.339744821190834
123,0,123,122,Nordeste,NA,Praia do Forte,-12.583304999999999,-38.005077999999997,NA,NA,NA,NA,NA,1.000000000000000,1.000000000000000,1.000000000000000,1.000000000000000,5000.000000000000000,123,,,,,,,,31415.926535897931899,78539816.339744821190834
124,0,124,123,Nordeste,NA,Imbassai,-12.342055000000000,-37.846200000000003,NA,NA,NA,NA,NA,1.000000000000000,1.000000000000000,1.000000000000000,1.000000000000000,5000.000000000000000,124,,,,,,,,31415.926535897931899,78539816.339744821190834
125,0,125,124,Nordeste,NA,Costa do Sauipe,-12.022171000000000,-37.645508000000000,NA,NA,NA,NA,NA,1.000000000000000,1.000000000000000,1.000000000000000,1.000000000000000,5000.000000000000000,125,,,,,,,,31415.926535897931899,78539816.339744821190834
126,0,126,125,Nordeste,NA,Marlin,-11.939802999999999,-37.602476000000003,NA,NA,NA,NA,NA,1.000000000000000,1.000000000000000,1.000000000000000,1.000000000000000,5000.000000000000000,126,,,,,,,,31415.926535897931899,78539816.339744821190834
127,0,127,126,Nordeste,NA,Conde,-11.848141000000000,-37.558169999999997,NA,NA,NA,NA,NA,1.000000000000000,1.000000000000000,1.000000000000000,1.000000000000000,5000.000000000000000,127,,,,,,,,31415.926535897931899,78539816.339744821190834
128,3,128,127,Nordeste,NA,Mangue Seco,-11.483613999999999,-37.364454000000002,NA,NA,NA,NA,NA,1.000000000000000,1.000000000000000,1.000000000000000,1.000000000000000,5000.000000000000000,128,137.000000000000000,Cymodoceaceae,Halodule,Halodule wrightii,Not reported,0.000000000000000,Not reported,31415.926535897931899,78539816.339744821190834
129,2,129,128,Nordeste,NA,Mosqueiro,-11.138116000000000,-37.145493000000002,NA,NA,NA,NA,NA,1.000000000000000,1.000000000000000,1.000000000000000,1.000000000000000,5000.000000000000000,129,137.000000000000000,Cymodoceaceae,Halodule,Halodule wrightii,Not reported,0.000000000000000,Not reported,31415.926535897931899,78539816.339744821190834
130,0,130,129,Nordeste,NA,Aruana,-11.067069000000000,-37.101289000000001,NA,NA,NA,NA,NA,1.000000000000000,1.000000000000000,1.000000000000000,1.000000000000000,5000.000000000000000,130,,,,,,,,31415.926535897931899,78539816.339744821190834
131,0,131,130,Nordeste,NA,Hawaiizinho,-11.043927999999999,-37.082977999999997,NA,NA,NA,NA,NA,1.000000000000000,1.000000000000000,1.000000000000000,1.000000000000000,5000.000000000000000,131,,,,,,,,31415.926535897931899,78539816.339744821190834
132,0,132,131,Nordeste,NA,Praia do Meio,-10.999541000000001,-37.050151000000000,NA,NA,NA,NA,NA,1.000000000000000,1.000000000000000,1.000000000000000,1.000000000000000,5000.000000000000000,132,,,,,,,,31415.926535897931899,78539816.339744821190834
133,0,133,132,Nordeste,NA,Pirambu,-10.746346000000001,-36.855099000000003,NA,NA,NA,NA,NA,1.000000000000000,1.000000000000000,1.000000000000000,1.000000000000000,5000.000000000000000,133,,,,,,,,31415.926535897931899,78539816.339744821190834
134,0,134,133,Nordeste,NA,Ponta do Mangue,-10.639483000000000,-36.678539000000001,NA,NA,NA,NA,NA,1.000000000000000,1.000000000000000,1.000000000000000,1.000000000000000,5000.000000000000000,134,,,,,,,,31415.926535897931899,78539816.339744821190834
135,0,135,134,Nordeste,NA,Pontal de Peba,-10.367584000000001,-36.303941000000002,NA,NA,NA,NA,NA,1.000000000000000,1.000000000000000,1.000000000000000,1.000000000000000,5000.000000000000000,135,,,,,,,,31415.926535897931899,78539816.339744821190834
136,0,136,135,Nordeste,NA,Mihai,-10.196728000000000,-36.181641999999997,NA,NA,NA,NA,NA,1.000000000000000,1.000000000000000,1.000000000000000,1.000000000000000,5000.000000000000000,136,,,,,,,,31415.926535897931899,78539816.339744821190834
137,0,137,136,Nordeste,NA,Pontal do Coruripe,-10.160774999999999,-36.150663999999999,NA,NA,NA,NA,NA,1.000000000000000,1.000000000000000,1.000000000000000,1.000000000000000,5000.000000000000000,137,,,,,,,,31415.926535897931899,78539816.339744821190834
138,0,138,137,Nordeste,NA,Forjos,-10.107661999999999,-36.097672000000003,NA,NA,NA,NA,NA,1.000000000000000,1.000000000000000,1.000000000000000,1.000000000000000,5000.000000000000000,138,,,,,,,,31415.926535897931899,78539816.339744821190834
139,0,139,138,Nordeste,NA,Poxim,-10.063563000000000,-36.040908999999999,NA,NA,NA,NA,NA,1.000000000000000,1.000000000000000,1.000000000000000,1.000000000000000,5000.000000000000000,139,,,,,,,,31415.926535897931899,78539816.339744821190834
140,0,140,139,Nordeste,NA,Jacarecica,-9.916383000000000,-35.945963999999996,NA,NA,NA,NA,NA,1.000000000000000,1.000000000000000,1.000000000000000,1.000000000000000,5000.000000000000000,140,,,,,,,,31415.926535897931899,78539816.339744821190834
141,0,141,140,Nordeste,NA,Praia do Meio,-9.824446999999999,-35.877803000000000,NA,NA,NA,NA,NA,1.000000000000000,1.000000000000000,1.000000000000000,1.000000000000000,5000.000000000000000,141,,,,,,,,31415.926535897931899,78539816.339744821190834
142,3,142,141,Nordeste,NA,Praia do Pontal,-9.682589999999999,-35.758536999999997,NA,NA,NA,NA,NA,1.000000000000000,1.000000000000000,1.000000000000000,1.000000000000000,5000.000000000000000,142,137.000000000000000,Cymodoceaceae,Halodule,Halodule wrightii,Not reported,0.000000000000000,Not reported,31415.926535897931899,78539816.339744821190834
143,3,143,142,Nordeste,NA,Salgema,-9.679629000000000,-35.718974000000003,NA,NA,NA,NA,NA,1.000000000000000,1.000000000000000,1.000000000000000,1.000000000000000,5000.000000000000000,143,137.000000000000000,Cymodoceaceae,Halodule,Halodule wrightii,Not reported,0.000000000000000,Not reported,31415.926535897931899,78539816.339744821190834
144,3,144,143,Nordeste,NA,Pier do Emissario,-9.673301000000000,-35.715234000000002,NA,NA,NA,NA,NA,1.000000000000000,1.000000000000000,1.000000000000000,1.000000000000000,5000.000000000000000,144,137.000000000000000,Cymodoceaceae,Halodule,Halodule wrightii,Not reported,0.000000000000000,Not reported,31415.926535897931899,78539816.339744821190834
145,3,145,144,Nordeste,NA,Praia do Sobral,-9.666869000000000,-35.710735000000000,NA,NA,NA,NA,NA,1.000000000000000,1.000000000000000,1.000000000000000,1.000000000000000,5000.000000000000000,145,137.000000000000000,Cymodoceaceae,Halodule,Halodule wrightii,Not reported,0.000000000000000,Not reported,31415.926535897931899,78539816.339744821190834
146,1,146,145,Nordeste,NA,"Pico da Barra, Brazil",-9.665630000000000,-35.697186000000002,NA,NA,NA,NA,NA,1.000000000000000,1.000000000000000,1.000000000000000,1.000000000000000,5000.000000000000000,146,443.000000000000000,Cymodoceaceae,Halodule,Halodule wrightii,Not reported,0.000000000000000,Not reported,31415.926535897931899,78539816.339744821190834
147,0,147,146,Nordeste,NA,Pedra Virada,-9.585521999999999,-35.660038000000000,NA,NA,NA,NA,NA,1.000000000000000,1.000000000000000,1.000000000000000,1.000000000000000,5000.000000000000000,147,,,,,,,,31415.926535897931899,78539816.339744821190834
148,0,148,147,Nordeste,NA,Praia de Jatiuca,-9.531449000000000,-35.590927999999998,NA,NA,NA,NA,NA,1.000000000000000,1.000000000000000,1.000000000000000,1.000000000000000,5000.000000000000000,148,,,,,,,,31415.926535897931899,78539816.339744821190834
149,0,149,148,Nordeste,NA,Garca Torta,-9.487114000000000,-35.557476999999999,NA,NA,NA,NA,NA,1.000000000000000,1.000000000000000,1.000000000000000,1.000000000000000,5000.000000000000000,149,,,,,,,,31415.926535897931899,78539816.339744821190834
150,0,150,149,Nordeste,NA,Mirante da Sirena,-9.430906000000000,-35.503683000000002,NA,NA,NA,NA,NA,1.000000000000000,1.000000000000000,1.000000000000000,1.000000000000000,5000.000000000000000,150,,,,,,,,31415.926535897931899,78539816.339744821190834
151,0,151,150,Nordeste,NA,Japaratinga,-9.261582000000001,-35.353366000000001,NA,NA,NA,NA,NA,1.000000000000000,1.000000000000000,1.000000000000000,1.000000000000000,5000.000000000000000,151,,,,,,,,31415.926535897931899,78539816.339744821190834
152,0,152,151,Nordeste,NA,Impossivel,-8.615505000000001,-35.020375000000001,NA,NA,NA,NA,NA,1.000000000000000,1.000000000000000,1.000000000000000,1.000000000000000,5000.000000000000000,152,,,,,,,,31415.926535897931899,78539816.339744821190834
153,0,153,152,Nordeste,NA,Serrambi,-8.576358000000001,-35.028714999999998,NA,NA,NA,NA,NA,1.000000000000000,1.000000000000000,1.000000000000000,1.000000000000000,5000.000000000000000,153,,,,,,,,31415.926535897931899,78539816.339744821190834
154,0,154,153,Nordeste,NA,Porto de Galinhas,-8.488678000000000,-34.999501000000002,NA,NA,NA,NA,NA,1.000000000000000,1.000000000000000,1.000000000000000,1.000000000000000,5000.000000000000000,154,,,,,,,,31415.926535897931899,78539816.339744821190834
155,0,155,154,Nordeste,NA,Cupe,-8.479708000000000,-34.996577000000002,NA,NA,NA,NA,NA,1.000000000000000,1.000000000000000,1.000000000000000,1.000000000000000,5000.000000000000000,155,,,,,,,,31415.926535897931899,78539816.339744821190834
156,0,156,155,Nordeste,NA,Gaibu,-8.341567000000000,-34.948825999999997,NA,NA,NA,NA,NA,1.000000000000000,1.000000000000000,1.000000000000000,1.000000000000000,5000.000000000000000,156,,,,,,,,31415.926535897931899,78539816.339744821190834
157,4,157,156,Nordeste,NA,Bessa,-7.091138000000000,-34.832765000000002,NA,NA,NA,NA,NA,1.000000000000000,1.000000000000000,1.000000000000000,1.000000000000000,5000.000000000000000,157,137.000000000000000,Cymodoceaceae,Halodule,Halodule wrightii,Not reported,0.000000000000000,Not reported,31415.926535897931899,78539816.339744821190834
158,0,158,157,Nordeste,NA,Saji,-6.466880000000000,-34.970449000000002,NA,NA,NA,NA,NA,1.000000000000000,1.000000000000000,1.000000000000000,1.000000000000000,5000.000000000000000,158,,,,,,,,31415.926535897931899,78539816.339744821190834
159,0,159,158,Nordeste,NA,Farol,-6.408908000000000,-34.979016999999999,NA,NA,NA,NA,NA,1.000000000000000,1.000000000000000,1.000000000000000,1.000000000000000,5000.000000000000000,159,,,,,,,,31415.926535897931899,78539816.339744821190834
160,0,160,159,Nordeste,NA,Xilauzinho,-6.395101000000000,-34.983204999999998,NA,NA,NA,NA,NA,1.000000000000000,1.000000000000000,1.000000000000000,1.000000000000000,5000.000000000000000,160,,,,,,,,31415.926535897931899,78539816.339744821190834
161,0,161,160,Nordeste,NA,Mar Aberto,-6.379758000000000,-34.989437000000002,NA,NA,NA,NA,NA,1.000000000000000,1.000000000000000,1.000000000000000,1.000000000000000,5000.000000000000000,161,,,,,,,,31415.926535897931899,78539816.339744821190834
162,0,162,161,Nordeste,NA,Pontal,-6.368680000000000,-34.993423999999997,NA,NA,NA,NA,NA,1.000000000000000,1.000000000000000,1.000000000000000,1.000000000000000,5000.000000000000000,162,,,,,,,,31415.926535897931899,78539816.339744821190834
163,0,163,162,Nordeste,NA,Mar da Frente,-6.365217000000000,-35.006211999999998,NA,NA,NA,NA,NA,1.000000000000000,1.000000000000000,1.000000000000000,1.000000000000000,5000.000000000000000,163,,,,,,,,31415.926535897931899,78539816.339744821190834
164,0,164,163,Nordeste,NA,Lajinha,-6.278960000000000,-35.033028000000002,NA,NA,NA,NA,NA,1.000000000000000,1.000000000000000,1.000000000000000,1.000000000000000,5000.000000000000000,164,,,,,,,,31415.926535897931899,78539816.339744821190834
165,0,165,164,Nordeste,NA,Afogados,-6.244350000000000,-35.036464000000002,NA,NA,NA,NA,NA,1.000000000000000,1.000000000000000,1.000000000000000,1.000000000000000,5000.000000000000000,165,,,,,,,,31415.926535897931899,78539816.339744821190834
166,0,166,165,Nordeste,NA,Sororoca,-6.238074000000000,-35.035608000000003,NA,NA,NA,NA,NA,1.000000000000000,1.000000000000000,1.000000000000000,1.000000000000000,5000.000000000000000,166,,,,,,,,31415.926535897931899,78539816.339744821190834
167,0,167,166,Nordeste,NA,Abacateiro,-6.233891000000000,-35.036746999999998,NA,NA,NA,NA,NA,1.000000000000000,1.000000000000000,1.000000000000000,1.000000000000000,5000.000000000000000,167,,,,,,,,31415.926535897931899,78539816.339744821190834
168,0,168,167,Nordeste,NA,Tibau do Sul,-6.180279000000000,-35.089708999999999,NA,NA,NA,NA,NA,1.000000000000000,1.000000000000000,1.000000000000000,1.000000000000000,5000.000000000000000,168,,,,,,,,31415.926535897931899,78539816.339744821190834
169,0,169,168,Nordeste,NA,Tabatinga,-6.049479000000000,-35.108238000000000,NA,NA,NA,NA,NA,1.000000000000000,1.000000000000000,1.000000000000000,1.000000000000000,5000.000000000000000,169,,,,,,,,31415.926535897931899,78539816.339744821190834
170,0,170,169,Nordeste,NA,Xoxoline,-6.005800000000000,-35.105258999999997,NA,NA,NA,NA,NA,1.000000000000000,1.000000000000000,1.000000000000000,1.000000000000000,5000.000000000000000,170,,,,,,,,31415.926535897931899,78539816.339744821190834
171,0,171,170,Nordeste,NA,Pirangi Reef,-5.980259000000000,-35.107796000000000,NA,NA,NA,NA,NA,1.000000000000000,1.000000000000000,1.000000000000000,1.000000000000000,5000.000000000000000,171,,,,,,,,31415.926535897931899,78539816.339744821190834
172,0,172,171,Nordeste,NA,Cotovelo,-5.949906000000000,-35.151975000000000,NA,NA,NA,NA,NA,1.000000000000000,1.000000000000000,1.000000000000000,1.000000000000000,5000.000000000000000,172,,,,,,,,31415.926535897931899,78539816.339744821190834
173,0,173,172,Nordeste,NA,Miami,-5.794834000000000,-35.181663999999998,NA,NA,NA,NA,NA,1.000000000000000,1.000000000000000,1.000000000000000,1.000000000000000,5000.000000000000000,173,,,,,,,,31415.926535897931899,78539816.339744821190834
174,0,174,173,Nordeste,NA,Areia Preta,-5.792249000000000,-35.184387000000001,NA,NA,NA,NA,NA,1.000000000000000,1.000000000000000,1.000000000000000,1.000000000000000,5000.000000000000000,174,,,,,,,,31415.926535897931899,78539816.339744821190834
175,0,175,174,Nordeste,NA,Praia dos Artistas,-5.781239000000000,-35.192050000000002,NA,NA,NA,NA,NA,1.000000000000000,1.000000000000000,1.000000000000000,1.000000000000000,5000.000000000000000,175,,,,,,,,31415.926535897931899,78539816.339744821190834
176,0,176,175,Nordeste,NA,Genipabu,-5.694407000000000,-35.201922000000003,NA,NA,NA,NA,NA,1.000000000000000,1.000000000000000,1.000000000000000,1.000000000000000,5000.000000000000000,176,,,,,,,,31415.926535897931899,78539816.339744821190834
177,0,177,176,Nordeste,NA,Touros Area,-5.197434000000000,-35.457929999999998,NA,NA,NA,NA,NA,1.000000000000000,1.000000000000000,1.000000000000000,1.000000000000000,5000.000000000000000,177,,,,,,,,31415.926535897931899,78539816.339744821190834
178,0,178,177,Nordeste,NA,Urca da Concei&ccedil;&atilde;o,-5.069617000000000,-35.800230999999997,NA,NA,NA,NA,NA,1.000000000000000,1.000000000000000,1.000000000000000,1.000000000000000,5000.000000000000000,178,,,,,,,,31415.926535897931899,78539816.339744821190834
179,0,179,178,Nordeste,NA,Cocoa das Lavadeiras,-5.066515000000000,-35.862005000000003,NA,NA,NA,NA,NA,1.000000000000000,1.000000000000000,1.000000000000000,1.000000000000000,5000.000000000000000,179,,,,,,,,31415.926535897931899,78539816.339744821190834
180,1,180,179,Nordeste,NA,Baia das Ratas,-3.813000000000000,-32.393000000000001,NA,NA,NA,NA,NA,1.000000000000000,1.000000000000000,1.000000000000000,1.000000000000000,5000.000000000000000,180,138.000000000000000,Cymodoceaceae,Halodule,Halodule wrightii,Not reported,0.000000000000000,Not reported,31415.926535897931899,78539816.339744821190834
181,1,181,180,Nordeste,NA,Volta da Jurema,-3.724294000000000,-38.496071999999998,NA,NA,NA,NA,NA,1.000000000000000,1.000000000000000,1.000000000000000,1.000000000000000,5000.000000000000000,181,137.000000000000000,Cymodoceaceae,Halodule,Halodule wrightii,Not reported,0.000000000000000,Not reported,31415.926535897931899,78539816.339744821190834
182,1,182,181,Nordeste,NA,Portao,-3.719326000000000,-38.510655000000000,NA,NA,NA,NA,NA,1.000000000000000,1.000000000000000,1.000000000000000,1.000000000000000,5000.000000000000000,182,137.000000000000000,Cymodoceaceae,Halodule,Halodule wrightii,Not reported,0.000000000000000,Not reported,31415.926535897931899,78539816.339744821190834
183,0,183,182,Nordeste,NA,Barra do Ceara,-3.692659000000000,-38.584716000000000,NA,NA,NA,NA,NA,1.000000000000000,1.000000000000000,1.000000000000000,1.000000000000000,5000.000000000000000,183,,,,,,,,31415.926535897931899,78539816.339744821190834
184,0,184,183,Nordeste,NA,Praia do Pecem,-3.546170000000000,-38.806919000000001,NA,NA,NA,NA,NA,1.000000000000000,1.000000000000000,1.000000000000000,1.000000000000000,5000.000000000000000,184,,,,,,,,31415.926535897931899,78539816.339744821190834
185,0,185,184,Nordeste,NA,Tabinha,-3.500935000000000,-38.911282000000000,NA,NA,NA,NA,NA,1.000000000000000,1.000000000000000,1.000000000000000,1.000000000000000,5000.000000000000000,185,,,,,,,,31415.926535897931899,78539816.339744821190834
186,1,186,185,Nordeste,NA,Pedra do Meio,-3.410858000000000,-39.040807000000001,NA,NA,NA,NA,NA,1.000000000000000,1.000000000000000,1.000000000000000,1.000000000000000,5000.000000000000000,186,443.000000000000000,Cymodoceaceae,Halodule,Halodule wrightii,Not reported,0.000000000000000,Not reported,31415.926535897931899,78539816.339744821190834
187,1,187,186,Nordeste,NA,Havaizinho,-3.403507000000000,-39.022171000000000,NA,NA,NA,NA,NA,1.000000000000000,1.000000000000000,1.000000000000000,1.000000000000000,5000.000000000000000,187,443.000000000000000,Cymodoceaceae,Halodule,Halodule wrightii,Not reported,0.000000000000000,Not reported,31415.926535897931899,78539816.339744821190834
188,1,188,187,Nordeste,NA,Curral,-3.403353000000000,-39.025868000000003,NA,NA,NA,NA,NA,1.000000000000000,1.000000000000000,1.000000000000000,1.000000000000000,5000.000000000000000,188,443.000000000000000,Cymodoceaceae,Halodule,Halodule wrightii,Not reported,0.000000000000000,Not reported,31415.926535897931899,78539816.339744821190834
189,0,189,188,Nordeste,NA,Outside,-3.398539000000000,-39.013306000000000,NA,NA,NA,NA,NA,1.000000000000000,1.000000000000000,1.000000000000000,1.000000000000000,5000.000000000000000,189,,,,,,,,31415.926535897931899,78539816.339744821190834
190,0,190,189,Nordeste,NA,Atins,-2.555789000000000,-42.727836000000003,NA,NA,NA,NA,NA,1.000000000000000,1.000000000000000,1.000000000000000,1.000000000000000,5000.000000000000000,190,,,,,,,,31415.926535897931899,78539816.339744821190834
191,0,191,190,Nordeste,NA,Ponta d'Areia,-2.497384000000000,-44.311779000000001,NA,NA,NA,NA,NA,1.000000000000000,1.000000000000000,1.000000000000000,1.000000000000000,5000.000000000000000,191,,,,,,,,31415.926535897931899,78539816.339744821190834
192,0,192,191,Nordeste,NA,S&atilde;o Marcos,-2.485445000000000,-44.297899999999998,NA,NA,NA,NA,NA,1.000000000000000,1.000000000000000,1.000000000000000,1.000000000000000,5000.000000000000000,192,,,,,,,,31415.926535897931899,78539816.339744821190834
193,0,193,192,Nordeste,NA,Calhau,-2.480673000000000,-44.249679999999998,NA,NA,NA,NA,NA,1.000000000000000,1.000000000000000,1.000000000000000,1.000000000000000,5000.000000000000000,193,,,,,,,,31415.926535897931899,78539816.339744821190834
194,0,194,193,Nordeste,NA,Olho D'Agu,-2.477097000000000,-44.230155000000003,NA,NA,NA,NA,NA,1.000000000000000,1.000000000000000,1.000000000000000,1.000000000000000,5000.000000000000000,194,,,,,,,,31415.926535897931899,78539816.339744821190834
195,0,195,194,Nordeste,NA,Ponta do Farol,-2.456442000000000,-44.173347999999997,NA,NA,NA,NA,NA,1.000000000000000,1.000000000000000,1.000000000000000,1.000000000000000,5000.000000000000000,195,,,,,,,,31415.926535897931899,78539816.339744821190834
196,0,196,195,Sul,Rio Grande Do Sul,Hermenegildo,-33.668354000000001,-53.262405000000001,3,3,Right and left,Beach-break,All surfers,2.000000000000000,3.000000000000000,1.000000000000000,3.000000000000000,5000.000000000000000,196,,,,,,,,31415.926535897931899,78539816.339744821190834
197,0,197,196,Sul,Rio Grande Do Sul,Navio,-32.290560999999997,-52.258674999999997,3,2,Right and left,Beach-break,All surfers,2.000000000000000,2.000000000000000,1.000000000000000,3.000000000000000,5000.000000000000000,197,,,,,,,,31415.926535897931899,78539816.339744821190834
198,0,198,197,Sul,Rio Grande Do Sul,Tres Marias,-32.192610999999999,-52.085065999999998,5,2,Right and left,Sand-bar,Pros or kamikaze only...,2.000000000000000,2.000000000000000,0.000000000000000,5.000000000000000,5000.000000000000000,198,,,,,,,,31415.926535897931899,78539816.339744821190834
199,0,199,198,Sul,Rio Grande Do Sul,Praia do Cassino,-32.178336999999999,-52.142142999999997,3,2,Right and left,Sand-bar,All surfers,2.000000000000000,2.000000000000000,1.000000000000000,3.000000000000000,5000.000000000000000,199,,,,,,,,31415.926535897931899,78539816.339744821190834
200,0,200,199,Sul,Rio Grande Do Sul,Sao Jose do Norte,-32.008076000000003,-52.018889999999999,3,NA,Right and left,Beach-break,All surfers,2.000000000000000,1.000000000000000,1.000000000000000,3.000000000000000,5000.000000000000000,200,,,,,,,,31415.926535897931899,78539816.339744821190834
201,0,201,200,Sul,Rio Grande Do Sul,Quintão,-30.410782000000001,-50.292664000000002,3.5,3,Right and left,Sand-bar,Experienced surfers,2.000000000000000,3.000000000000000,0.000000000000000,3.500000000000000,5000.000000000000000,201,,,,,,,,31415.926535897931899,78539816.339744821190834
202,0,202,201,Sul,Rio Grande Do Sul,Nova Tramandaí,-30.045256999999999,-50.150033999999998,3,3,Right and left,Beach-break,All surfers,2.000000000000000,3.000000000000000,1.000000000000000,3.000000000000000,5000.000000000000000,202,,,,,,,,31415.926535897931899,78539816.339744821190834
203,0,203,202,Sul,Rio Grande Do Sul,Oasis Sul,-30.039822999999998,-50.147266000000002,3,3,Right and left,Beach-break,All surfers,2.000000000000000,3.000000000000000,1.000000000000000,3.000000000000000,5000.000000000000000,203,,,,,,,,31415.926535897931899,78539816.339744821190834
204,0,204,203,Sul,Rio Grande Do Sul,Tramandai - Malvina,-30.005490000000002,-50.129156000000002,3.5,3,Right and left,Beach-break,All surfers,2.000000000000000,3.000000000000000,1.000000000000000,3.500000000000000,5000.000000000000000,204,,,,,,,,31415.926535897931899,78539816.339744821190834
205,0,205,204,Sul,Rio Grande Do Sul,Tramandai,-29.993077000000000,-50.125508000000004,3,3,Right and left,Beach-break,All surfers,2.000000000000000,3.000000000000000,1.000000000000000,3.000000000000000,5000.000000000000000,205,,,,,,,,31415.926535897931899,78539816.339744821190834
206,0,206,205,Sul,Rio Grande Do Sul,Rainha do Mar,-29.859477999999999,-50.064568999999999,3.5,5,Right and left,Beach-break,All surfers,2.000000000000000,5.000000000000000,1.000000000000000,3.500000000000000,5000.000000000000000,206,,,,,,,,31415.926535897931899,78539816.339744821190834
207,0,207,206,Sul,Rio Grande Do Sul,Xangri-lá,-29.785982000000001,-50.024636000000001,3,3,Right and left,Beach-break,All surfers,2.000000000000000,3.000000000000000,1.000000000000000,3.000000000000000,5000.000000000000000,207,,,,,,,,31415.926535897931899,78539816.339744821190834
208,0,208,207,Sul,Rio Grande Do Sul,Atlântida - Pier,-29.784716000000000,-50.022554000000000,3,3,Right and left,Sand-bar,All surfers,2.000000000000000,3.000000000000000,1.000000000000000,3.000000000000000,5000.000000000000000,208,,,,,,,,31415.926535897931899,78539816.339744821190834
209,0,209,208,Sul,Rio Grande Do Sul,Capao da Canoa,-29.758676999999999,-50.010967000000001,3,3,Right and left,Sand-bar,All surfers,2.000000000000000,3.000000000000000,1.000000000000000,3.000000000000000,5000.000000000000000,209,,,,,,,,31415.926535897931899,78539816.339744821190834
210,0,210,209,Sul,Rio Grande Do Sul,Capao Novo,-29.686972000000001,-49.972558999999997,3,3,Right and left,Beach-break,All surfers,2.000000000000000,3.000000000000000,1.000000000000000,3.000000000000000,5000.000000000000000,210,,,,,,,,31415.926535897931899,78539816.339744821190834
211,0,211,210,Sul,Rio Grande Do Sul,Curumim,-29.625605000000000,-49.935744999999997,3,4,Right and left,Beach-break,Experienced surfers,2.000000000000000,4.000000000000000,0.000000000000000,3.000000000000000,5000.000000000000000,211,,,,,,,,31415.926535897931899,78539816.339744821190834
212,0,212,211,Sul,Rio Grande Do Sul,Itapeva,-29.372975000000000,-49.784109999999998,3,3,Right and left,Beach-break,All surfers,2.000000000000000,3.000000000000000,1.000000000000000,3.000000000000000,5000.000000000000000,212,,,,,,,,31415.926535897931899,78539816.339744821190834
213,0,213,212,Sul,Rio Grande Do Sul,Guarita,-29.357804999999999,-49.733997000000002,3,2,Right and left,Beach-break,All surfers,2.000000000000000,2.000000000000000,1.000000000000000,3.000000000000000,5000.000000000000000,213,,,,,,,,31415.926535897931899,78539816.339744821190834
214,0,214,213,Sul,Rio Grande Do Sul,Cal,-29.349421000000000,-49.729849999999999,3.5,3,Right and left,Beach-break,All surfers,2.000000000000000,3.000000000000000,1.000000000000000,3.500000000000000,5000.000000000000000,214,,,,,,,,31415.926535897931899,78539816.339744821190834
215,0,215,214,Sul,Rio Grande Do Sul,Ilha dos Lobos,-29.346876999999999,-49.704411999999998,5,2,Left,Reef-rocky,Pros or kamikaze only...,1.000000000000000,2.000000000000000,0.000000000000000,5.000000000000000,5000.000000000000000,215,,,,,,,,31415.926535897931899,78539816.339744821190834
216,0,216,215,Sul,Rio Grande Do Sul,Prainha,-29.342434999999998,-49.724497000000000,3.5,3,Right and left,Beach-break,Experienced surfers,2.000000000000000,3.000000000000000,0.000000000000000,3.500000000000000,5000.000000000000000,216,,,,,,,,31415.926535897931899,78539816.339744821190834
217,0,217,216,Sul,Rio Grande Do Sul,Saraiva,-29.340395999999998,-49.723241000000002,3.5,3,Right and left,Beach-break,Experienced surfers,2.000000000000000,3.000000000000000,0.000000000000000,3.500000000000000,5000.000000000000000,217,,,,,,,,31415.926535897931899,78539816.339744821190834
218,0,218,217,Sul,Rio Grande Do Sul,Molhes,-29.327311000000002,-49.712007999999997,3.5,3,Right and left,Beach-break,All surfers,2.000000000000000,3.000000000000000,1.000000000000000,3.500000000000000,5000.000000000000000,218,,,,,,,,31415.926535897931899,78539816.339744821190834
219,0,219,218,Sul,Rio Grande Do Sul,Passo de Torres,-29.324159000000002,-49.712415999999997,3.5,2,Right and left,Rivermouth,Experienced surfers,2.000000000000000,2.000000000000000,0.000000000000000,3.500000000000000,5000.000000000000000,219,,,,,,,,31415.926535897931899,78539816.339744821190834
220,0,220,219,Sul,Santa Catarina South,Gaivota,-29.164828000000000,-49.582157000000002,3,2,Right and left,Beach-break,Experienced surfers,2.000000000000000,2.000000000000000,0.000000000000000,3.000000000000000,5000.000000000000000,220,,,,,,,,31415.926535897931899,78539816.339744821190834
221,0,221,220,Sul,Santa Catarina South,Arroio do Silva,-28.943866000000000,-49.385604999999998,3.5,2,Right and left,Beach-break,Experienced surfers,2.000000000000000,2.000000000000000,0.000000000000000,3.500000000000000,5000.000000000000000,221,,,,,,,,31415.926535897931899,78539816.339744821190834
222,0,222,221,Sul,Santa Catarina South,Morro dos Conventos,-28.937256000000001,-49.329642999999997,3.5,3,Right and left,Beach-break,All surfers,2.000000000000000,3.000000000000000,1.000000000000000,3.500000000000000,5000.000000000000000,222,,,,,,,,31415.926535897931899,78539816.339744821190834
223,0,223,222,Sul,Santa Catarina South,Rincão,-28.833846999999999,-49.216003000000001,3.5,4,Right and left,Beach-break,Experienced surfers,2.000000000000000,4.000000000000000,0.000000000000000,3.500000000000000,5000.000000000000000,223,,,,,,,,31415.926535897931899,78539816.339744821190834
224,0,224,223,Sul,Santa Catarina South,Jaguaruna,-28.635157000000000,-48.948211999999998,3.5,3,Right and left,Beach-break,All surfers,2.000000000000000,3.000000000000000,1.000000000000000,3.500000000000000,5000.000000000000000,224,,,,,,,,31415.926535897931899,78539816.339744821190834
225,0,225,224,Sul,Santa Catarina South,Camacho,-28.615946000000001,-48.859506000000003,3,2,NA,Beach-break,All surfers,1.000000000000000,2.000000000000000,1.000000000000000,3.000000000000000,5000.000000000000000,225,,,,,,,,31415.926535897931899,78539816.339744821190834
226,0,226,225,Sul,Santa Catarina South,Cigana,-28.613534999999999,-48.845387000000002,3,3,Right and left,Beach-break,Experienced surfers,2.000000000000000,3.000000000000000,0.000000000000000,3.000000000000000,5000.000000000000000,226,,,,,,,,31415.926535897931899,78539816.339744821190834
227,0,227,226,Sul,Santa Catarina South,Cardozo,-28.607516000000000,-48.822994999999999,3.5,4,Right and left,Beach-break,All surfers,2.000000000000000,4.000000000000000,1.000000000000000,3.500000000000000,5000.000000000000000,227,,,,,,,,31415.926535897931899,78539816.339744821190834
228,0,228,227,Sul,Santa Catarina South,Cemiterio,-28.604341999999999,-48.811998000000003,5,1,Right,Point-break,Pros or kamikaze only...,1.000000000000000,1.000000000000000,0.000000000000000,5.000000000000000,5000.000000000000000,228,,,,,,,,31415.926535897931899,78539816.339744821190834
229,0,229,228,Sul,Santa Catarina South,Prainha do Farol,-28.600442000000001,-48.816654999999997,3,1,Right,Beach-break,All surfers,1.000000000000000,1.000000000000000,1.000000000000000,3.000000000000000,5000.000000000000000,229,,,,,,,,31415.926535897931899,78539816.339744821190834
230,0,230,229,Sul,Santa Catarina South,Ipoa,-28.536688999999999,-48.765521000000000,3,4,Right and left,Beach-break,All surfers,2.000000000000000,4.000000000000000,1.000000000000000,3.000000000000000,5000.000000000000000,230,,,,,,,,31415.926535897931899,78539816.339744821190834
231,0,231,230,Sul,Santa Catarina South,Teresa,-28.524982000000001,-48.762453000000001,3,3,Right and left,Beach-break,All surfers,2.000000000000000,3.000000000000000,1.000000000000000,3.000000000000000,5000.000000000000000,231,,,,,,,,31415.926535897931899,78539816.339744821190834
232,0,232,231,Sul,Santa Catarina South,Praia de Cima,-28.497350000000001,-48.748752000000003,3.5,2,Right and left,Beach-break,All surfers,2.000000000000000,2.000000000000000,1.000000000000000,3.500000000000000,5000.000000000000000,232,,,,,,,,31415.926535897931899,78539816.339744821190834
233,0,233,232,Sul,Santa Catarina South,Laguna,-28.473973000000001,-48.762645999999997,3.5,3,Right and left,Beach-break,All surfers,2.000000000000000,3.000000000000000,1.000000000000000,3.500000000000000,5000.000000000000000,233,,,,,,,,31415.926535897931899,78539816.339744821190834
234,0,234,233,Sul,Santa Catarina South,Cavalinho,-28.419032000000001,-48.744278000000001,3.5,3,Right,Point-break,Experienced surfers,1.000000000000000,3.000000000000000,0.000000000000000,3.500000000000000,5000.000000000000000,234,,,,,,,,31415.926535897931899,78539816.339744821190834
235,0,235,234,Sul,Santa Catarina South,Itapirubá,-28.342309000000000,-48.707799999999999,3.5,4,Right and left,Beach-break,All surfers,2.000000000000000,4.000000000000000,1.000000000000000,3.500000000000000,5000.000000000000000,235,,,,,,,,31415.926535897931899,78539816.339744821190834
236,0,236,235,Sul,Santa Catarina South,Itapirubá Norte,-28.336776000000000,-48.704709999999999,3.5,3,Right and left,Beach-break,All surfers,2.000000000000000,3.000000000000000,1.000000000000000,3.500000000000000,5000.000000000000000,236,,,,,,,,31415.926535897931899,78539816.339744821190834
237,0,237,236,Sul,Santa Catarina South,Castelinho,-28.256232000000001,-48.672694999999997,4,4,Right and left,Beach-break,Experienced surfers,2.000000000000000,4.000000000000000,0.000000000000000,4.000000000000000,5000.000000000000000,237,,,,,,,,31415.926535897931899,78539816.339744821190834
238,0,238,237,Sul,Santa Catarina South,Praia da Vila,-28.241149000000000,-48.653877000000001,4,4,Right and left,Sand-bar,Experienced surfers,2.000000000000000,4.000000000000000,0.000000000000000,4.000000000000000,5000.000000000000000,238,,,,,,,,31415.926535897931899,78539816.339744821190834
239,0,239,238,Sul,Santa Catarina South,Ribanceira,-28.191742000000001,-48.661344000000000,3,2,Right and left,Sand-bar,All surfers,2.000000000000000,2.000000000000000,1.000000000000000,3.000000000000000,5000.000000000000000,239,,,,,,,,31415.926535897931899,78539816.339744821190834
240,0,240,239,Sul,Santa Catarina South,Ibiraquera,-28.153732000000002,-48.645895000000003,4,4,Right and left,Point-break,Experienced surfers,2.000000000000000,4.000000000000000,0.000000000000000,4.000000000000000,5000.000000000000000,240,,,,,,,,31415.926535897931899,78539816.339744821190834
241,0,241,240,Sul,Santa Catarina South,Rosa Sul,-28.135401999999999,-48.642691999999997,3.5,4,Right and left,Beach-break,All surfers,2.000000000000000,4.000000000000000,1.000000000000000,3.500000000000000,5000.000000000000000,241,,,,,,,,31415.926535897931899,78539816.339744821190834
242,0,242,241,Sul,Santa Catarina South,Rosa Norte,-28.124375000000001,-48.637675999999999,3.5,2,Right and left,Beach-break,All surfers,2.000000000000000,2.000000000000000,1.000000000000000,3.500000000000000,5000.000000000000000,242,,,,,,,,31415.926535897931899,78539816.339744821190834
243,0,243,242,Sul,Santa Catarina South,Vermelha,-28.114457999999999,-48.635573000000001,3.5,2,Left,Beach-break,Experienced surfers,1.000000000000000,2.000000000000000,0.000000000000000,3.500000000000000,5000.000000000000000,243,,,,,,,,31415.926535897931899,78539816.339744821190834
244,0,244,243,Sul,Santa Catarina South,Ouvidor,-28.105449000000000,-48.635272999999998,2,2,Right and left,Beach-break,Beginners wave,2.000000000000000,2.000000000000000,0.000000000000000,2.000000000000000,5000.000000000000000,244,,,,,,,,31415.926535897931899,78539816.339744821190834
245,0,245,244,Sul,Santa Catarina South,Barrinha,-28.085384000000001,-48.630896000000000,3.5,3,Right and left,Beach-break,NA,2.000000000000000,3.000000000000000,1.000000000000000,3.500000000000000,5000.000000000000000,245,,,,,,,,31415.926535897931899,78539816.339744821190834
246,0,246,245,Sul,Santa Catarina South,Ferrugem,-28.077736000000002,-48.626604000000000,3.5,4,Right and left,Sand-bar,All surfers,2.000000000000000,4.000000000000000,1.000000000000000,3.500000000000000,5000.000000000000000,246,,,,,,,,31415.926535897931899,78539816.339744821190834
247,0,247,246,Sul,Santa Catarina South,Praia do Silveira,-28.039069000000001,-48.606862999999997,4,4,Right,Point-break,Pros or kamikaze only...,1.000000000000000,4.000000000000000,0.000000000000000,4.000000000000000,5000.000000000000000,247,,,,,,,,31415.926535897931899,78539816.339744821190834
248,0,248,247,Sul,Santa Catarina South,Garopaba Centro,-28.021577000000001,-48.619447999999998,3,2,Right and left,Beach-break,All surfers,2.000000000000000,2.000000000000000,1.000000000000000,3.000000000000000,5000.000000000000000,248,,,,,,,,31415.926535897931899,78539816.339744821190834
249,0,249,248,Sul,Santa Catarina South,Siriu,-27.976248999999999,-48.627999000000003,3.5,3,Right and left,Beach-break,All surfers,2.000000000000000,3.000000000000000,1.000000000000000,3.500000000000000,5000.000000000000000,249,,,,,,,,31415.926535897931899,78539816.339744821190834
250,0,250,249,Sul,Santa Catarina South,Gamboa,-27.958926999999999,-48.624662000000001,3.5,1,Right and left,Beach-break,All surfers,2.000000000000000,1.000000000000000,1.000000000000000,3.500000000000000,5000.000000000000000,250,,,,,,,,31415.926535897931899,78539816.339744821190834
251,0,251,250,Sul,Santa Catarina South,Guarda do embau,-27.905540999999999,-48.586779000000000,4,3,Left,Rivermouth,Experienced surfers,1.000000000000000,3.000000000000000,0.000000000000000,4.000000000000000,5000.000000000000000,251,,,,,,,,31415.926535897931899,78539816.339744821190834
252,0,252,251,Sul,Santa Catarina South,Costão da Pinheira,-27.881077000000001,-48.586542999999999,3.5,1,Right,Point-break,Experienced surfers,1.000000000000000,1.000000000000000,0.000000000000000,3.500000000000000,5000.000000000000000,252,,,,,,,,31415.926535897931899,78539816.339744821190834
253,0,253,252,Sul,Florianopolis,Naufragados,-27.834740000000000,-48.566747999999997,5,3,Right,Beach-break,Pros or kamikaze only...,1.000000000000000,3.000000000000000,0.000000000000000,5.000000000000000,5000.000000000000000,253,,,,,,,,31415.926535897931899,78539816.339744821190834
254,0,254,253,Sul,Santa Catarina South,Solidao - Caladinho,-27.793519000000000,-48.533456000000001,3.5,3,Right,Point-break,Experienced surfers,1.000000000000000,3.000000000000000,0.000000000000000,3.500000000000000,5000.000000000000000,254,,,,,,,,31415.926535897931899,78539816.339744821190834
255,0,255,254,Sul,Santa Catarina South,Praia dos Açores,-27.784758000000000,-48.525989000000003,3,3,Right and left,Beach-break,All surfers,2.000000000000000,3.000000000000000,1.000000000000000,3.000000000000000,5000.000000000000000,255,,,,,,,,31415.926535897931899,78539816.339744821190834
256,0,256,255,Sul,Florianopolis,Lagoinha do Leste,-27.773575999999998,-48.486528000000000,3.5,4,Right and left,Beach-break,All surfers,2.000000000000000,4.000000000000000,1.000000000000000,3.500000000000000,5000.000000000000000,256,,,,,,,,31415.926535897931899,78539816.339744821190834
257,0,257,256,Sul,Florianopolis,Matadeiro,-27.755140000000001,-48.498522999999999,3.5,4,Right and left,Beach-break,Experienced surfers,2.000000000000000,4.000000000000000,0.000000000000000,3.500000000000000,5000.000000000000000,257,,,,,,,,31415.926535897931899,78539816.339744821190834
258,0,258,257,Sul,Florianopolis,Armação,-27.741619000000000,-48.508114999999997,3,2,Right and left,Beach-break,All surfers,2.000000000000000,2.000000000000000,1.000000000000000,3.000000000000000,5000.000000000000000,258,,,,,,,,31415.926535897931899,78539816.339744821190834
259,0,259,258,Sul,Florianopolis,Caldeirao,-27.723690000000001,-48.504595999999999,3.5,3,Left,Beach-break,Experienced surfers,1.000000000000000,3.000000000000000,0.000000000000000,3.500000000000000,5000.000000000000000,259,,,,,,,,31415.926535897931899,78539816.339744821190834
260,0,260,259,Sul,Florianopolis,Morro das Pedras,-27.715522000000000,-48.502257000000000,3,4,Right and left,Sand-bar,Experienced surfers,2.000000000000000,4.000000000000000,0.000000000000000,3.000000000000000,5000.000000000000000,260,,,,,,,,31415.926535897931899,78539816.339744821190834
261,0,261,260,Sul,Florianopolis,Campeche Rights,-27.693864000000001,-48.482686999999999,4,2,Right,Sand-bar,Experienced surfers,1.000000000000000,2.000000000000000,0.000000000000000,4.000000000000000,5000.000000000000000,261,,,,,,,,31415.926535897931899,78539816.339744821190834
262,0,262,261,Sul,Florianopolis,Riozinho,-27.685523000000000,-48.479598000000003,5,3,Right and left,Beach-break,Experienced surfers,2.000000000000000,3.000000000000000,0.000000000000000,5.000000000000000,5000.000000000000000,262,,,,,,,,31415.926535897931899,78539816.339744821190834
263,0,263,262,Sul,Florianopolis,Joaquina,-27.629588999999999,-48.448768000000001,4,4,Left,Sand-bar,Experienced surfers,1.000000000000000,4.000000000000000,0.000000000000000,4.000000000000000,5000.000000000000000,263,,,,,,,,31415.926535897931899,78539816.339744821190834
264,0,264,263,Sul,Florianopolis,Praia Mole,-27.602475999999999,-48.432583999999999,3.5,3,Right and left,Sand-bar,All surfers,2.000000000000000,3.000000000000000,1.000000000000000,3.500000000000000,5000.000000000000000,264,,,,,,,,31415.926535897931899,78539816.339744821190834
265,0,265,264,Sul,Florianopolis,Galheta,-27.593482000000002,-48.425224000000000,3.5,4,Right and left,Beach-break,All surfers,2.000000000000000,4.000000000000000,1.000000000000000,3.500000000000000,5000.000000000000000,265,,,,,,,,31415.926535897931899,78539816.339744821190834
266,0,266,265,Sul,Florianopolis,Barra da Lagoa,-27.572818000000002,-48.424376000000002,3,3,Right and left,Beach-break,Beginners wave,2.000000000000000,3.000000000000000,0.000000000000000,3.000000000000000,5000.000000000000000,266,,,,,,,,31415.926535897931899,78539816.339744821190834
267,0,267,266,Sul,Florianopolis,Mocambique,-27.525323000000000,-48.410567999999998,3.5,4,Right and left,Beach-break,All surfers,2.000000000000000,4.000000000000000,1.000000000000000,3.500000000000000,5000.000000000000000,267,,,,,,,,31415.926535897931899,78539816.339744821190834
268,0,268,267,Sul,Santa Catarina South,Ponta das Aranhas,-27.482099999999999,-48.380892000000003,3.5,4,Right and left,Beach-break,All surfers,2.000000000000000,4.000000000000000,1.000000000000000,3.500000000000000,5000.000000000000000,268,,,,,,,,31415.926535897931899,78539816.339744821190834
269,0,269,268,Sul,Florianopolis,Santinho,-27.457940000000001,-48.372630999999998,3.5,4,Right and left,Beach-break,Experienced surfers,2.000000000000000,4.000000000000000,0.000000000000000,3.500000000000000,5000.000000000000000,269,,,,,,,,31415.926535897931899,78539816.339744821190834
270,0,270,269,Sul,Florianopolis,Canasvieiras,-27.430966000000002,-48.479661999999998,3.5,1,Right,Sand-bar,All surfers,1.000000000000000,1.000000000000000,1.000000000000000,3.500000000000000,5000.000000000000000,270,,,,,,,,31415.926535897931899,78539816.339744821190834
271,0,271,270,Sul,Florianopolis,Praia do Forte,-27.430747000000000,-48.519658999999997,3.5,1,Right,Point-break,All surfers,1.000000000000000,1.000000000000000,1.000000000000000,3.500000000000000,5000.000000000000000,271,,,,,,,,31415.926535897931899,78539816.339744821190834
272,0,272,271,Sul,Florianopolis,Ingleses,-27.429832999999999,-48.390569999999997,3,2,Right and left,Beach-break,All surfers,2.000000000000000,2.000000000000000,1.000000000000000,3.000000000000000,5000.000000000000000,272,,,,,,,,31415.926535897931899,78539816.339744821190834
273,0,273,272,Sul,Florianopolis,Praia Brava,-27.400804000000001,-48.413401000000000,3.5,3,Right and left,Beach-break,Experienced surfers,2.000000000000000,3.000000000000000,0.000000000000000,3.500000000000000,5000.000000000000000,273,,,,,,,,31415.926535897931899,78539816.339744821190834
274,0,274,273,Sul,Santa Catarina South,Praia Brava,-27.396440999999999,-48.414130000000000,3,4,Right and left,Sand-bar,All surfers,2.000000000000000,4.000000000000000,1.000000000000000,3.000000000000000,5000.000000000000000,274,,,,,,,,31415.926535897931899,78539816.339744821190834
275,0,275,274,Sul,Florianopolis,Lambe lambe,-27.387601000000000,-48.433185000000002,4,1,Right,Point-break,Experienced surfers,1.000000000000000,1.000000000000000,0.000000000000000,4.000000000000000,5000.000000000000000,275,,,,,,,,31415.926535897931899,78539816.339744821190834
276,0,276,275,Sul,Florianopolis,Ponta Do Rapa,-27.380837000000000,-48.420524999999998,4,1,Right,Reef-rocky,Pros or kamikaze only...,1.000000000000000,1.000000000000000,0.000000000000000,4.000000000000000,5000.000000000000000,276,,,,,,,,31415.926535897931899,78539816.339744821190834
277,0,277,276,Sul,Santa Catarina North,Tingua,-27.368165999999999,-48.532501000000003,3.5,1,Left,Beach-break,Experienced surfers,1.000000000000000,1.000000000000000,0.000000000000000,3.500000000000000,5000.000000000000000,277,,,,,,,,31415.926535897931899,78539816.339744821190834
278,0,278,277,Sul,Santa Catarina North,Palmas,-27.321984000000000,-48.535451999999999,3.5,2,Right and left,Beach-break,Experienced surfers,2.000000000000000,2.000000000000000,0.000000000000000,3.500000000000000,5000.000000000000000,278,,,,,,,,31415.926535897931899,78539816.339744821190834
279,0,279,278,Sul,Santa Catarina North,Mariscal,-27.166504000000000,-48.494833000000000,3.5,3,Right and left,Beach-break,All surfers,2.000000000000000,3.000000000000000,1.000000000000000,3.500000000000000,5000.000000000000000,279,,,,,,,,31415.926535897931899,78539816.339744821190834
280,0,280,279,Sul,Santa Catarina North,Quatro Ilhas,-27.156195000000000,-48.482923999999997,3.5,3,Right,Point-break,Experienced surfers,1.000000000000000,3.000000000000000,0.000000000000000,3.500000000000000,5000.000000000000000,280,,,,,,,,31415.926535897931899,78539816.339744821190834
281,0,281,280,Sul,Santa Catarina North,Bombinhas,-27.148367000000000,-48.489531999999997,2,2,Right and left,Beach-break,Beginners wave,2.000000000000000,2.000000000000000,0.000000000000000,2.000000000000000,5000.000000000000000,281,,,,,,,,31415.926535897931899,78539816.339744821190834
282,0,282,281,Sul,Santa Catarina North,Bombas,-27.140118000000001,-48.506784000000003,3,2,Right and left,Beach-break,All surfers,2.000000000000000,2.000000000000000,1.000000000000000,3.000000000000000,5000.000000000000000,282,,,,,,,,31415.926535897931899,78539816.339744821190834
283,0,283,282,Sul,Santa Catarina North,Meia Praia,-27.104825000000002,-48.609009000000000,3,3,Right and left,Sand-bar,All surfers,2.000000000000000,3.000000000000000,1.000000000000000,3.000000000000000,5000.000000000000000,283,,,,,,,,31415.926535897931899,78539816.339744821190834
284,0,284,283,Sul,Santa Catarina North,Itapema,-27.095541000000001,-48.609738000000000,3,3,Right and left,Beach-break,All surfers,2.000000000000000,3.000000000000000,1.000000000000000,3.000000000000000,5000.000000000000000,284,,,,,,,,31415.926535897931899,78539816.339744821190834
285,0,285,284,Sul,Santa Catarina North,Ponta do Cabeço,-27.093436000000001,-48.601959999999998,4,2,Left,Reef-rocky,Experienced surfers,1.000000000000000,2.000000000000000,0.000000000000000,4.000000000000000,5000.000000000000000,285,,,,,,,,31415.926535897931899,78539816.339744821190834
286,0,286,285,Sul,Santa Catarina North,Mocó,-27.080182000000001,-48.588451999999997,4,2,Left,Reef-rocky,Experienced surfers,1.000000000000000,2.000000000000000,0.000000000000000,4.000000000000000,5000.000000000000000,286,,,,,,,,31415.926535897931899,78539816.339744821190834
287,0,287,286,Sul,Santa Catarina North,Estaleirinho,-27.049112000000001,-48.586779000000000,3,4,Right and left,Beach-break,Pros or kamikaze only...,2.000000000000000,4.000000000000000,0.000000000000000,3.000000000000000,5000.000000000000000,287,,,,,,,,31415.926535897931899,78539816.339744821190834
288,0,288,287,Sul,Santa Catarina North,Estaleiro (reef),-27.025050000000000,-48.574064999999997,3.5,2,Left,Reef-rocky,Experienced surfers,1.000000000000000,2.000000000000000,0.000000000000000,3.500000000000000,5000.000000000000000,288,,,,,,,,31415.926535897931899,78539816.339744821190834
289,0,289,288,Sul,Santa Catarina North,Balneário Camboriú,-26.987711999999998,-48.629950999999998,3,3,Right and left,Beach-break,All surfers,2.000000000000000,3.000000000000000,1.000000000000000,3.000000000000000,5000.000000000000000,289,,,,,,,,31415.926535897931899,78539816.339744821190834
290,0,290,289,Sul,Santa Catarina North,Parcel,-26.976469000000002,-48.623170999999999,4,1,Right and left,Reef-rocky,Pros or kamikaze only...,2.000000000000000,1.000000000000000,0.000000000000000,4.000000000000000,5000.000000000000000,290,,,,,,,,31415.926535897931899,78539816.339744821190834
291,0,291,290,Sul,Santa Catarina North,Praia dos Amores,-26.957191000000002,-48.629221999999999,3,2,Right and left,Beach-break,Experienced surfers,2.000000000000000,2.000000000000000,0.000000000000000,3.000000000000000,5000.000000000000000,291,,,,,,,,31415.926535897931899,78539816.339744821190834
292,0,292,291,Sul,Santa Catarina North,Praia Brava,-26.941659999999999,-48.628234999999997,3,3,Right and left,Beach-break,Experienced surfers,2.000000000000000,3.000000000000000,0.000000000000000,3.000000000000000,5000.000000000000000,292,,,,,,,,31415.926535897931899,78539816.339744821190834
293,0,293,292,Sul,Santa Catarina North,Morcego,-26.931052000000001,-48.625214999999997,3.5,NA,Left,Point-break,Pros or kamikaze only...,1.000000000000000,1.000000000000000,0.000000000000000,3.500000000000000,5000.000000000000000,293,,,,,,,,31415.926535897931899,78539816.339744821190834
294,0,294,293,Sul,Santa Catarina North,Atalaia,-26.915163000000000,-48.639361000000001,3.5,2,Left,breakwater/jetty,All surfers,1.000000000000000,2.000000000000000,1.000000000000000,3.500000000000000,5000.000000000000000,294,,,,,,,,31415.926535897931899,78539816.339744821190834
295,0,295,294,Sul,Santa Catarina North,Pracinha,-26.901883999999999,-48.641613999999997,3.5,4,Right and left,Beach-break,All surfers,2.000000000000000,4.000000000000000,1.000000000000000,3.500000000000000,5000.000000000000000,295,,,,,,,,31415.926535897931899,78539816.339744821190834
296,0,296,295,Sul,Santa Catarina North,Navegantes,-26.897577999999999,-48.638705999999999,3.5,3,Right and left,Beach-break,All surfers,2.000000000000000,3.000000000000000,1.000000000000000,3.500000000000000,5000.000000000000000,296,,,,,,,,31415.926535897931899,78539816.339744821190834
297,0,297,296,Sul,Santa Catarina North,Garrincha,-26.858702999999998,-48.634619000000001,3,2,Right and left,Sand-bar,Experienced surfers,2.000000000000000,2.000000000000000,0.000000000000000,3.000000000000000,5000.000000000000000,297,,,,,,,,31415.926535897931899,78539816.339744821190834
298,0,298,297,Sul,Santa Catarina North,Gravatá (1 e 2),-26.831883000000001,-48.621969000000000,3,3,Right and left,Beach-break,All surfers,2.000000000000000,3.000000000000000,1.000000000000000,3.000000000000000,5000.000000000000000,298,,,,,,,,31415.926535897931899,78539816.339744821190834
299,0,299,298,Sul,Santa Catarina North,Gravatá,-26.831730000000000,-48.623427999999997,3,3,Right and left,Beach-break,All surfers,2.000000000000000,3.000000000000000,1.000000000000000,3.000000000000000,5000.000000000000000,299,,,,,,,,31415.926535897931899,78539816.339744821190834
300,0,300,299,Sul,Santa Catarina North,Quilombo,-26.766992999999999,-48.639414000000002,3.5,2,Left,Beach-break,All surfers,1.000000000000000,2.000000000000000,1.000000000000000,3.500000000000000,5000.000000000000000,300,,,,,,,,31415.926535897931899,78539816.339744821190834
301,0,301,300,Sul,Santa Catarina North,Quilombo (reef),-26.765743000000001,-48.640143999999999,3.5,2,Right,Point-break,All surfers,1.000000000000000,2.000000000000000,1.000000000000000,3.500000000000000,5000.000000000000000,301,,,,,,,,31415.926535897931899,78539816.339744821190834
302,0,302,301,Sul,Santa Catarina North,molhe de Piçarras,-26.757026000000000,-48.673434999999998,3,1,Right,Point-break,All surfers,1.000000000000000,1.000000000000000,1.000000000000000,3.000000000000000,5000.000000000000000,302,,,,,,,,31415.926535897931899,78539816.339744821190834
303,0,303,302,Sul,Santa Catarina North,Laje do Jacques,-26.726915999999999,-48.673060000000000,4,2,Right and left,Reef-rocky,Experienced surfers,2.000000000000000,2.000000000000000,0.000000000000000,4.000000000000000,5000.000000000000000,303,,,,,,,,31415.926535897931899,78539816.339744821190834
304,0,304,303,Sul,Santa Catarina North,Syphodys,-26.701371000000002,-48.680247999999999,3,2,Right and left,Beach-break,Experienced surfers,2.000000000000000,2.000000000000000,0.000000000000000,3.000000000000000,5000.000000000000000,304,,,,,,,,31415.926535897931899,78539816.339744821190834
305,0,305,304,Sul,Santa Catarina North,ilha do grants,-26.696031999999999,-48.674990999999999,3.5,1,Left,Reef-rocky,Pros or kamikaze only...,1.000000000000000,1.000000000000000,0.000000000000000,3.500000000000000,5000.000000000000000,305,,,,,,,,31415.926535897931899,78539816.339744821190834
306,0,306,305,Sul,Santa Catarina North,barra de Itajuba,-26.691344999999998,-48.684164000000003,3,1,Right,Point-break,All surfers,1.000000000000000,1.000000000000000,1.000000000000000,3.000000000000000,5000.000000000000000,306,,,,,,,,31415.926535897931899,78539816.339744821190834
307,0,307,306,Sul,Santa Catarina North,Praia do Sol,-26.679962000000000,-48.688166000000002,2,3,Right and left,Point-break,All surfers,2.000000000000000,3.000000000000000,1.000000000000000,2.000000000000000,5000.000000000000000,307,,,,,,,,31415.926535897931899,78539816.339744821190834
308,0,308,307,Sul,Santa Catarina North,Praia do Tabuleiro,-26.643014000000001,-48.682051000000001,3,2,Right and left,Beach-break,Beginners wave,2.000000000000000,2.000000000000000,0.000000000000000,3.000000000000000,5000.000000000000000,308,,,,,,,,31415.926535897931899,78539816.339744821190834
309,0,309,308,Sul,Santa Catarina North,Canoas,-26.639403000000001,-48.682501000000002,2,3,Right and left,Beach-break,Beginners wave,2.000000000000000,3.000000000000000,0.000000000000000,2.000000000000000,5000.000000000000000,309,,,,,,,,31415.926535897931899,78539816.339744821190834
310,0,310,309,Sul,Santa Catarina North,Barrinha,-26.623905000000001,-48.679991000000001,3.5,3,Right and left,Beach-break,All surfers,2.000000000000000,3.000000000000000,1.000000000000000,3.500000000000000,5000.000000000000000,310,,,,,,,,31415.926535897931899,78539816.339744821190834
311,0,311,310,Sul,Santa Catarina North,Foz do Itapocu,-26.580708000000001,-48.663769000000002,3,3,Left,breakwater/jetty,All surfers,1.000000000000000,3.000000000000000,1.000000000000000,3.000000000000000,5000.000000000000000,311,,,,,,,,31415.926535897931899,78539816.339744821190834
312,0,312,311,Sul,Santa Catarina South,Foz do Itapocu,-26.566918999999999,-48.657525000000000,3.5,4,Right and left,Beach-break,All surfers,2.000000000000000,4.000000000000000,1.000000000000000,3.500000000000000,5000.000000000000000,312,,,,,,,,31415.926535897931899,78539816.339744821190834
313,0,313,312,Sul,Santa Catarina North,Praia do Bispo,-26.469248000000000,-48.607056000000000,3,4,Right and left,Beach-break,All surfers,2.000000000000000,4.000000000000000,1.000000000000000,3.000000000000000,5000.000000000000000,313,,,,,,,,31415.926535897931899,78539816.339744821190834
314,0,314,313,Sul,Santa Catarina North,Picama,-26.458086999999999,-48.596874000000000,3,3,Right and left,Sand-bar,Experienced surfers,2.000000000000000,3.000000000000000,0.000000000000000,3.000000000000000,5000.000000000000000,314,,,,,,,,31415.926535897931899,78539816.339744821190834
315,0,315,314,Sul,Santa Catarina North,"Praia Grande, São Francisco do Sul",-26.235880000000002,-48.502600000000001,3,3,Right and left,Beach-break,All surfers,2.000000000000000,3.000000000000000,1.000000000000000,3.000000000000000,5000.000000000000000,315,,,,,,,,31415.926535897931899,78539816.339744821190834
316,0,316,315,Sul,Santa Catarina South,Praia da Saudade,-26.230606000000002,-48.498888000000001,3.5,4,Right and left,Beach-break,All surfers,2.000000000000000,4.000000000000000,1.000000000000000,3.500000000000000,5000.000000000000000,316,,,,,,,,31415.926535897931899,78539816.339744821190834
317,0,317,316,Sul,Santa Catarina South,Sao Francisco do Sul,-26.219557999999999,-48.502107000000002,3,1,Right,Sand-bar,Beginners wave,1.000000000000000,1.000000000000000,0.000000000000000,3.000000000000000,5000.000000000000000,317,,,,,,,,31415.926535897931899,78539816.339744821190834
318,0,318,317,Sul,Santa Catarina South,Píer da Petrobras,-26.217386999999999,-48.500518999999997,3.5,2,Right,Point-break,All surfers,1.000000000000000,2.000000000000000,1.000000000000000,3.500000000000000,5000.000000000000000,318,,,,,,,,31415.926535897931899,78539816.339744821190834
319,0,319,318,Sul,Santa Catarina North,Sumidouro,-26.169526000000001,-48.552478999999998,3.5,1,Right and left,Beach-break,Experienced surfers,2.000000000000000,1.000000000000000,0.000000000000000,3.500000000000000,5000.000000000000000,319,,,,,,,,31415.926535897931899,78539816.339744821190834
320,0,320,319,Sul,Santa Catarina North,Praia do Forte,-26.163305999999999,-48.533220000000000,3.5,1,Right,Point-break,All surfers,1.000000000000000,1.000000000000000,1.000000000000000,3.500000000000000,5000.000000000000000,320,,,,,,,,31415.926535897931899,78539816.339744821190834
321,0,321,320,Sul,Santa Catarina North,Terceira Pedra,-26.067008999999999,-48.607646000000003,3.5,3,Right,Point-break,All surfers,1.000000000000000,3.000000000000000,1.000000000000000,3.500000000000000,5000.000000000000000,321,,,,,,,,31415.926535897931899,78539816.339744821190834
322,0,322,321,Sul,Santa Catarina North,Barra do sai mirim,-26.007832000000001,-48.604061000000002,3,3,Right and left,Beach-break,All surfers,2.000000000000000,3.000000000000000,1.000000000000000,3.000000000000000,5000.000000000000000,322,,,,,,,,31415.926535897931899,78539816.339744821190834
323,0,323,322,Sul,Parana,Barrinha,-25.976699000000000,-48.590727000000001,3,2,Right,Beach-break,Experienced surfers,1.000000000000000,2.000000000000000,0.000000000000000,3.000000000000000,5000.000000000000000,323,,,,,,,,31415.926535897931899,78539816.339744821190834
324,0,324,323,Sul,Parana,Guaratuba Praia Brava,-25.897758000000000,-48.564290999999997,3,3,Right and left,Beach-break,All surfers,2.000000000000000,3.000000000000000,1.000000000000000,3.000000000000000,5000.000000000000000,324,,,,,,,,31415.926535897931899,78539816.339744821190834
325,0,325,324,Sul,Parana,Praia Brava Guaratuba,-25.892817000000001,-48.561458999999999,3.5,3,Right and left,Beach-break,All surfers,2.000000000000000,3.000000000000000,1.000000000000000,3.500000000000000,5000.000000000000000,325,,,,,,,,31415.926535897931899,78539816.339744821190834
326,0,326,325,Sul,Parana,Direitas de Guaratuba,-25.890046000000002,-48.560288999999997,4,2,Right,Point-break,Experienced surfers,1.000000000000000,2.000000000000000,0.000000000000000,4.000000000000000,5000.000000000000000,326,,,,,,,,31415.926535897931899,78539816.339744821190834
327,0,327,326,Sul,Parana,Pico de Matinhos,-25.817817999999999,-48.529701000000003,3.5,3,Right,Point-break,Experienced surfers,1.000000000000000,3.000000000000000,0.000000000000000,3.500000000000000,5000.000000000000000,327,,,,,,,,31415.926535897931899,78539816.339744821190834
328,0,328,327,Sul,Parana,Ilha do Mel,-25.548327000000000,-48.295383000000001,3.5,3,Right and left,Beach-break,All surfers,2.000000000000000,3.000000000000000,1.000000000000000,3.500000000000000,5000.000000000000000,328,,,,,,,,31415.926535897931899,78539816.339744821190834
329,0,329,328,Sul,Parana,Farolete,-25.515314000000000,-48.286113999999998,3.5,4,Left,Point-break,Experienced surfers,1.000000000000000,4.000000000000000,0.000000000000000,3.500000000000000,5000.000000000000000,329,,,,,,,,31415.926535897931899,78539816.339744821190834
330,0,330,329,Sudeste,Sao Paolo South,"Guarau, Peruibe SP",-24.369537000000001,-47.011699999999998,3,4,Right and left,Beach-break,All surfers,2.000000000000000,4.000000000000000,1.000000000000000,3.000000000000000,5000.000000000000000,330,,,,,,,,31415.926535897931899,78539816.339744821190834
331,0,331,330,Sudeste,Sao Paolo South,Pier de Mongaguá,-24.095718000000002,-46.618552000000001,3.5,4,Right and left,Beach-break,All surfers,2.000000000000000,4.000000000000000,1.000000000000000,3.500000000000000,5000.000000000000000,331,,,,,,,,31415.926535897931899,78539816.339744821190834
332,0,332,332,Sudeste,Sao Paolo South,Tombo,-24.014990000000001,-46.272697000000001,3.5,4,Right and left,Beach-break,All surfers,2.000000000000000,4.000000000000000,1.000000000000000,3.500000000000000,5000.000000000000000,333,,,,,,,,31415.926535897931899,78539816.339744821190834
333,0,333,333,Sudeste,Sao Paulo North,Astúrias,-24.007738000000000,-46.266475000000000,3,2,Right and left,Beach-break,All surfers,2.000000000000000,2.000000000000000,1.000000000000000,3.000000000000000,5000.000000000000000,334,,,,,,,,31415.926535897931899,78539816.339744821190834
334,0,334,334,Sudeste,Sao Paolo South,Pitangueiras Beach,-24.000935999999999,-46.260767000000001,3.5,4,Right and left,Beach-break,Experienced surfers,2.000000000000000,4.000000000000000,0.000000000000000,3.500000000000000,5000.000000000000000,335,,,,,,,,31415.926535897931899,78539816.339744821190834
335,0,335,335,Sudeste,Sao Paulo North,porta do sol,-23.981331999999998,-46.373762999999997,3.5,2,Right and left,Point-break,Experienced surfers,2.000000000000000,2.000000000000000,0.000000000000000,3.500000000000000,5000.000000000000000,336,,,,,,,,31415.926535897931899,78539816.339744821190834
336,0,336,336,Sudeste,Sao Paolo South,Itarare,-23.972332999999999,-46.362003999999999,3,3,Right and left,Beach-break,All surfers,2.000000000000000,3.000000000000000,1.000000000000000,3.000000000000000,5000.000000000000000,337,,,,,,,,31415.926535897931899,78539816.339744821190834
337,0,337,337,Sudeste,Sao Paolo South,Santos,-23.971744000000001,-46.347208999999999,3,3,Right and left,Beach-break,All surfers,2.000000000000000,3.000000000000000,1.000000000000000,3.000000000000000,5000.000000000000000,338,,,,,,,,31415.926535897931899,78539816.339744821190834
338,0,338,338,Sudeste,Sao Paolo South,"Praia de Pernambuco (Pernambuco Beach, in Guaruja)",-23.963431000000000,-46.184033999999997,3.5,4,Right and left,Beach-break,All surfers,2.000000000000000,4.000000000000000,1.000000000000000,3.500000000000000,5000.000000000000000,339,,,,,,,,31415.926535897931899,78539816.339744821190834
339,0,339,339,Sudeste,Sao Paulo North,Bonete,-23.917383000000001,-45.347785999999999,3.5,4,Right and left,Beach-break,Experienced surfers,2.000000000000000,4.000000000000000,0.000000000000000,3.500000000000000,5000.000000000000000,340,,,,,,,,31415.926535897931899,78539816.339744821190834
340,0,340,340,Sudeste,Sao Paulo North,Sao Pedro,-23.908522000000001,-46.166581000000001,4,3,Right and left,Sand-bar,All surfers,2.000000000000000,3.000000000000000,1.000000000000000,4.000000000000000,5000.000000000000000,341,,,,,,,,31415.926535897931899,78539816.339744821190834
341,0,341,341,Sudeste,Sao Paolo South,Praia de Iporanga,-23.902191999999999,-46.152724999999997,3.5,2,Left,Reef-rocky,Pros or kamikaze only...,1.000000000000000,2.000000000000000,0.000000000000000,3.500000000000000,5000.000000000000000,342,,,,,,,,31415.926535897931899,78539816.339744821190834
342,0,342,342,Sudeste,Sao Paolo South,Taguaíba,-23.896726000000001,-46.151353999999998,3.5,4,Right and left,Beach-break,All surfers,2.000000000000000,4.000000000000000,1.000000000000000,3.500000000000000,5000.000000000000000,343,,,,,,,,31415.926535897931899,78539816.339744821190834
343,0,343,343,Sudeste,Sao Paolo South,praia branca,-23.863427999999999,-46.130795999999997,3.5,3,Left,Beach-break,All surfers,1.000000000000000,3.000000000000000,1.000000000000000,3.500000000000000,5000.000000000000000,344,,,,,,,,31415.926535897931899,78539816.339744821190834
344,1,344,344,Sudeste,Sao Paulo North,Castelhanos,-23.857582000000001,-45.288905999999997,3.5,3,Right and left,Beach-break,Experienced surfers,2.000000000000000,3.000000000000000,0.000000000000000,3.500000000000000,5000.000000000000000,345,443.000000000000000,Cymodoceaceae,Halodule,Halodule emarginata,Not reported,0.000000000000000,Not reported,31415.926535897931899,78539816.339744821190834
345,0,345,345,Sudeste,Sao Paulo North,Enseada - Bertioga,-23.839860000000002,-46.123674000000001,3,4,Right and left,Beach-break,All surfers,2.000000000000000,4.000000000000000,1.000000000000000,3.000000000000000,5000.000000000000000,346,,,,,,,,31415.926535897931899,78539816.339744821190834
346,0,346,346,Sudeste,Sao Paulo North,Santiago,-23.819897999999998,-45.541420000000002,3.5,2,Right and left,Beach-break,Experienced surfers,2.000000000000000,2.000000000000000,0.000000000000000,3.500000000000000,5000.000000000000000,347,,,,,,,,31415.926535897931899,78539816.339744821190834
347,0,347,347,Sudeste,Sao Paulo North,Guaecá,-23.819123000000001,-45.466200000000001,3.5,3,Right and left,Beach-break,All surfers,2.000000000000000,3.000000000000000,1.000000000000000,3.500000000000000,5000.000000000000000,348,,,,,,,,31415.926535897931899,78539816.339744821190834
348,0,348,348,Sudeste,Sao Paulo North,Riviera de São Lourenço,-23.808668999999998,-46.022072000000001,3,3,Right and left,Beach-break,All surfers,2.000000000000000,3.000000000000000,1.000000000000000,3.000000000000000,5000.000000000000000,349,,,,,,,,31415.926535897931899,78539816.339744821190834
349,0,349,349,Sudeste,Sao Paulo North,Paúba,-23.802819000000000,-45.553167999999999,4,2,Right and left,Beach-break,Pros or kamikaze only...,2.000000000000000,2.000000000000000,0.000000000000000,4.000000000000000,5000.000000000000000,350,,,,,,,,31415.926535897931899,78539816.339744821190834
350,0,350,350,Sudeste,Sao Paulo North,Itaguaré,-23.796026000000001,-45.991173000000003,3,4,Right and left,Beach-break,All surfers,2.000000000000000,4.000000000000000,1.000000000000000,3.000000000000000,5000.000000000000000,351,,,,,,,,31415.926535897931899,78539816.339744821190834
351,0,351,351,Sudeste,Sao Paulo North,Maresias,-23.791530000000002,-45.573456000000000,3.5,4,Right and left,Beach-break,All surfers,2.000000000000000,4.000000000000000,1.000000000000000,3.500000000000000,5000.000000000000000,352,,,,,,,,31415.926535897931899,78539816.339744821190834
352,0,352,352,Sudeste,Sao Paulo North,Camburi,-23.778825999999999,-45.649137000000003,3.5,4,Right and left,Beach-break,All surfers,2.000000000000000,4.000000000000000,1.000000000000000,3.500000000000000,5000.000000000000000,353,,,,,,,,31415.926535897931899,78539816.339744821190834
353,0,353,353,Sudeste,Sao Paulo North,Baleia,-23.777600000000000,-45.670217000000001,3.5,3,Right and left,Beach-break,All surfers,2.000000000000000,3.000000000000000,1.000000000000000,3.500000000000000,5000.000000000000000,354,,,,,,,,31415.926535897931899,78539816.339744821190834
354,0,354,354,Sudeste,Sao Paulo North,Guaratuba,-23.772306000000000,-45.922251000000003,3,3,Right and left,Beach-break,Experienced surfers,2.000000000000000,3.000000000000000,0.000000000000000,3.000000000000000,5000.000000000000000,355,,,,,,,,31415.926535897931899,78539816.339744821190834
355,0,355,355,Sudeste,Sao Paulo North,Juquehy,-23.768065000000000,-45.738143999999998,3,4,Right and left,Beach-break,All surfers,2.000000000000000,4.000000000000000,1.000000000000000,3.000000000000000,5000.000000000000000,356,,,,,,,,31415.926535897931899,78539816.339744821190834
356,0,356,356,Sudeste,Sao Paulo North,Massaguaçu,-23.590772999999999,-45.334611000000002,3.5,2,Right and left,Beach-break,Experienced surfers,2.000000000000000,2.000000000000000,0.000000000000000,3.500000000000000,5000.000000000000000,357,,,,,,,,31415.926535897931899,78539816.339744821190834
357,0,357,357,Sudeste,Sao Paulo North,Simão,-23.585149000000001,-45.238287000000000,3.5,3,Right,Beach-break,Experienced surfers,1.000000000000000,3.000000000000000,0.000000000000000,3.500000000000000,5000.000000000000000,358,,,,,,,,31415.926535897931899,78539816.339744821190834
358,0,358,358,Sudeste,Sao Paulo North,Praia do sape,-23.531963000000001,-45.222301000000002,3.5,3,Right and left,Beach-break,All surfers,2.000000000000000,3.000000000000000,1.000000000000000,3.500000000000000,5000.000000000000000,359,,,,,,,,31415.926535897931899,78539816.339744821190834
359,0,359,359,Sudeste,Sao Paulo North,Lagoinha,-23.521339000000001,-45.205221000000002,3.5,2,Right and left,Beach-break,Beginners wave,2.000000000000000,2.000000000000000,0.000000000000000,3.500000000000000,5000.000000000000000,360,,,,,,,,31415.926535897931899,78539816.339744821190834
360,0,360,360,Sudeste,Sao Paulo North,Sununga,-23.511344000000001,-45.129432999999999,3.5,3,Right,Beach-break,Pros or kamikaze only...,1.000000000000000,3.000000000000000,0.000000000000000,3.500000000000000,5000.000000000000000,361,,,,,,,,31415.926535897931899,78539816.339744821190834
361,2,361,361,Sudeste,Sao Paulo North,Toninhas,-23.484739000000001,-45.073771000000001,3,2,Right and left,Beach-break,All surfers,2.000000000000000,2.000000000000000,1.000000000000000,3.000000000000000,5000.000000000000000,362,137.000000000000000,Cymodoceaceae,Halodule,Halodule emarginata,Not reported,0.000000000000000,Not reported,31415.926535897931899,78539816.339744821190834
362,2,362,362,Sudeste,Sao Paulo North,Praia Grande (PG),-23.478835000000000,-45.067290999999997,3,3,Right and left,Beach-break,All surfers,2.000000000000000,3.000000000000000,1.000000000000000,3.000000000000000,5000.000000000000000,363,137.000000000000000,Cymodoceaceae,Halodule,Halodule emarginata,Not reported,0.000000000000000,Not reported,31415.926535897931899,78539816.339744821190834
363,4,363,363,Sudeste,Sao Paulo North,Praia Grande North,-23.467497999999999,-45.062055999999998,3,3,Left,Beach-break,All surfers,1.000000000000000,3.000000000000000,1.000000000000000,3.000000000000000,5000.000000000000000,364,137.000000000000000,Cymodoceaceae,Halodule,Halodule emarginata,Not reported,0.000000000000000,Not reported,31415.926535897931899,78539816.339744821190834
364,2,364,364,Sudeste,Sao Paulo North,Vermelha do Centro,-23.463128000000001,-45.049353000000004,3.5,4,Right and left,Beach-break,All surfers,2.000000000000000,4.000000000000000,1.000000000000000,3.500000000000000,5000.000000000000000,365,443.000000000000000,Cymodoceaceae,Halodule,Halodule emarginata,Not reported,0.000000000000000,Not reported,31415.926535897931899,78539816.339744821190834
365,0,365,365,Sudeste,Sao Paulo North,Patiero,-23.456318000000000,-45.021242999999998,3.5,2,NA,Reef-rocky,Experienced surfers,1.000000000000000,2.000000000000000,0.000000000000000,3.500000000000000,5000.000000000000000,366,,,,,,,,31415.926535897931899,78539816.339744821190834
366,2,366,366,Sudeste,Sao Paulo North,Vermelha do Norte,-23.416982000000001,-45.035876999999999,3,3,Right and left,Beach-break,All surfers,2.000000000000000,3.000000000000000,1.000000000000000,3.000000000000000,5000.000000000000000,367,443.000000000000000,Cymodoceaceae,Halodule,Halodule emarginata,Not reported,0.000000000000000,Not reported,31415.926535897931899,78539816.339744821190834
367,0,367,367,Sudeste,Sao Paulo North,Itamambuca,-23.402332000000001,-45.001458999999997,3.5,4,Right and left,Beach-break,All surfers,2.000000000000000,4.000000000000000,1.000000000000000,3.500000000000000,5000.000000000000000,368,,,,,,,,31415.926535897931899,78539816.339744821190834
368,0,368,368,Sudeste,Sao Paulo North,Praia do Felix,-23.389334000000002,-44.972405000000002,3.5,3,Right and left,Beach-break,All surfers,2.000000000000000,3.000000000000000,1.000000000000000,3.500000000000000,5000.000000000000000,369,,,,,,,,31415.926535897931899,78539816.339744821190834
